Timestamp,stabilizer.pitch,stabilizer.roll,stabilizer.thrust,stabilizer.yaw
1688648223.2718759,0.4802891314029693,-0.8676857352256775,0.0,32.039703369140625
1688648223.2818758,0.4804510176181793,-0.8673890829086304,0.0,32.03878402709961
1688648223.2918758,0.480990320444107,-0.8659226894378662,0.0,32.03804397583008
1688648223.3018758,0.4809306859970093,-0.8657739758491516,0.0,32.03770446777344
1688648223.3118758,0.4782848954200744,-0.8661837577819824,0.0,32.03868103027344
1688648223.3218758,0.4778789281845093,-0.8658038377761841,0.0,32.03749465942383
1688648223.3318758,0.4771969318389892,-0.8658410310745239,0.0,32.037628173828125
1688648223.3418758,0.4777868092060089,-0.8663954138755798,0.0,32.03733444213867
1688648223.3518758,0.4768968224525451,-0.8665962219238281,0.0,32.036590576171875
1688648223.3618758,0.4782469570636749,-0.866860568523407,0.0,32.036006927490234
1688648223.3718758,0.4776893258094787,-0.8677916526794434,0.0,32.0359001159668
1688648223.3818758,0.4772956073284149,-0.8677516579627991,0.0,32.03330612182617
1688648223.3918757,0.4771918356418609,-0.868776798248291,0.0,32.032569885253906
1688648223.401876,0.476107507944107,-0.8694549202919006,0.0,32.03202819824219
1688648223.411876,0.4754334390163421,-0.8698263764381409,0.0,32.03200149536133
1688648223.421876,0.4757750928401947,-0.8706691861152649,0.0,32.03251266479492
1688648223.431876,0.4750286042690277,-0.8706320524215698,0.0,32.03138732910156
1688648223.441876,0.4757543206214905,-0.8713622093200684,0.0,32.030845642089844
1688648223.451876,0.4760725498199463,-0.8734775185585022,0.0,32.03178024291992
1688648223.461876,0.474833071231842,-0.8730972409248352,0.0,32.0330810546875
1688648223.471876,0.4754184484481811,-0.8733747601509094,0.0,32.03252029418945
1688648223.481876,0.4754290878772735,-0.8719711899757385,0.0,32.03145980834961
1688648223.491876,0.474342405796051,-0.8716046810150146,0.0,32.031341552734375
1688648223.5018759,0.4747877120971679,-0.8715288639068604,0.0,32.030250549316406
1688648223.5118759,0.4736639261245727,-0.8717703819274902,0.0,32.03109359741211
1688648223.5218759,0.4734793603420257,-0.8718166351318359,0.0,32.03263092041016
1688648223.5318758,0.4735897183418274,-0.8715150952339172,0.0,32.032127380371094
1688648223.5418758,0.4752301275730133,-0.8718583583831787,0.0,32.03202819824219
1688648223.5518758,0.4745342433452606,-0.87104731798172,0.0,32.03212356567383
1688648223.5618758,0.4743901193141937,-0.8708228468894958,0.0,32.030635833740234
1688648223.5718758,0.4754909574985504,-0.8702343106269836,0.0,32.02842712402344
1688648223.5818758,0.4758927226066589,-0.8701884150505066,0.0,32.02817153930664
1688648223.5918758,0.4761830270290375,-0.8689433932304382,0.0,32.028053283691406
1688648223.6018758,0.4770787060260772,-0.8681401610374451,0.0,32.02789306640625
1688648223.6118758,0.4755571782588959,-0.8688170909881592,0.0,32.02775192260742
1688648223.6218758,0.4754059016704559,-0.8691129088401794,0.0,32.02821350097656
1688648223.6318758,0.4755277335643768,-0.8690927624702454,0.0,32.02760696411133
1688648223.6418757,0.4756919741630554,-0.8700061440467834,0.0,32.02790069580078
1688648223.651876,0.4753221571445465,-0.8690707683563232,0.0,32.02537155151367
1688648223.661876,0.4748612642288208,-0.8681868314743042,0.0,32.02496337890625
1688648223.671876,0.4746228456497192,-0.8685873746871948,0.0,32.02585983276367
1688648223.681876,0.4731658101081848,-0.868248701095581,0.0,32.02462387084961
1688648223.691876,0.4760254025459289,-0.8674200177192688,0.0,32.02635955810547
1688648223.701876,0.476665735244751,-0.8672014474868774,0.0,32.02566909790039
1688648223.711876,0.4760980904102325,-0.8669121265411377,0.0,32.02501678466797
1688648223.721876,0.4777807593345642,-0.8668888807296753,0.0,32.02519226074219
1688648223.731876,0.477139949798584,-0.8663849830627441,0.0,32.026119232177734
1688648223.741876,0.4759013056755066,-0.8661988973617554,0.0,32.02507781982422
1688648223.7518759,0.4773337841033935,-0.8666823506355286,0.0,32.02283477783203
1688648223.7618759,0.4783004820346832,-0.8670605421066284,0.0,32.02145004272461
1688648223.7718759,0.4773263037204742,-0.8667759299278259,0.0,32.022918701171875
1688648223.7818758,0.4772113859653473,-0.8658578991889954,0.0,32.02311325073242
1688648223.7918758,0.4773763716220855,-0.8671038150787354,0.0,32.02348327636719
1688648223.8018758,0.4771896004676819,-0.8677854537963867,0.0,32.02358627319336
1688648223.8118758,0.4762472510337829,-0.8679406642913818,0.0,32.0222282409668
1688648223.8218758,0.4745970964431762,-0.8688170313835144,0.0,32.02183532714844
1688648223.8318758,0.4758520126342773,-0.8691295385360718,0.0,32.021484375
1688648223.8418758,0.4758152961730957,-0.8687635064125061,0.0,32.02091217041016
1688648223.8518758,0.4767924845218658,-0.8688817620277405,0.0,32.019229888916016
1688648223.8618758,0.4765318036079407,-0.8681887984275818,0.0,32.01931381225586
1688648223.8718758,0.4766350090503692,-0.8675307631492615,0.0,32.02013397216797
1688648223.8818758,0.4772354066371918,-0.867436408996582,0.0,32.01941680908203
1688648223.8918757,0.4784090518951416,-0.8650544881820679,0.0,32.018062591552734
1688648223.901876,0.4773917198181152,-0.8654688000679016,0.0,32.01935958862305
1688648223.911876,0.4762886464595794,-0.865903913974762,0.0,32.02049255371094
1688648223.921876,0.4754983186721802,-0.8658030033111572,0.0,32.020782470703125
1688648223.931876,0.47374227643013,-0.8650727868080139,0.0,32.01995849609375
1688648223.941876,0.4733041226863861,-0.8643091320991516,0.0,32.01959609985352
1688648223.951876,0.4743732213973999,-0.8636694550514221,0.0,32.01902389526367
1688648223.961876,0.4752558171749115,-0.8644097447395325,0.0,32.02016067504883
1688648223.971876,0.4734644889831543,-0.8638347387313843,0.0,32.02048110961914
1688648223.981876,0.4733503758907318,-0.8636878728866577,0.0,32.02017974853516
1688648223.991876,0.4727188348770141,-0.8630360960960388,0.0,32.01945877075195
1688648224.0018759,0.4740936160087585,-0.8633934855461121,0.0,32.01913833618164
1688648224.0118759,0.4736990928649902,-0.8634474277496338,0.0,32.01840591430664
1688648224.0218759,0.4746977090835571,-0.8626654148101807,0.0,32.01782989501953
1688648224.0318758,0.4753965735435486,-0.8645169138908386,0.0,32.01810073852539
1688648224.0418758,0.4735330641269684,-0.8647066354751587,0.0,32.01839828491211
1688648224.0518758,0.4730027616024017,-0.8637634515762329,0.0,32.01924514770508
1688648224.0618758,0.4738604724407196,-0.8644838333129883,0.0,32.019195556640625
1688648224.0718758,0.4740994274616241,-0.8642269968986511,0.0,32.019588470458984
1688648224.0818758,0.4756304025650024,-0.8636512160301208,0.0,32.01995086669922
1688648224.0918758,0.4744574725627899,-0.8632340431213379,0.0,32.02054214477539
1688648224.1018758,0.474109023809433,-0.8639593124389648,0.0,32.02073287963867
1688648224.1118758,0.473956823348999,-0.864130973815918,0.0,32.0195426940918
1688648224.1218758,0.4733189642429352,-0.8638166785240173,0.0,32.01942825317383
1688648224.1318758,0.4735578000545501,-0.8640003800392151,0.0,32.02054214477539
1688648224.1418757,0.4739379584789276,-0.8633299469947815,0.0,32.02046203613281
1688648224.151876,0.4722268879413605,-0.8629266619682312,0.0,32.01947784423828
1688648224.161876,0.4716892838478088,-0.8636206984519958,0.0,32.02033233642578
1688648224.171876,0.4725918173789978,-0.8630394339561462,0.0,32.020240783691406
1688648224.181876,0.4706072807312011,-0.8618648052215576,0.0,32.01960754394531
1688648224.191876,0.4717666506767273,-0.861345112323761,0.0,32.01968765258789
1688648224.201876,0.4701644778251648,-0.8611854314804077,0.0,32.01968765258789
1688648224.211876,0.4699397683143616,-0.8600178360939026,0.0,32.01812744140625
1688648224.221876,0.470491886138916,-0.8600795269012451,0.0,32.01714324951172
1688648224.231876,0.4709270298480987,-0.8596335649490356,0.0,32.017913818359375
1688648224.241876,0.4709468185901642,-0.8590775728225708,0.0,32.017513275146484
1688648224.2518759,0.4724808931350708,-0.8585760593414307,0.0,32.01788330078125
1688648224.2618759,0.4725005328655243,-0.8584142327308655,0.0,32.01666259765625
1688648224.2718759,0.4720142781734466,-0.8581820726394653,0.0,32.01779556274414
1688648224.2818758,0.472587376832962,-0.8573005795478821,0.0,32.016807556152344
1688648224.2918758,0.4718210697174072,-0.8573455214500427,0.0,32.01707077026367
1688648224.3018758,0.4717194139957428,-0.858320951461792,0.0,32.01649856567383
1688648224.3118758,0.4728268086910248,-0.8569366335868835,0.0,32.016544342041016
1688648224.3218758,0.4737122356891632,-0.8570459485054016,0.0,32.01675796508789
1688648224.3318758,0.4734671413898468,-0.8573286533355713,0.0,32.015220642089844
1688648224.3418758,0.4742386639118194,-0.8573961853981018,0.0,32.01630401611328
1688648224.3518758,0.474829763174057,-0.8567339777946472,0.0,32.015419006347656
1688648224.3618758,0.4750000536441803,-0.8560124039649963,0.0,32.01226806640625
1688648224.3718758,0.4765574336051941,-0.8570219874382019,0.0,32.012325286865234
1688648224.3818758,0.4782516658306122,-0.8569989800453186,0.0,32.01307678222656
1688648224.3918757,0.4786257147789001,-0.8566707372665405,0.0,32.013397216796875
1688648224.401876,0.4781370162963867,-0.8558782339096069,0.0,32.01420593261719
1688648224.411876,0.47856205701828,-0.8572736382484436,0.0,32.01395797729492
1688648224.421876,0.4789460897445678,-0.8577680587768555,0.0,32.01206588745117
1688648224.431876,0.4802115857601166,-0.8574584126472473,0.0,32.01224136352539
1688648224.441876,0.4800941348075866,-0.8576205372810364,0.0,32.01161193847656
1688648224.451876,0.4788903892040252,-0.8579493761062622,0.0,32.011966705322266
1688648224.461876,0.4791979491710663,-0.8576897382736206,0.0,32.01111602783203
1688648224.471876,0.4780971705913543,-0.8579369187355042,0.0,32.0102424621582
1688648224.481876,0.4766481220722198,-0.8569095134735107,0.0,32.008487701416016
1688648224.491876,0.4757709801197052,-0.8580313920974731,0.0,32.00708770751953
1688648224.5018759,0.4757887125015259,-0.8579875230789185,0.0,32.00618362426758
1688648224.5118759,0.4762057363986969,-0.8571261167526245,0.0,32.00504684448242
1688648224.5218759,0.4770827889442444,-0.8567852973937988,0.0,32.004493713378906
1688648224.5318758,0.4779589772224426,-0.8552082777023315,0.0,32.00514221191406
1688648224.5418758,0.4785690307617187,-0.8545264601707458,0.0,32.00469970703125
1688648224.5518758,0.477844625711441,-0.8541231751441956,0.0,32.0037727355957
1688648224.5618758,0.4795921146869659,-0.8544692397117615,0.0,32.004356384277344
1688648224.5718758,0.4790519475936889,-0.8551063537597656,0.0,32.00370407104492
1688648224.5818758,0.4798819720745086,-0.8553117513656616,0.0,32.00446701049805
1688648224.5918758,0.4806931912899017,-0.855114221572876,0.0,32.004154205322266
1688648224.6018758,0.4813076257705688,-0.8553732633590698,0.0,32.005245208740234
1688648224.6118758,0.480922669172287,-0.8561792373657227,0.0,32.004241943359375
1688648224.6218758,0.4817682802677154,-0.8577866554260254,0.0,32.004024505615234
1688648224.6318758,0.4803601205348968,-0.8582451939582825,0.0,32.003543853759766
1688648224.6418757,0.4804310500621795,-0.8569573760032654,0.0,32.00367736816406
1688648224.651876,0.4805343151092529,-0.8571449518203735,0.0,32.003623962402344
1688648224.661876,0.4804829359054565,-0.8599068522453308,0.0,32.003170013427734
1688648224.671876,0.4807817339897156,-0.8587064146995544,0.0,32.00265121459961
1688648224.681876,0.4802773296833038,-0.8595467805862427,0.0,32.002349853515625
1688648224.691876,0.4793338477611542,-0.8600821495056152,0.0,32.0030632019043
1688648224.701876,0.4789907932281494,-0.8606158494949341,0.0,32.003047943115234
1688648224.711876,0.4778380095958709,-0.8614562153816223,0.0,32.00271224975586
1688648224.721876,0.4784014225006103,-0.8616443276405334,0.0,32.00104522705078
1688648224.731876,0.4782612025737762,-0.8621396422386169,0.0,32.00056838989258
1688648224.741876,0.4788524806499481,-0.8618261814117432,0.0,31.99964714050293
1688648224.7518759,0.4788439571857452,-0.8619358539581299,0.0,32.00044631958008
1688648224.7618759,0.478967547416687,-0.8625891208648682,0.0,31.99992561340332
1688648224.7718759,0.477947860956192,-0.8633854389190674,0.0,32.000125885009766
1688648224.7818758,0.4791783094406128,-0.8632709980010986,0.0,32.00065994262695
1688648224.7918758,0.4789392948150635,-0.8637419939041138,0.0,32.0000114440918
1688648224.8018758,0.4794432818889618,-0.8662787079811096,0.0,32.00169372558594
1688648224.8118758,0.4781371355056762,-0.8665674924850464,0.0,32.00114822387695
1688648224.8218758,0.4783122539520263,-0.8679562211036682,0.0,32.000885009765625
1688648224.8318758,0.4784635007381439,-0.8681949377059937,0.0,32.00056838989258
1688648224.8418758,0.4790148437023163,-0.8688434362411499,0.0,32.00221252441406
1688648224.8518758,0.4788411855697632,-0.868207573890686,0.0,32.000457763671875
1688648224.8618758,0.4780898094177246,-0.8668986558914185,0.0,31.999845504760746
1688648224.8718758,0.4780991971492767,-0.8665310740470886,0.0,31.99961471557617
1688648224.8818758,0.4792468249797821,-0.8660445213317871,0.0,31.99668502807617
1688648224.8918757,0.4800851345062256,-0.8652156591415405,0.0,31.997615814208984
1688648224.901876,0.4786495566368103,-0.865227460861206,0.0,31.99630355834961
1688648224.911876,0.4791743755340576,-0.8651235699653625,0.0,31.99421119689941
1688648224.921876,0.4773120880126953,-0.8652316927909851,0.0,31.99437713623047
1688648224.931876,0.4780075252056122,-0.8647591471672058,0.0,31.99322509765625
1688648224.941876,0.4786730706691742,-0.8649322390556335,0.0,31.993562698364254
1688648224.951876,0.4793046712875366,-0.8652313947677612,0.0,31.993465423583984
1688648224.961876,0.4797852337360382,-0.8647365570068359,0.0,31.992250442504883
1688648224.971876,0.4790382385253906,-0.865522563457489,0.0,31.99171638488769
1688648224.981876,0.4799199402332306,-0.8666055202484131,0.0,31.98938751220703
1688648224.991876,0.4798791110515594,-0.8669180274009705,0.0,31.988670349121094
1688648225.0018759,0.4806164801120758,-0.8663758039474487,0.0,31.988746643066406
1688648225.0118759,0.4816336631774902,-0.8655330538749695,0.0,31.9879207611084
1688648225.0218759,0.4818007349967956,-0.8678341507911682,0.0,31.98697662353516
1688648225.0318758,0.4825509190559387,-0.868109405040741,0.0,31.986772537231445
1688648225.0418758,0.4835685491561889,-0.8679085969924927,0.0,31.98578643798828
1688648225.0518758,0.4860598742961883,-0.8683137893676758,0.0,31.98506736755371
1688648225.0618758,0.4860102534294128,-0.8675518035888672,0.0,31.984594345092773
1688648225.0718758,0.4871672987937927,-0.8676673769950867,0.0,31.984180450439453
1688648225.0818758,0.4864131212234497,-0.867400586605072,0.0,31.982934951782227
1688648225.0918758,0.4865622222423553,-0.8672272562980652,0.0,31.98266220092773
1688648225.1018758,0.4868451356887817,-0.8686509728431702,0.0,31.983083724975582
1688648225.1118758,0.4855812191963196,-0.8683498501777649,0.0,31.982872009277344
1688648225.1218758,0.4839864373207092,-0.8684776425361633,0.0,31.98318290710449
1688648225.1318758,0.4835656583309173,-0.8683520555496216,0.0,31.981658935546875
1688648225.1418757,0.4828658401966095,-0.8696084022521973,0.0,31.981372833251957
1688648225.151876,0.4840040504932403,-0.8707557320594788,0.0,31.981414794921875
1688648225.161876,0.4850648939609527,-0.8711169362068176,0.0,31.98011589050293
1688648225.171876,0.4868037402629852,-0.871084451675415,0.0,31.981565475463867
1688648225.181876,0.4871515929698944,-0.8713914752006531,0.0,31.98064994812012
1688648225.191876,0.488870769739151,-0.871833086013794,0.0,31.9816837310791
1688648225.201876,0.489541083574295,-0.8718099594116211,0.0,31.98143196105957
1688648225.211876,0.4892109930515289,-0.871139407157898,0.0,31.9798526763916
1688648225.221876,0.4894046783447265,-0.8713810443878174,0.0,31.97997665405273
1688648225.231876,0.4900918006896972,-0.8702518939971924,0.0,31.97948455810547
1688648225.241876,0.4907963871955871,-0.870643675327301,0.0,31.97881126403809
1688648225.2518759,0.4912095367908478,-0.8698241710662842,0.0,31.97764015197754
1688648225.2618759,0.4919882714748382,-0.8691433072090149,0.0,31.977937698364254
1688648225.2718759,0.493025928735733,-0.8692960739135742,0.0,31.97596740722656
1688648225.2818758,0.4952818155288696,-0.869356095790863,0.0,31.975812911987305
1688648225.2918758,0.4939335286617279,-0.8689721822738647,0.0,31.975372314453125
1688648225.3018758,0.4937059879302978,-0.8679020404815674,0.0,31.97399139404297
1688648225.3118758,0.4935665726661682,-0.8673216104507446,0.0,31.974225997924805
1688648225.3218758,0.4936254322528839,-0.8662486672401428,0.0,31.97344017028809
1688648225.3318758,0.4924724102020263,-0.8675740957260132,0.0,31.972326278686523
1688648225.3418758,0.4928736388683319,-0.8679515719413757,0.0,31.97258949279785
1688648225.3518758,0.4929812252521515,-0.8685309290885925,0.0,31.973461151123047
1688648225.3618758,0.4941723048686981,-0.8690434694290161,0.0,31.97395896911621
1688648225.3718758,0.4928739070892334,-0.8674762845039368,0.0,31.97462272644043
1688648225.3818758,0.492841511964798,-0.8674430847167969,0.0,31.973262786865234
1688648225.3918757,0.4920237064361572,-0.8655658960342407,0.0,31.973596572875977
1688648225.401876,0.4915020763874054,-0.865359902381897,0.0,31.97402000427246
1688648225.411876,0.4914417862892151,-0.8646525740623474,0.0,31.972591400146484
1688648225.421876,0.4909992218017578,-0.8635956048965454,0.0,31.97213363647461
1688648225.431876,0.4896646738052368,-0.8647394180297852,0.0,31.97385025024414
1688648225.441876,0.4894052445888519,-0.8633365631103516,0.0,31.97490119934082
1688648225.451876,0.4892628192901611,-0.8627665638923645,0.0,31.97286796569824
1688648225.461876,0.4888509809970855,-0.8636552095413208,0.0,31.97268486022949
1688648225.471876,0.4888221621513366,-0.8633537888526917,0.0,31.971529006958008
1688648225.481876,0.4891481697559356,-0.8640141487121582,0.0,31.971111297607425
1688648225.491876,0.4888935387134552,-0.8649218082427979,0.0,31.9711856842041
1688648225.5018759,0.4904769957065582,-0.8656887412071228,0.0,31.97001838684082
1688648225.5118759,0.4922625422477722,-0.8654579520225525,0.0,31.96910285949707
1688648225.5218759,0.4916642904281616,-0.8652394413948059,0.0,31.969327926635746
1688648225.5318758,0.4902637302875519,-0.8647701740264893,0.0,31.96973419189453
1688648225.5418758,0.491289734840393,-0.8660517334938049,0.0,31.966732025146484
1688648225.5518758,0.4925248920917511,-0.8658618927001953,0.0,31.96634101867676
1688648225.5618758,0.4918094575405121,-0.8656246066093445,0.0,31.96546936035156
1688648225.5718758,0.4918324947357178,-0.8657651543617249,0.0,31.9638786315918
1688648225.5818758,0.4911854267120361,-0.8658151030540466,0.0,31.964160919189453
1688648225.5918758,0.4906417429447174,-0.8657070994377136,0.0,31.96389579772949
1688648225.6018758,0.4911054670810699,-0.8657315373420715,0.0,31.965408325195312
1688648225.6118758,0.4914599359035492,-0.8651265501976013,0.0,31.96465492248535
1688648225.6218758,0.4913912713527679,-0.8637852668762207,0.0,31.96466445922852
1688648225.6318758,0.4915995895862579,-0.863036572933197,0.0,31.96505546569824
1688648225.6418757,0.4919549226760864,-0.862459659576416,0.0,31.964740753173828
1688648225.651876,0.4928677678108215,-0.8628787994384766,0.0,31.96399688720703
1688648225.661876,0.49290531873703,-0.8629838228225708,0.0,31.962566375732425
1688648225.671876,0.4922811388969421,-0.8625829815864563,0.0,31.961915969848636
1688648225.681876,0.4921129941940307,-0.8644028902053833,0.0,31.96138381958008
1688648225.691876,0.4907823801040649,-0.8646344542503357,0.0,31.961292266845703
1688648225.701876,0.4907481372356415,-0.865512490272522,0.0,31.960771560668945
1688648225.711876,0.491832435131073,-0.8650552034378052,0.0,31.960458755493164
1688648225.721876,0.4913358390331268,-0.8643511533737183,0.0,31.95902442932129
1688648225.731876,0.4918234050273895,-0.8652294278144836,0.0,31.95890998840332
1688648225.741876,0.4916933178901672,-0.864393413066864,0.0,31.95787811279297
1688648225.7518759,0.4935379326343536,-0.8660587668418884,0.0,31.95703887939453
1688648225.7618759,0.4936767518520355,-0.8665794134140015,0.0,31.95718765258789
1688648225.7718759,0.4939412772655487,-0.8669625520706177,0.0,31.957416534423828
1688648225.7818758,0.4943202137947082,-0.8676372170448303,0.0,31.95729255676269
1688648225.7918758,0.4942295551300049,-0.8661486506462097,0.0,31.95702743530273
1688648225.8018758,0.4939531981945038,-0.8646511435508728,0.0,31.95641326904297
1688648225.8118758,0.4933803081512451,-0.8634164929389954,0.0,31.956451416015625
1688648225.8218758,0.4934717118740082,-0.8644723296165466,0.0,31.95713996887207
1688648225.8318758,0.4929113388061523,-0.8643885850906372,0.0,31.956600189208984
1688648225.8418758,0.4932992458343506,-0.8651143908500671,0.0,31.954221725463867
1688648225.8518758,0.4931481480598449,-0.8651038408279419,0.0,31.95349884033203
1688648225.8618758,0.4929636418819427,-0.8654235005378723,0.0,31.95281982421875
1688648225.8718758,0.4939258694648742,-0.8661203384399414,0.0,31.95158195495605
1688648225.8818758,0.4949262738227844,-0.8657793998718262,0.0,31.952281951904297
1688648225.8918757,0.4960403442382812,-0.8661997318267822,0.0,31.95203399658203
1688648225.901876,0.4967618882656097,-0.8651772141456604,0.0,31.95208740234375
1688648225.911876,0.4946004748344421,-0.8655645847320557,0.0,31.95171356201172
1688648225.921876,0.4942322373390198,-0.8652094006538391,0.0,31.95131492614746
1688648225.931876,0.4952538609504699,-0.8654701113700867,0.0,31.950773239135746
1688648225.941876,0.4938910901546478,-0.8663181066513062,0.0,31.951534271240234
1688648225.951876,0.4932803511619568,-0.8667904734611511,0.0,31.95159721374512
1688648225.961876,0.496558278799057,-0.8654897212982178,0.0,31.9512939453125
1688648225.971876,0.4956734180450439,-0.8656207919120789,0.0,31.95123863220215
1688648225.981876,0.4948839545249939,-0.8658927083015442,0.0,31.951152801513672
1688648225.991876,0.4945853650569916,-0.8667239546775818,0.0,31.951801300048828
1688648226.0018759,0.4943559765815735,-0.8658639192581177,0.0,31.952390670776367
1688648226.0118759,0.494905024766922,-0.8663028478622437,0.0,31.95248413085937
1688648226.0218759,0.4949504435062408,-0.8666172027587891,0.0,31.952096939086918
1688648226.0318758,0.49607715010643,-0.8667845129966736,0.0,31.952173233032227
1688648226.0418758,0.4948867261409759,-0.8658587336540222,0.0,31.95094108581543
1688648226.0518758,0.4938808679580688,-0.8664034605026245,0.0,31.94931030273437
1688648226.0618758,0.4946839213371277,-0.8660866022109985,0.0,31.94877243041992
1688648226.0718758,0.4948737025260925,-0.8666542172431946,0.0,31.94931411743164
1688648226.0818758,0.4964181780815124,-0.8663690090179443,0.0,31.94918632507324
1688648226.0918758,0.496939092874527,-0.8669511675834656,0.0,31.951303482055664
1688648226.1018758,0.4972187578678131,-0.8672246932983398,0.0,31.950634002685547
1688648226.1118758,0.4973254799842834,-0.8675028085708618,0.0,31.949499130249023
1688648226.1218758,0.4966916143894195,-0.8678901195526123,0.0,31.949647903442383
1688648226.1318758,0.4956443905830383,-0.8675214052200317,0.0,31.95000267028809
1688648226.1418757,0.4961676895618438,-0.8665210604667664,0.0,31.949462890625
1688648226.151876,0.4960349500179291,-0.8667232990264893,0.0,31.95090103149414
1688648226.161876,0.4959779679775238,-0.8680164813995361,0.0,31.950172424316406
1688648226.171876,0.4981128573417663,-0.866723895072937,0.0,31.94981575012207
1688648226.181876,0.4981467425823211,-0.8663386106491089,0.0,31.948848724365234
1688648226.191876,0.498852401971817,-0.8658201098442078,0.0,31.94845199584961
1688648226.201876,0.497171401977539,-0.8663693070411682,0.0,31.94713592529297
1688648226.211876,0.4967111647129059,-0.8671615719795227,0.0,31.946319580078125
1688648226.221876,0.4944345355033874,-0.8682507276535034,0.0,31.94605827331543
1688648226.231876,0.4944183230400085,-0.8684440851211548,0.0,31.946369171142575
1688648226.241876,0.4936011731624603,-0.8688582181930542,0.0,31.94690704345703
1688648226.2518759,0.4936160147190094,-0.8684625029563904,0.0,31.94642639160156
1688648226.2618759,0.4936217069625854,-0.8692847490310669,0.0,31.94710922241211
1688648226.2718759,0.4919798374176025,-0.870101273059845,0.0,31.94672966003418
1688648226.2818758,0.4925932586193084,-0.8698552250862122,0.0,31.946918487548828
1688648226.2918758,0.4939649701118469,-0.8692877888679504,0.0,31.9455623626709
1688648226.3018758,0.494850218296051,-0.8702389597892761,0.0,31.94574737548828
1688648226.3118758,0.4938847124576568,-0.8706885576248169,0.0,31.94441795349121
1688648226.3218758,0.4928007125854492,-0.8688111305236816,0.0,31.942773818969727
1688648226.3318758,0.4921137988567352,-0.8684998750686646,0.0,31.941349029541016
1688648226.3418758,0.4930025041103363,-0.8697147369384766,0.0,31.94060516357422
1688648226.3518758,0.4913760423660278,-0.8710055351257324,0.0,31.941165924072266
1688648226.3618758,0.4910954535007477,-0.8702476024627686,0.0,31.940168380737305
1688648226.3718758,0.4908344149589538,-0.8714028596878052,0.0,31.93954467773437
1688648226.3818758,0.4921779036521911,-0.8709428310394287,0.0,31.93896102905273
1688648226.3918757,0.4917756915092468,-0.8721858859062195,0.0,31.939712524414062
1688648226.401876,0.4912652969360351,-0.871064305305481,0.0,31.93781852722168
1688648226.411876,0.49101322889328,-0.8708333969116211,0.0,31.93844985961914
1688648226.421876,0.4904390573501587,-0.869274377822876,0.0,31.93807601928711
1688648226.431876,0.4904390871524811,-0.8687638640403748,0.0,31.93679618835449
1688648226.441876,0.4910764396190643,-0.8684954047203064,0.0,31.93706512451172
1688648226.451876,0.4907241463661194,-0.8683575987815857,0.0,31.936140060424805
1688648226.461876,0.4899073839187622,-0.8669021725654602,0.0,31.93478775024414
1688648226.471876,0.4904343485832214,-0.8663371205329895,0.0,31.93482780456543
1688648226.481876,0.4909245371818542,-0.8657443523406982,0.0,31.935333251953125
1688648226.491876,0.4910467565059662,-0.8668704628944397,0.0,31.934734344482425
1688648226.5018759,0.4909623563289642,-0.868535578250885,0.0,31.93545913696289
1688648226.5118759,0.4904178082942962,-0.8684314489364624,0.0,31.93472671508789
1688648226.5218759,0.4899330139160156,-0.8679491281509399,0.0,31.934738159179688
1688648226.5318758,0.4904618263244629,-0.8690021634101868,0.0,31.934383392333984
1688648226.5418758,0.4891292750835418,-0.8691788911819458,0.0,31.93394470214844
1688648226.5518758,0.4899447858333587,-0.8693289160728455,0.0,31.93202781677246
1688648226.5618758,0.4900127053260803,-0.869967520236969,0.0,31.933216094970703
1688648226.5718758,0.4897568821907043,-0.8702249526977539,0.0,31.93394470214844
1688648226.5818758,0.4900441169738769,-0.8689672946929932,0.0,31.93243408203125
1688648226.5918758,0.4900989830493927,-0.8687711954116821,0.0,31.93275260925293
1688648226.6018758,0.4883913397789001,-0.8705797791481018,0.0,31.93211555480957
1688648226.6118758,0.4867734014987945,-0.8701140284538269,0.0,31.93171119689941
1688648226.6218758,0.488063633441925,-0.8705009818077087,0.0,31.92989158630371
1688648226.6318758,0.4892100095748901,-0.8699057102203369,0.0,31.928815841674805
1688648226.6418757,0.4894555509090423,-0.8690895438194275,0.0,31.929458618164062
1688648226.651876,0.4898987710475921,-0.8689378499984741,0.0,31.92945671081543
1688648226.661876,0.4886301159858703,-0.8698652386665344,0.0,31.929004669189453
1688648226.671876,0.4888050556182861,-0.8700839877128601,0.0,31.93083381652832
1688648226.681876,0.4885954558849334,-0.8701632618904114,0.0,31.931564331054688
1688648226.691876,0.4879368543624878,-0.8694564700126648,0.0,31.930295944213867
1688648226.701876,0.4896773099899292,-0.8685755729675293,0.0,31.930185317993164
1688648226.711876,0.4902327060699463,-0.8680859208106995,0.0,31.930665969848636
1688648226.721876,0.4904687404632568,-0.8682661652565002,0.0,31.930564880371094
1688648226.731876,0.4909588694572449,-0.8683711886405945,0.0,31.929935455322266
1688648226.741876,0.4918866157531738,-0.8686299920082092,0.0,31.928926467895508
1688648226.7518759,0.4933560788631439,-0.8687723875045776,0.0,31.92913818359375
1688648226.7618759,0.4937511682510376,-0.868395984172821,0.0,31.929920196533203
1688648226.7718759,0.493986427783966,-0.868247389793396,0.0,31.929296493530277
1688648226.7818758,0.4948418438434601,-0.8682988286018372,0.0,31.928970336914062
1688648226.7918758,0.4935880899429321,-0.8682692646980286,0.0,31.927982330322266
1688648226.8018758,0.4942839741706848,-0.8678652048110962,0.0,31.927228927612305
1688648226.8118758,0.4949039220809936,-0.8668280243873596,0.0,31.926420211791992
1688648226.8218758,0.494278609752655,-0.8671438694000244,0.0,31.926061630249023
1688648226.8318758,0.4945030510425567,-0.867008626461029,0.0,31.925582885742188
1688648226.8418758,0.4940831661224365,-0.8673389554023743,0.0,31.925010681152344
1688648226.8518758,0.4945292174816131,-0.8676466941833496,0.0,31.923484802246094
1688648226.8618758,0.4947200715541839,-0.8665344715118408,0.0,31.92346572875977
1688648226.8718758,0.4936807751655578,-0.8664515018463135,0.0,31.921955108642575
1688648226.8818758,0.493609756231308,-0.8671653270721436,0.0,31.920425415039062
1688648226.8918757,0.4944234192371368,-0.8659141063690186,0.0,31.920808792114254
1688648226.901876,0.49479940533638,-0.8664025068283081,0.0,31.919580459594727
1688648226.911876,0.4952413737773895,-0.865820050239563,0.0,31.918346405029297
1688648226.921876,0.4956763684749603,-0.8657054901123047,0.0,31.91881561279297
1688648226.931876,0.4965762495994568,-0.8650933504104614,0.0,31.919469833374023
1688648226.941876,0.4963041543960571,-0.8653032779693604,0.0,31.917709350585938
1688648226.951876,0.4966157078742981,-0.866071879863739,0.0,31.91725730895996
1688648226.961876,0.496925801038742,-0.8664230704307556,0.0,31.9172420501709
1688648226.971876,0.4971459209918976,-0.8655438423156738,0.0,31.91646957397461
1688648226.981876,0.4961998462677002,-0.8669707775115967,0.0,31.91642570495605
1688648226.991876,0.4979808330535888,-0.8667458295822144,0.0,31.914216995239254
1688648227.0018759,0.4972914457321167,-0.8670535683631897,0.0,31.91488647460937
1688648227.0118759,0.495619922876358,-0.8671775460243225,0.0,31.915672302246094
1688648227.0218759,0.4943323135375976,-0.8676213622093201,0.0,31.91646957397461
1688648227.0318758,0.4942222535610199,-0.8683872818946838,0.0,31.914966583251957
1688648227.0418758,0.4949449300765991,-0.8685535192489624,0.0,31.91469383239746
1688648227.0518758,0.4959336817264557,-0.8687878251075745,0.0,31.913793563842773
1688648227.0618758,0.4969732463359833,-0.8687009811401367,0.0,31.91176986694336
1688648227.0718758,0.4952382445335388,-0.8673250675201416,0.0,31.912019729614254
1688648227.0818758,0.4945563375949859,-0.867182731628418,0.0,31.911720275878903
1688648227.0918758,0.4957403540611267,-0.8670058250427246,0.0,31.910934448242188
1688648227.1018758,0.4949381947517395,-0.8665164709091187,0.0,31.91058921813965
1688648227.1118758,0.4961175620555877,-0.8660037517547607,0.0,31.91018867492676
1688648227.1218758,0.4956644177436828,-0.8659848570823669,0.0,31.91011047363281
1688648227.1318758,0.4971945285797119,-0.8642891049385071,0.0,31.91002082824707
1688648227.1418757,0.498839408159256,-0.8645983934402466,0.0,31.91071891784668
1688648227.151876,0.4989548027515411,-0.8626621961593628,0.0,31.910755157470703
1688648227.161876,0.4981996119022369,-0.8621489405632019,0.0,31.91080093383789
1688648227.171876,0.4982017278671264,-0.8613632321357727,0.0,31.91046714782715
1688648227.181876,0.4980033934116363,-0.8610667586326599,0.0,31.908971786499023
1688648227.191876,0.496925413608551,-0.8616446852684021,0.0,31.91052627563477
1688648227.201876,0.4958442449569702,-0.8614728450775146,0.0,31.910140991210938
1688648227.211876,0.4944306015968323,-0.8630849719047546,0.0,31.90998077392578
1688648227.221876,0.4950761198997497,-0.8638758659362793,0.0,31.910518646240234
1688648227.231876,0.4946209490299225,-0.8631896376609802,0.0,31.909273147583008
1688648227.241876,0.4940484464168548,-0.8623876571655273,0.0,31.909093856811523
1688648227.2518759,0.4928953051567077,-0.8632572889328003,0.0,31.907617568969727
1688648227.2618759,0.492948979139328,-0.8634642362594604,0.0,31.90656852722168
1688648227.2718759,0.4924024641513824,-0.8637032508850098,0.0,31.907310485839844
1688648227.2818758,0.4933385550975799,-0.8643033504486084,0.0,31.90708541870117
1688648227.2918758,0.4927605390548706,-0.8664233684539795,0.0,31.907211303710938
1688648227.3018758,0.492420494556427,-0.8659428358078003,0.0,31.907978057861328
1688648227.3118758,0.4912995398044586,-0.8673719167709351,0.0,31.90768241882324
1688648227.3218758,0.491132378578186,-0.8665466904640198,0.0,31.90607643127441
1688648227.3318758,0.4922669231891632,-0.8666338324546814,0.0,31.90680885314941
1688648227.3418758,0.4913129508495331,-0.8663821220397949,0.0,31.90778541564941
1688648227.3518758,0.4918524622917175,-0.8660742044448853,0.0,31.906234741210938
1688648227.3618758,0.4936794936656952,-0.8658595085144043,0.0,31.90603828430176
1688648227.3718758,0.4928229749202728,-0.8660739660263062,0.0,31.9051513671875
1688648227.3818758,0.4934983551502228,-0.8654093742370605,0.0,31.903865814208984
1688648227.3918757,0.4929170310497284,-0.8649418354034424,0.0,31.903301239013672
1688648227.401876,0.4926860928535461,-0.8655527234077454,0.0,31.90252113342285
1688648227.411876,0.4930536150932312,-0.8651379346847534,0.0,31.902591705322266
1688648227.421876,0.4940564930438995,-0.8647430539131165,0.0,31.901893615722656
1688648227.431876,0.4939968287944793,-0.8642863631248474,0.0,31.901460647583008
1688648227.441876,0.4943248033523559,-0.8631418943405151,0.0,31.90091896057129
1688648227.451876,0.4947234392166137,-0.8615064024925232,0.0,31.901700973510746
1688648227.461876,0.4956908226013183,-0.860733151435852,0.0,31.89941024780273
1688648227.471876,0.4964212775230407,-0.8619949817657471,0.0,31.899858474731445
1688648227.481876,0.4987377822399139,-0.8617481589317322,0.0,31.898658752441406
1688648227.491876,0.4965387284755707,-0.8626741170883179,0.0,31.89889335632324
1688648227.5018759,0.4960454106330871,-0.8637886047363281,0.0,31.89972496032715
1688648227.5118759,0.4943537414073944,-0.8639708757400513,0.0,31.89954376220703
1688648227.5218759,0.4962348639965057,-0.8646511435508728,0.0,31.89924430847168
1688648227.5318758,0.4959448873996734,-0.8648777008056641,0.0,31.89946937561035
1688648227.5418758,0.4946156144142151,-0.8660272359848022,0.0,31.8997802734375
1688648227.5518758,0.4929212927818298,-0.8651551604270935,0.0,31.89905166625977
1688648227.5618758,0.4941558539867401,-0.8635551929473877,0.0,31.898250579833984
1688648227.5718758,0.4938542246818542,-0.8634961843490601,0.0,31.896732330322266
1688648227.5818758,0.4926702976226806,-0.8634666204452515,0.0,31.896202087402344
1688648227.5918758,0.492795467376709,-0.8632456064224243,0.0,31.89634704589844
1688648227.6018758,0.4929528832435608,-0.86216801404953,0.0,31.89695167541504
1688648227.6118758,0.4920565783977508,-0.863817572593689,0.0,31.893823623657227
1688648227.6218758,0.4919100999832153,-0.863960325717926,0.0,31.89348602294922
1688648227.6318758,0.4919677376747131,-0.8635945916175842,0.0,31.89348793029785
1688648227.6418757,0.4913589656352997,-0.865056574344635,0.0,31.89225196838379
1688648227.651876,0.492304652929306,-0.8644120693206787,0.0,31.89131736755371
1688648227.661876,0.4911242425441742,-0.8659695982933044,0.0,31.89224624633789
1688648227.671876,0.4893490374088287,-0.8660242557525635,0.0,31.892614364624023
1688648227.681876,0.4898883700370788,-0.8653284311294556,0.0,31.89212989807129
1688648227.691876,0.4892843067646026,-0.8660215139389038,0.0,31.891843795776367
1688648227.701876,0.4891525506973266,-0.8661645650863647,0.0,31.890544891357425
1688648227.711876,0.4887063503265381,-0.8660872578620911,0.0,31.89095687866211
1688648227.721876,0.4890846014022827,-0.8668789863586426,0.0,31.892045974731445
1688648227.731876,0.4882800877094269,-0.8665352463722229,0.0,31.892597198486328
1688648227.741876,0.4882383048534393,-0.8669580221176147,0.0,31.89391326904297
1688648227.7518759,0.4879853129386902,-0.8660834431648254,0.0,31.893104553222656
1688648227.7618759,0.4898551106452942,-0.8661604523658752,0.0,31.89227294921875
1688648227.7718759,0.4898819625377655,-0.8651576638221741,0.0,31.89274024963379
1688648227.7818758,0.490276038646698,-0.8656895160675049,0.0,31.89125633239746
1688648227.7918758,0.4914946258068084,-0.8659639358520508,0.0,31.89068603515625
1688648227.8018758,0.4919807016849518,-0.8654648065567017,0.0,31.891498565673828
1688648227.8118758,0.4926526844501495,-0.8643606305122375,0.0,31.891584396362305
1688648227.8218758,0.4919678866863251,-0.8632976412773132,0.0,31.89100646972656
1688648227.8318758,0.4899985790252685,-0.8623586297035217,0.0,31.889633178710938
1688648227.8418758,0.4894409477710724,-0.8614455461502075,0.0,31.88932609558105
1688648227.8518758,0.4894921779632568,-0.8621183037757874,0.0,31.889543533325195
1688648227.8618758,0.4890924990177154,-0.862440288066864,0.0,31.887683868408203
1688648227.8718758,0.4882228672504425,-0.8643960356712341,0.0,31.888893127441406
1688648227.8818758,0.4894128739833832,-0.8642406463623047,0.0,31.888458251953125
1688648227.8918757,0.4891137778759002,-0.865454912185669,0.0,31.88811683654785
1688648227.901876,0.4888177216053009,-0.8670536279678345,0.0,31.88811683654785
1688648227.911876,0.4884618818759918,-0.8677017688751221,0.0,31.88713264465332
1688648227.921876,0.4871194064617157,-0.8688386678695679,0.0,31.884767532348636
1688648227.931876,0.4865726828575134,-0.8694502115249634,0.0,31.885189056396484
1688648227.941876,0.4858402609825134,-0.8686600923538208,0.0,31.884937286376957
1688648227.951876,0.4867433309555053,-0.8696710467338562,0.0,31.883472442626957
1688648227.961876,0.4861509203910827,-0.8710030913352966,0.0,31.882843017578125
1688648227.971876,0.4867485165596008,-0.8710798621177673,0.0,31.8824462890625
1688648227.981876,0.4886451065540313,-0.8710372447967529,0.0,31.883176803588867
1688648227.991876,0.4899065792560577,-0.87225741147995,0.0,31.88313102722168
1688648228.0018759,0.4912472665309906,-0.8725175857543945,0.0,31.88286018371582
1688648228.0118759,0.4908337593078613,-0.8718818426132202,0.0,31.883304595947266
1688648228.0218759,0.4915449321269989,-0.8735336065292358,0.0,31.88228988647461
1688648228.0318758,0.4933074116706848,-0.8732221126556396,0.0,31.88132095336914
1688648228.0418758,0.4924857914447784,-0.8730441927909851,0.0,31.881160736083984
1688648228.0518758,0.4923880696296692,-0.8728295564651489,0.0,31.88033103942871
1688648228.0618758,0.4937984943389892,-0.8722036480903625,0.0,31.880041122436523
1688648228.0718758,0.4936761260032654,-0.8720265626907349,0.0,31.879356384277344
1688648228.0818758,0.4945595562458038,-0.8710100054740906,0.0,31.87883949279785
1688648228.0918758,0.4936360120773315,-0.870707631111145,0.0,31.8780574798584
1688648228.1018758,0.4938681125640869,-0.8710376620292664,0.0,31.87542724609375
1688648228.1118758,0.4949434995651245,-0.8706303834915161,0.0,31.874128341674805
1688648228.1218758,0.4951294660568237,-0.8697873950004578,0.0,31.87255096435547
1688648228.1318758,0.4946696162223816,-0.8703199625015259,0.0,31.873231887817383
1688648228.1418757,0.4947751760482788,-0.8706350922584534,0.0,31.872175216674805
1688648228.151876,0.4939621388912201,-0.8708156943321228,0.0,31.871721267700195
1688648228.161876,0.4909152090549469,-0.8717356324195862,0.0,31.87144470214844
1688648228.171876,0.4897271394729614,-0.8708557486534119,0.0,31.87191390991211
1688648228.181876,0.4897118508815765,-0.8723732233047485,0.0,31.869354248046875
1688648228.191876,0.491338700056076,-0.8724682927131653,0.0,31.86926651000977
1688648228.201876,0.4900386929512024,-0.8728889226913452,0.0,31.868770599365234
1688648228.211876,0.4895991384983063,-0.8730520606040955,0.0,31.869115829467773
1688648228.221876,0.4911762773990631,-0.871605634689331,0.0,31.86823081970215
1688648228.231876,0.4899289608001709,-0.8708921074867249,0.0,31.868030548095703
1688648228.241876,0.4895336925983429,-0.8704659938812256,0.0,31.86968040466309
1688648228.2518759,0.4888894557952881,-0.8711222410202026,0.0,31.86955070495605
1688648228.2618759,0.4891465008258819,-0.8714106678962708,0.0,31.869972229003903
1688648228.2718759,0.4875595271587372,-0.8707981705665588,0.0,31.870098114013672
1688648228.2818758,0.4866410195827484,-0.8716844320297241,0.0,31.87007141113281
1688648228.2918758,0.4866736829280853,-0.8705753087997437,0.0,31.868736267089844
1688648228.3018758,0.4867200553417206,-0.8705071806907654,0.0,31.86992454528809
1688648228.3118758,0.4882909655570984,-0.8697258234024048,0.0,31.86910820007324
1688648228.3218758,0.4878898561000824,-0.8711827993392944,0.0,31.86942672729492
1688648228.3318758,0.4875907897949219,-0.8706486821174622,0.0,31.869630813598636
1688648228.3418758,0.4892937242984772,-0.8702168464660645,0.0,31.86839485168457
1688648228.3518758,0.4889775812625885,-0.8707193732261658,0.0,31.86849594116211
1688648228.3618758,0.4883665442466736,-0.8704057335853577,0.0,31.869537353515625
1688648228.3718758,0.4883753359317779,-0.871040940284729,0.0,31.86883544921875
1688648228.3818758,0.4885323643684387,-0.873055100440979,0.0,31.868824005126957
1688648228.3918757,0.487322449684143,-0.8714445233345032,0.0,31.868635177612305
1688648228.401876,0.4883791208267212,-0.8714181780815125,0.0,31.86879539489746
1688648228.411876,0.4886281490325928,-0.87212735414505,0.0,31.868593215942383
1688648228.421876,0.4896883964538574,-0.8709747195243835,0.0,31.86812973022461
1688648228.431876,0.4901100397109985,-0.8705325722694397,0.0,31.868364334106445
1688648228.441876,0.4893808364868164,-0.8700771927833557,0.0,31.867332458496094
1688648228.451876,0.4889901876449585,-0.8699416518211365,0.0,31.86557006835937
1688648228.461876,0.4879555404186249,-0.8708222508430481,0.0,31.864112854003903
1688648228.471876,0.4880055785179138,-0.8697207570075989,0.0,31.865205764770508
1688648228.481876,0.4883048832416534,-0.8693328499794006,0.0,31.86384391784668
1688648228.491876,0.4872326552867889,-0.8692046999931335,0.0,31.863733291625977
1688648228.5018759,0.4872474670410156,-0.8668948411941528,0.0,31.86403083801269
1688648228.5118759,0.4856593608856201,-0.8667296767234802,0.0,31.8645076751709
1688648228.5218759,0.4858984351158142,-0.8663634061813354,0.0,31.86461067199707
1688648228.5318758,0.4861213862895965,-0.867316722869873,0.0,31.864885330200195
1688648228.5418758,0.4863550364971161,-0.8679157495498657,0.0,31.865821838378903
1688648228.5518758,0.485892117023468,-0.8675507307052612,0.0,31.864450454711918
1688648228.5618758,0.4863685369491577,-0.8673304915428162,0.0,31.862831115722656
1688648228.5718758,0.4857072234153747,-0.8671380281448364,0.0,31.86409568786621
1688648228.5818758,0.4857044517993927,-0.8685372471809387,0.0,31.863189697265625
1688648228.5918758,0.4871314764022827,-0.8689735531806946,0.0,31.864717483520508
1688648228.6018758,0.4881165623664856,-0.8688784837722778,0.0,31.863792419433597
1688648228.6118758,0.486976146697998,-0.8682325482368469,0.0,31.863330841064453
1688648228.6218758,0.4854997098445892,-0.8699342012405396,0.0,31.86284446716309
1688648228.6318758,0.4835436344146728,-0.8688180446624756,0.0,31.86227226257324
1688648228.6418757,0.4833824038505554,-0.8697829842567444,0.0,31.862289428710938
1688648228.651876,0.4837377369403839,-0.8700881600379944,0.0,31.86272430419922
1688648228.661876,0.4837472140789032,-0.8705230951309204,0.0,31.862987518310547
1688648228.671876,0.4850690066814422,-0.8695710897445679,0.0,31.86371612548828
1688648228.681876,0.4855812788009643,-0.8695568442344666,0.0,31.862510681152344
1688648228.691876,0.4858661293983459,-0.8685312271118164,0.0,31.863258361816406
1688648228.701876,0.4851258993148803,-0.8688108921051025,0.0,31.862756729125977
1688648228.711876,0.484928160905838,-0.8705909848213196,0.0,31.862342834472656
1688648228.721876,0.4853435456752777,-0.8703215718269348,0.0,31.861595153808597
1688648228.731876,0.4846712350845337,-0.8700894117355347,0.0,31.859962463378903
1688648228.741876,0.4855347871780395,-0.8708871006965637,0.0,31.860076904296875
1688648228.7518759,0.4871276021003723,-0.8717935681343079,0.0,31.85977554321289
1688648228.7618759,0.4868299961090088,-0.8716080188751221,0.0,31.859790802001957
1688648228.7718759,0.48726686835289,-0.8724451661109924,0.0,31.859111785888672
1688648228.7818758,0.4882145822048187,-0.8726024627685547,0.0,31.8590030670166
1688648228.7918758,0.487945020198822,-0.8725889921188354,0.0,31.858692169189453
1688648228.8018758,0.4884403645992279,-0.8727728724479675,0.0,31.857702255249023
1688648228.8118758,0.4874969720840454,-0.8724431991577148,0.0,31.85650634765625
1688648228.8218758,0.4865237772464752,-0.8730143308639526,0.0,31.85677528381348
1688648228.8318758,0.4852760136127472,-0.8720821738243103,0.0,31.856725692749023
1688648228.8418758,0.4853332638740539,-0.8726578950881958,0.0,31.85590934753418
1688648228.8518758,0.4863510131835937,-0.8734815120697021,0.0,31.854158401489254
1688648228.8618758,0.4867329597473144,-0.8729260563850403,0.0,31.85406875610352
1688648228.8718758,0.4860059320926666,-0.872454822063446,0.0,31.85462951660156
1688648228.8818758,0.4865123927593231,-0.8732819557189941,0.0,31.85481834411621
1688648228.8918757,0.4883736073970794,-0.873650848865509,0.0,31.854738235473636
1688648228.901876,0.4864793717861175,-0.873763918876648,0.0,31.85426902770996
1688648228.911876,0.4874058067798614,-0.8741573095321655,0.0,31.853679656982425
1688648228.921876,0.4885414838790893,-0.8745179176330566,0.0,31.853445053100582
1688648228.931876,0.4870561957359314,-0.8749767541885376,0.0,31.852224349975582
1688648228.941876,0.4874666035175323,-0.8757526874542236,0.0,31.853464126586918
1688648228.951876,0.4863659143447876,-0.8762503862380981,0.0,31.85184097290039
1688648228.961876,0.485996812582016,-0.875983715057373,0.0,31.8518123626709
1688648228.971876,0.4864257872104645,-0.8758317828178406,0.0,31.85201644897461
1688648228.981876,0.4859321117401123,-0.8758240342140198,0.0,31.851119995117188
1688648228.991876,0.484111338853836,-0.8752830028533936,0.0,31.85149383544922
1688648229.0018759,0.4862301349639892,-0.8740161657333374,0.0,31.85078811645508
1688648229.0118759,0.4864230751991272,-0.8740918636322021,0.0,31.84966087341309
1688648229.0218759,0.4886461496353149,-0.8742605447769165,0.0,31.84982109069824
1688648229.0318758,0.4879444539546966,-0.8724916577339172,0.0,31.84977912902832
1688648229.0418758,0.4872859418392181,-0.8733459711074829,0.0,31.84880256652832
1688648229.0518758,0.4876966774463653,-0.8721746206283569,0.0,31.84770965576172
1688648229.0618758,0.4885944128036499,-0.870756983757019,0.0,31.848291397094727
1688648229.0718758,0.4875559508800506,-0.8707133531570435,0.0,31.848461151123047
1688648229.0818758,0.4879070222377777,-0.8701101541519165,0.0,31.84777069091797
1688648229.0918758,0.4877140820026397,-0.8715433478355408,0.0,31.848501205444336
1688648229.1018758,0.4870557785034179,-0.8709822297096252,0.0,31.84723472595215
1688648229.1118758,0.4859212636947632,-0.8720443844795227,0.0,31.84770965576172
1688648229.1218758,0.4864919483661651,-0.8727957606315613,0.0,31.84770965576172
1688648229.1318758,0.4849117398262024,-0.8737188577651978,0.0,31.848302841186523
1688648229.1418757,0.4854374229907989,-0.8728457093238831,0.0,31.848690032958984
1688648229.151876,0.4867531657218933,-0.870898425579071,0.0,31.84700584411621
1688648229.161876,0.488040417432785,-0.870661199092865,0.0,31.846132278442383
1688648229.171876,0.4887056648731231,-0.8710778951644897,0.0,31.846399307250977
1688648229.181876,0.4880398511886596,-0.8709509372711182,0.0,31.846309661865234
1688648229.191876,0.488288015127182,-0.8717000484466553,0.0,31.84695053100586
1688648229.201876,0.4875030815601349,-0.8713974952697754,0.0,31.84514617919922
1688648229.211876,0.4875361621379852,-0.870360255241394,0.0,31.845264434814453
1688648229.221876,0.487322449684143,-0.8702647089958191,0.0,31.846364974975582
1688648229.231876,0.4888698160648346,-0.8681522607803345,0.0,31.844676971435547
1688648229.241876,0.4883291125297546,-0.8691306114196777,0.0,31.84417533874512
1688648229.2518759,0.4883376061916351,-0.8684769868850708,0.0,31.844770431518555
1688648229.2618759,0.4878175258636474,-0.866925835609436,0.0,31.843475341796875
1688648229.2718759,0.4860087633132934,-0.8685427904129028,0.0,31.841493606567383
1688648229.2818758,0.4868219494819641,-0.8683686256408691,0.0,31.84064102172852
1688648229.2918758,0.4874585270881653,-0.8687283992767334,0.0,31.84084701538086
1688648229.3018758,0.4876093864440918,-0.8695830702781677,0.0,31.840559005737305
1688648229.3118758,0.4876407980918884,-0.8682584762573242,0.0,31.840465545654297
1688648229.3218758,0.4867461025714874,-0.8694558143615723,0.0,31.83927154541016
1688648229.3318758,0.4871166050434112,-0.8700459599494934,0.0,31.83907699584961
1688648229.3418758,0.4858908355236053,-0.8698809742927551,0.0,31.83844757080078
1688648229.3518758,0.484952837228775,-0.8718519806861877,0.0,31.83780288696289
1688648229.3618758,0.4851156175136566,-0.8711757063865662,0.0,31.837736129760746
1688648229.3718758,0.4834532141685486,-0.8697904944419861,0.0,31.838472366333008
1688648229.3818758,0.4836432039737701,-0.8703694343566895,0.0,31.83819007873535
1688648229.3918757,0.4850092232227325,-0.8702318668365479,0.0,31.83838653564453
1688648229.401876,0.4853822290897369,-0.8714727163314819,0.0,31.83858108520508
1688648229.411876,0.4862875640392303,-0.871992826461792,0.0,31.83786964416504
1688648229.421876,0.4847683012485504,-0.8718705177307129,0.0,31.838287353515625
1688648229.431876,0.4846656620502472,-0.8732185363769531,0.0,31.83874893188477
1688648229.441876,0.4857499003410339,-0.8732748627662659,0.0,31.836641311645508
1688648229.451876,0.4856292009353637,-0.8721907138824463,0.0,31.837257385253903
1688648229.461876,0.4854975044727325,-0.872387707233429,0.0,31.83678436279297
1688648229.471876,0.4855912625789642,-0.8734758496284485,0.0,31.836950302124023
1688648229.481876,0.48666512966156,-0.8733192086219788,0.0,31.83748435974121
1688648229.491876,0.4866162836551666,-0.8736433982849121,0.0,31.837406158447266
1688648229.5018759,0.4872065484523773,-0.8741745352745056,0.0,31.83694267272949
1688648229.5118759,0.4871003031730652,-0.8752545714378357,0.0,31.83525657653809
1688648229.5218759,0.4865643680095672,-0.8745201826095581,0.0,31.83621406555176
1688648229.5318758,0.4885542094707489,-0.8733864426612854,0.0,31.83592796325684
1688648229.5418758,0.4877513945102691,-0.8724613189697266,0.0,31.835079193115234
1688648229.5518758,0.486156165599823,-0.8726444244384766,0.0,31.83496856689453
1688648229.5618758,0.4854735434055328,-0.873202919960022,0.0,31.834705352783203
1688648229.5718758,0.4863067865371704,-0.8729267120361328,0.0,31.83342170715332
1688648229.5818758,0.4848158955574035,-0.8718888759613037,0.0,31.831707000732425
1688648229.5918758,0.4862596392631531,-0.8718957901000977,0.0,31.83064842224121
1688648229.6018758,0.4872488379478454,-0.871557891368866,0.0,31.830305099487305
1688648229.6118758,0.485744297504425,-0.8717399835586548,0.0,31.82900047302246
1688648229.6218758,0.4852089881896972,-0.871905505657196,0.0,31.8303165435791
1688648229.6318758,0.4848690330982208,-0.8716244101524353,0.0,31.828561782836918
1688648229.6418757,0.4852263629436493,-0.8698344826698303,0.0,31.8287410736084
1688648229.651876,0.4861942827701568,-0.8682839274406433,0.0,31.829084396362305
1688648229.661876,0.4878450334072113,-0.8675936460494995,0.0,31.8267822265625
1688648229.671876,0.4888492524623871,-0.8671847581863403,0.0,31.826980590820312
1688648229.681876,0.4890612363815307,-0.8663139343261719,0.0,31.82643699645996
1688648229.691876,0.4886043965816498,-0.8654062151908875,0.0,31.82607650756836
1688648229.701876,0.490049660205841,-0.8654199838638306,0.0,31.82404136657715
1688648229.711876,0.4892778694629669,-0.8656463623046875,0.0,31.824098587036133
1688648229.721876,0.4890756905078888,-0.8636853098869324,0.0,31.82400131225586
1688648229.731876,0.4892703890800476,-0.8644302487373352,0.0,31.82368469238281
1688648229.741876,0.4881338775157928,-0.8634961843490601,0.0,31.822906494140625
1688648229.7518759,0.4873815774917602,-0.862859845161438,0.0,31.821592330932617
1688648229.7618759,0.4867784976959228,-0.8639128804206848,0.0,31.821290969848636
1688648229.7718759,0.4876966178417206,-0.8638365268707275,0.0,31.820955276489254
1688648229.7818758,0.4863775372505188,-0.8643127083778381,0.0,31.82209014892578
1688648229.7918758,0.484991192817688,-0.8643436431884766,0.0,31.82131576538086
1688648229.8018758,0.4861553907394409,-0.8637189269065857,0.0,31.821435928344727
1688648229.8118758,0.4859115481376648,-0.864864706993103,0.0,31.819467544555664
1688648229.8218758,0.4868899881839752,-0.8649390339851379,0.0,31.81941032409668
1688648229.8318758,0.4875244200229645,-0.8644723296165466,0.0,31.819002151489254
1688648229.8418758,0.4888754785060882,-0.8627088069915771,0.0,31.817197799682617
1688648229.8518758,0.4898638129234314,-0.8618080019950867,0.0,31.81625366210937
1688648229.8618758,0.4917910993099212,-0.8628342747688293,0.0,31.816164016723636
1688648229.8718758,0.4912498891353607,-0.8633074164390564,0.0,31.816553115844727
1688648229.8818758,0.4921910166740417,-0.8626957535743713,0.0,31.81573486328125
1688648229.8918757,0.4922536611557007,-0.8631442785263062,0.0,31.81465148925781
1688648229.901876,0.4919753968715668,-0.8626499772071838,0.0,31.81423568725586
1688648229.911876,0.4923992156982422,-0.8618168234825134,0.0,31.81396102905273
1688648229.921876,0.4938831031322479,-0.8616272211074829,0.0,31.81366539001465
1688648229.931876,0.4907456934452057,-0.8614962100982666,0.0,31.813322067260746
1688648229.941876,0.4908139407634735,-0.8614100813865662,0.0,31.81366729736328
1688648229.951876,0.4911175370216369,-0.8610730171203613,0.0,31.814424514770508
1688648229.961876,0.4928090572357178,-0.8613072633743286,0.0,31.81268119812012
1688648229.971876,0.4926375150680542,-0.8610070943832397,0.0,31.811538696289062
1688648229.981876,0.4924304485321045,-0.8613067269325256,0.0,31.811790466308597
1688648229.991876,0.4918757677078247,-0.8615025877952576,0.0,31.8112907409668
1688648230.0018759,0.4899738430976867,-0.8617722988128662,0.0,31.81155776977539
1688648230.0118759,0.4900308549404144,-0.8621572256088257,0.0,31.810970306396484
1688648230.0218759,0.4894282221794128,-0.8627912402153015,0.0,31.81011199951172
1688648230.0318758,0.4887246191501617,-0.8622868657112122,0.0,31.811767578125
1688648230.0418758,0.4881699085235595,-0.8624280691146851,0.0,31.80978202819824
1688648230.0518758,0.4884231090545654,-0.8627052307128906,0.0,31.80927276611328
1688648230.0618758,0.489206850528717,-0.8626541495323181,0.0,31.809860229492188
1688648230.0718758,0.4879131317138672,-0.8625054359436035,0.0,31.808841705322266
1688648230.0818758,0.4869076013565063,-0.8617274761199951,0.0,31.80959701538086
1688648230.0918758,0.4862097203731537,-0.861119270324707,0.0,31.809328079223636
1688648230.1018758,0.4850142896175384,-0.8604604601860046,0.0,31.80955696105957
1688648230.1118758,0.4839126169681549,-0.8608913421630859,0.0,31.80951499938965
1688648230.1218758,0.4844092130661011,-0.8600964546203613,0.0,31.81021881103516
1688648230.1318758,0.4836575984954834,-0.8597947955131531,0.0,31.810699462890625
1688648230.1418757,0.4841827750205993,-0.8587446212768555,0.0,31.80909919738769
1688648230.151876,0.4833450019359588,-0.8580738306045532,0.0,31.80810165405273
1688648230.161876,0.4840506315231323,-0.8574339747428894,0.0,31.80767822265625
1688648230.171876,0.4834632277488708,-0.8577123880386353,0.0,31.80728530883789
1688648230.181876,0.4828222692012787,-0.8587021827697754,0.0,31.806974411010746
1688648230.191876,0.4843145608901977,-0.8587051033973694,0.0,31.80670738220215
1688648230.201876,0.4850436449050903,-0.8585332632064819,0.0,31.806446075439453
1688648230.211876,0.4842614233493805,-0.8587362170219421,0.0,31.805686950683597
1688648230.221876,0.4841406047344208,-0.8569702506065369,0.0,31.80600357055664
1688648230.231876,0.4838445484638214,-0.856985330581665,0.0,31.80552291870117
1688648230.241876,0.4847953617572784,-0.8546578288078308,0.0,31.805967330932617
1688648230.2518759,0.4859245717525482,-0.8548396825790405,0.0,31.8044376373291
1688648230.2618759,0.4875084459781647,-0.8535359501838684,0.0,31.80416679382324
1688648230.2718759,0.4873951375484466,-0.8534846901893616,0.0,31.80316162109375
1688648230.2818758,0.4868693649768829,-0.8539096117019653,0.0,31.80300712585449
1688648230.2918758,0.4868151843547821,-0.8529197573661804,0.0,31.802473068237305
1688648230.3018758,0.4871493279933929,-0.8536465764045715,0.0,31.803606033325195
1688648230.3118758,0.4879375100135803,-0.8537923693656921,0.0,31.8034725189209
1688648230.3218758,0.4888104796409607,-0.8539574146270752,0.0,31.80265235900879
1688648230.3318758,0.488120287656784,-0.8546997308731079,0.0,31.80433654785156
1688648230.3418758,0.4894829094409942,-0.8548624515533447,0.0,31.8035945892334
1688648230.3518758,0.4896544218063354,-0.8555172085762024,0.0,31.80352783203125
1688648230.3618758,0.4905545711517334,-0.8553168177604675,0.0,31.80289077758789
1688648230.3718758,0.4897854626178741,-0.855530321598053,0.0,31.802892684936523
1688648230.3818758,0.490879088640213,-0.8549680709838867,0.0,31.80240249633789
1688648230.3918757,0.4908293783664703,-0.8555787801742554,0.0,31.803157806396484
1688648230.401876,0.4916670620441437,-0.855274498462677,0.0,31.80289077758789
1688648230.411876,0.4912849962711334,-0.8551439046859741,0.0,31.803157806396484
1688648230.421876,0.4901100695133209,-0.8543587923049927,0.0,31.803577423095703
1688648230.431876,0.4915175139904022,-0.8545789122581482,0.0,31.80401611328125
1688648230.441876,0.4907498657703399,-0.8536835312843323,0.0,31.80276679992676
1688648230.451876,0.4887914359569549,-0.8532565832138062,0.0,31.8038330078125
1688648230.461876,0.4871487617492676,-0.8528227806091309,0.0,31.80231094360352
1688648230.471876,0.4862551987171173,-0.854839563369751,0.0,31.800350189208984
1688648230.481876,0.4872931241989136,-0.855055570602417,0.0,31.80011558532715
1688648230.491876,0.4874711334705353,-0.8554672598838806,0.0,31.798688888549805
1688648230.5018759,0.4881382882595062,-0.8544932007789612,0.0,31.79784393310547
1688648230.5118759,0.4884808957576751,-0.8547630310058594,0.0,31.79831886291504
1688648230.5218759,0.4905085563659668,-0.856111466884613,0.0,31.79874610900879
1688648230.5318758,0.4907315969467163,-0.8565090298652649,0.0,31.797197341918945
1688648230.5418758,0.491714209318161,-0.8567683696746826,0.0,31.796985626220703
1688648230.5518758,0.4929666519165039,-0.8558205366134644,0.0,31.797828674316406
1688648230.5618758,0.4926306903362274,-0.8565343618392944,0.0,31.798992156982425
1688648230.5718758,0.4930565059185028,-0.8547782897949219,0.0,31.79741668701172
1688648230.5818758,0.49204882979393,-0.8549708127975464,0.0,31.797616958618164
1688648230.5918758,0.4892887473106384,-0.8541526794433594,0.0,31.796852111816406
1688648230.6018758,0.4899449348449707,-0.8539238572120667,0.0,31.79692840576172
1688648230.6118758,0.4917328655719757,-0.8529016971588135,0.0,31.796592712402344
1688648230.6218758,0.4913114011287689,-0.853125274181366,0.0,31.796384811401367
1688648230.6318758,0.4932272136211395,-0.8509447574615479,0.0,31.795373916625977
1688648230.6418757,0.493245780467987,-0.8505091071128845,0.0,31.796220779418945
1688648230.651876,0.493123322725296,-0.8511582612991333,0.0,31.79493904113769
1688648230.661876,0.4931311011314392,-0.8519203662872314,0.0,31.793367385864254
1688648230.671876,0.4918724298477173,-0.8517970442771912,0.0,31.79340934753418
1688648230.681876,0.4901074171066284,-0.8513800501823425,0.0,31.79366874694824
1688648230.691876,0.4914738833904266,-0.8519610166549683,0.0,31.79476928710937
1688648230.701876,0.4921672940254211,-0.8520875573158264,0.0,31.79492950439453
1688648230.711876,0.4933253824710846,-0.8532578945159912,0.0,31.79469108581543
1688648230.721876,0.4952883720397949,-0.8531746864318848,0.0,31.79328727722168
1688648230.731876,0.4944275021553039,-0.8542695045471191,0.0,31.79305648803711
1688648230.741876,0.4939509928226471,-0.8549425005912781,0.0,31.794342041015625
1688648230.7518759,0.493616908788681,-0.8539474010467529,0.0,31.794065475463867
1688648230.7618759,0.4932259321212768,-0.8528430461883545,0.0,31.79374122619629
1688648230.7718759,0.4911680817604065,-0.8541094660758972,0.0,31.793636322021484
