Timestamp,stabilizer.pitch,stabilizer.roll,stabilizer.thrust,stabilizer.yaw
986664,0.48028913140296936,-0.8676857352256775,0.0,32.039703369140625
986674,0.4804510176181793,-0.8673890829086304,0.0,32.03878402709961
986684,0.48099032044410706,-0.8659226894378662,0.0,32.03804397583008
986694,0.4809306859970093,-0.8657739758491516,0.0,32.03770446777344
986704,0.47828489542007446,-0.8661837577819824,0.0,32.03868103027344
986714,0.4778789281845093,-0.8658038377761841,0.0,32.03749465942383
986724,0.47719693183898926,-0.8658410310745239,0.0,32.037628173828125
986734,0.4777868092060089,-0.8663954138755798,0.0,32.03733444213867
986744,0.47689682245254517,-0.8665962219238281,0.0,32.036590576171875
986754,0.4782469570636749,-0.866860568523407,0.0,32.036006927490234
986764,0.47768932580947876,-0.8677916526794434,0.0,32.0359001159668
986774,0.4772956073284149,-0.8677516579627991,0.0,32.03330612182617
986784,0.47719183564186096,-0.868776798248291,0.0,32.032569885253906
986794,0.47610750794410706,-0.8694549202919006,0.0,32.03202819824219
986804,0.47543343901634216,-0.8698263764381409,0.0,32.03200149536133
986814,0.4757750928401947,-0.8706691861152649,0.0,32.03251266479492
986824,0.4750286042690277,-0.8706320524215698,0.0,32.03138732910156
986834,0.4757543206214905,-0.8713622093200684,0.0,32.030845642089844
986844,0.4760725498199463,-0.8734775185585022,0.0,32.03178024291992
986854,0.47483307123184204,-0.8730972409248352,0.0,32.0330810546875
986864,0.47541844844818115,-0.8733747601509094,0.0,32.03252029418945
986874,0.47542908787727356,-0.8719711899757385,0.0,32.03145980834961
986884,0.474342405796051,-0.8716046810150146,0.0,32.031341552734375
986894,0.47478771209716797,-0.8715288639068604,0.0,32.030250549316406
986904,0.47366392612457275,-0.8717703819274902,0.0,32.03109359741211
986914,0.47347936034202576,-0.8718166351318359,0.0,32.032630920410156
986924,0.4735897183418274,-0.8715150952339172,0.0,32.032127380371094
986934,0.4752301275730133,-0.8718583583831787,0.0,32.03202819824219
986944,0.4745342433452606,-0.87104731798172,0.0,32.03212356567383
986954,0.4743901193141937,-0.8708228468894958,0.0,32.030635833740234
986964,0.4754909574985504,-0.8702343106269836,0.0,32.02842712402344
986974,0.47589272260665894,-0.8701884150505066,0.0,32.02817153930664
986984,0.4761830270290375,-0.8689433932304382,0.0,32.028053283691406
986994,0.47707870602607727,-0.8681401610374451,0.0,32.02789306640625
987004,0.4755571782588959,-0.8688170909881592,0.0,32.02775192260742
987014,0.47540590167045593,-0.8691129088401794,0.0,32.02821350097656
987024,0.47552773356437683,-0.8690927624702454,0.0,32.02760696411133
987034,0.4756919741630554,-0.8700061440467834,0.0,32.02790069580078
987044,0.4753221571445465,-0.8690707683563232,0.0,32.02537155151367
987054,0.4748612642288208,-0.8681868314743042,0.0,32.02496337890625
987064,0.47462284564971924,-0.8685873746871948,0.0,32.02585983276367
987074,0.4731658101081848,-0.868248701095581,0.0,32.02462387084961
987084,0.47602540254592896,-0.8674200177192688,0.0,32.02635955810547
987094,0.476665735244751,-0.8672014474868774,0.0,32.02566909790039
987104,0.47609809041023254,-0.8669121265411377,0.0,32.02501678466797
987114,0.4777807593345642,-0.8668888807296753,0.0,32.02519226074219
987124,0.477139949798584,-0.8663849830627441,0.0,32.026119232177734
987134,0.4759013056755066,-0.8661988973617554,0.0,32.02507781982422
987144,0.47733378410339355,-0.8666823506355286,0.0,32.02283477783203
987154,0.4783004820346832,-0.8670605421066284,0.0,32.02145004272461
987164,0.47732630372047424,-0.8667759299278259,0.0,32.022918701171875
987174,0.4772113859653473,-0.8658578991889954,0.0,32.02311325073242
987184,0.47737637162208557,-0.8671038150787354,0.0,32.02348327636719
987194,0.4771896004676819,-0.8677854537963867,0.0,32.02358627319336
987204,0.47624725103378296,-0.8679406642913818,0.0,32.0222282409668
987214,0.47459709644317627,-0.8688170313835144,0.0,32.02183532714844
987224,0.47585201263427734,-0.8691295385360718,0.0,32.021484375
987234,0.4758152961730957,-0.8687635064125061,0.0,32.020912170410156
987244,0.47679248452186584,-0.8688817620277405,0.0,32.019229888916016
987254,0.4765318036079407,-0.8681887984275818,0.0,32.01931381225586
987264,0.47663500905036926,-0.8675307631492615,0.0,32.02013397216797
987274,0.4772354066371918,-0.867436408996582,0.0,32.01941680908203
987284,0.4784090518951416,-0.8650544881820679,0.0,32.018062591552734
987294,0.47739171981811523,-0.8654688000679016,0.0,32.01935958862305
987304,0.47628864645957947,-0.865903913974762,0.0,32.02049255371094
987314,0.4754983186721802,-0.8658030033111572,0.0,32.020782470703125
987324,0.47374227643013,-0.8650727868080139,0.0,32.01995849609375
987334,0.4733041226863861,-0.8643091320991516,0.0,32.019596099853516
987344,0.4743732213973999,-0.8636694550514221,0.0,32.01902389526367
987354,0.4752558171749115,-0.8644097447395325,0.0,32.02016067504883
987364,0.4734644889831543,-0.8638347387313843,0.0,32.02048110961914
987374,0.4733503758907318,-0.8636878728866577,0.0,32.020179748535156
987384,0.47271883487701416,-0.8630360960960388,0.0,32.01945877075195
987394,0.47409361600875854,-0.8633934855461121,0.0,32.01913833618164
987404,0.47369909286499023,-0.8634474277496338,0.0,32.01840591430664
987414,0.47469770908355713,-0.8626654148101807,0.0,32.01782989501953
987424,0.4753965735435486,-0.8645169138908386,0.0,32.01810073852539
987434,0.4735330641269684,-0.8647066354751587,0.0,32.01839828491211
987444,0.47300276160240173,-0.8637634515762329,0.0,32.01924514770508
987454,0.4738604724407196,-0.8644838333129883,0.0,32.019195556640625
987464,0.47409942746162415,-0.8642269968986511,0.0,32.019588470458984
987474,0.47563040256500244,-0.8636512160301208,0.0,32.01995086669922
987484,0.4744574725627899,-0.8632340431213379,0.0,32.02054214477539
987494,0.474109023809433,-0.8639593124389648,0.0,32.02073287963867
987504,0.473956823348999,-0.864130973815918,0.0,32.0195426940918
987514,0.4733189642429352,-0.8638166785240173,0.0,32.01942825317383
987524,0.47355780005455017,-0.8640003800392151,0.0,32.02054214477539
987534,0.4739379584789276,-0.8633299469947815,0.0,32.02046203613281
987544,0.4722268879413605,-0.8629266619682312,0.0,32.01947784423828
987554,0.47168928384780884,-0.8636206984519958,0.0,32.02033233642578
987564,0.4725918173789978,-0.8630394339561462,0.0,32.020240783691406
987574,0.47060728073120117,-0.8618648052215576,0.0,32.01960754394531
987584,0.4717666506767273,-0.861345112323761,0.0,32.01968765258789
987594,0.4701644778251648,-0.8611854314804077,0.0,32.01968765258789
987604,0.4699397683143616,-0.8600178360939026,0.0,32.01812744140625
987614,0.470491886138916,-0.8600795269012451,0.0,32.01714324951172
987624,0.47092702984809875,-0.8596335649490356,0.0,32.017913818359375
987634,0.4709468185901642,-0.8590775728225708,0.0,32.017513275146484
987644,0.4724808931350708,-0.8585760593414307,0.0,32.01788330078125
987654,0.4725005328655243,-0.8584142327308655,0.0,32.01666259765625
987664,0.47201427817344666,-0.8581820726394653,0.0,32.01779556274414
987674,0.47258737683296204,-0.8573005795478821,0.0,32.016807556152344
987684,0.4718210697174072,-0.8573455214500427,0.0,32.01707077026367
987694,0.4717194139957428,-0.858320951461792,0.0,32.01649856567383
987704,0.4728268086910248,-0.8569366335868835,0.0,32.016544342041016
987714,0.4737122356891632,-0.8570459485054016,0.0,32.01675796508789
987724,0.4734671413898468,-0.8573286533355713,0.0,32.015220642089844
987734,0.47423866391181946,-0.8573961853981018,0.0,32.01630401611328
987744,0.474829763174057,-0.8567339777946472,0.0,32.015419006347656
987754,0.4750000536441803,-0.8560124039649963,0.0,32.01226806640625
987764,0.4765574336051941,-0.8570219874382019,0.0,32.012325286865234
987774,0.4782516658306122,-0.8569989800453186,0.0,32.01307678222656
987784,0.47862571477890015,-0.8566707372665405,0.0,32.013397216796875
987794,0.4781370162963867,-0.8558782339096069,0.0,32.01420593261719
987804,0.47856205701828003,-0.8572736382484436,0.0,32.01395797729492
987814,0.47894608974456787,-0.8577680587768555,0.0,32.01206588745117
987824,0.4802115857601166,-0.8574584126472473,0.0,32.01224136352539
987834,0.48009413480758667,-0.8576205372810364,0.0,32.01161193847656
987844,0.47889038920402527,-0.8579493761062622,0.0,32.011966705322266
987854,0.4791979491710663,-0.8576897382736206,0.0,32.01111602783203
987864,0.47809717059135437,-0.8579369187355042,0.0,32.0102424621582
987874,0.47664812207221985,-0.8569095134735107,0.0,32.008487701416016
987884,0.4757709801197052,-0.8580313920974731,0.0,32.00708770751953
987894,0.4757887125015259,-0.8579875230789185,0.0,32.00618362426758
987904,0.4762057363986969,-0.8571261167526245,0.0,32.00504684448242
987914,0.4770827889442444,-0.8567852973937988,0.0,32.004493713378906
987924,0.4779589772224426,-0.8552082777023315,0.0,32.00514221191406
987934,0.47856903076171875,-0.8545264601707458,0.0,32.00469970703125
987944,0.47784462571144104,-0.8541231751441956,0.0,32.0037727355957
987954,0.47959211468696594,-0.8544692397117615,0.0,32.004356384277344
987964,0.47905194759368896,-0.8551063537597656,0.0,32.00370407104492
987974,0.47988197207450867,-0.8553117513656616,0.0,32.00446701049805
987984,0.48069319128990173,-0.855114221572876,0.0,32.004154205322266
987994,0.48130762577056885,-0.8553732633590698,0.0,32.005245208740234
988004,0.480922669172287,-0.8561792373657227,0.0,32.004241943359375
988014,0.48176828026771545,-0.8577866554260254,0.0,32.004024505615234
988024,0.48036012053489685,-0.8582451939582825,0.0,32.003543853759766
988034,0.48043105006217957,-0.8569573760032654,0.0,32.00367736816406
988044,0.48053431510925293,-0.8571449518203735,0.0,32.003623962402344
988054,0.48048293590545654,-0.8599068522453308,0.0,32.003170013427734
988064,0.4807817339897156,-0.8587064146995544,0.0,32.00265121459961
988074,0.48027732968330383,-0.8595467805862427,0.0,32.002349853515625
988084,0.4793338477611542,-0.8600821495056152,0.0,32.0030632019043
988094,0.4789907932281494,-0.8606158494949341,0.0,32.003047943115234
988104,0.47783800959587097,-0.8614562153816223,0.0,32.00271224975586
988114,0.47840142250061035,-0.8616443276405334,0.0,32.00104522705078
988124,0.47826120257377625,-0.8621396422386169,0.0,32.00056838989258
988134,0.4788524806499481,-0.8618261814117432,0.0,31.99964714050293
988144,0.47884395718574524,-0.8619358539581299,0.0,32.00044631958008
988154,0.478967547416687,-0.8625891208648682,0.0,31.99992561340332
988164,0.477947860956192,-0.8633854389190674,0.0,32.000125885009766
988174,0.4791783094406128,-0.8632709980010986,0.0,32.00065994262695
988184,0.4789392948150635,-0.8637419939041138,0.0,32.0000114440918
988194,0.4794432818889618,-0.8662787079811096,0.0,32.00169372558594
988204,0.47813713550567627,-0.8665674924850464,0.0,32.00114822387695
988214,0.47831225395202637,-0.8679562211036682,0.0,32.000885009765625
988224,0.4784635007381439,-0.8681949377059937,0.0,32.00056838989258
988234,0.4790148437023163,-0.8688434362411499,0.0,32.00221252441406
988244,0.4788411855697632,-0.868207573890686,0.0,32.000457763671875
988254,0.4780898094177246,-0.8668986558914185,0.0,31.999845504760742
988264,0.47809919714927673,-0.8665310740470886,0.0,31.999614715576172
988274,0.4792468249797821,-0.8660445213317871,0.0,31.996685028076172
988284,0.4800851345062256,-0.8652156591415405,0.0,31.997615814208984
988294,0.4786495566368103,-0.865227460861206,0.0,31.99630355834961
988304,0.4791743755340576,-0.8651235699653625,0.0,31.994211196899414
988314,0.4773120880126953,-0.8652316927909851,0.0,31.99437713623047
988324,0.4780075252056122,-0.8647591471672058,0.0,31.99322509765625
988334,0.4786730706691742,-0.8649322390556335,0.0,31.993562698364258
988344,0.4793046712875366,-0.8652313947677612,0.0,31.993465423583984
988354,0.4797852337360382,-0.8647365570068359,0.0,31.992250442504883
988364,0.4790382385253906,-0.865522563457489,0.0,31.991716384887695
988374,0.4799199402332306,-0.8666055202484131,0.0,31.98938751220703
988384,0.47987911105155945,-0.8669180274009705,0.0,31.988670349121094
988394,0.4806164801120758,-0.8663758039474487,0.0,31.988746643066406
988404,0.48163366317749023,-0.8655330538749695,0.0,31.9879207611084
988414,0.48180073499679565,-0.8678341507911682,0.0,31.986976623535156
988424,0.4825509190559387,-0.868109405040741,0.0,31.986772537231445
988434,0.48356854915618896,-0.8679085969924927,0.0,31.98578643798828
988444,0.48605987429618835,-0.8683137893676758,0.0,31.98506736755371
988454,0.48601025342941284,-0.8675518035888672,0.0,31.984594345092773
988464,0.4871672987937927,-0.8676673769950867,0.0,31.984180450439453
988474,0.4864131212234497,-0.867400586605072,0.0,31.982934951782227
988484,0.48656222224235535,-0.8672272562980652,0.0,31.982662200927734
988494,0.48684513568878174,-0.8686509728431702,0.0,31.983083724975586
988504,0.4855812191963196,-0.8683498501777649,0.0,31.982872009277344
988514,0.48398643732070923,-0.8684776425361633,0.0,31.983182907104492
988524,0.48356565833091736,-0.8683520555496216,0.0,31.981658935546875
988534,0.4828658401966095,-0.8696084022521973,0.0,31.981372833251953
988544,0.48400405049324036,-0.8707557320594788,0.0,31.981414794921875
988554,0.48506489396095276,-0.8711169362068176,0.0,31.98011589050293
988564,0.48680374026298523,-0.871084451675415,0.0,31.981565475463867
988574,0.4871515929698944,-0.8713914752006531,0.0,31.980649948120117
988584,0.488870769739151,-0.871833086013794,0.0,31.9816837310791
988594,0.48954108357429504,-0.8718099594116211,0.0,31.98143196105957
988604,0.48921099305152893,-0.871139407157898,0.0,31.9798526763916
988614,0.48940467834472656,-0.8713810443878174,0.0,31.979976654052734
988624,0.49009180068969727,-0.8702518939971924,0.0,31.97948455810547
988634,0.49079638719558716,-0.870643675327301,0.0,31.978811264038086
988644,0.4912095367908478,-0.8698241710662842,0.0,31.97764015197754
988654,0.49198827147483826,-0.8691433072090149,0.0,31.977937698364258
988664,0.49302592873573303,-0.8692960739135742,0.0,31.975967407226562
988674,0.49528181552886963,-0.869356095790863,0.0,31.975812911987305
988684,0.4939335286617279,-0.8689721822738647,0.0,31.975372314453125
988694,0.49370598793029785,-0.8679020404815674,0.0,31.97399139404297
988704,0.4935665726661682,-0.8673216104507446,0.0,31.974225997924805
988714,0.4936254322528839,-0.8662486672401428,0.0,31.973440170288086
988724,0.49247241020202637,-0.8675740957260132,0.0,31.972326278686523
988734,0.4928736388683319,-0.8679515719413757,0.0,31.97258949279785
988744,0.4929812252521515,-0.8685309290885925,0.0,31.973461151123047
988754,0.4941723048686981,-0.8690434694290161,0.0,31.97395896911621
988764,0.4928739070892334,-0.8674762845039368,0.0,31.97462272644043
988774,0.492841511964798,-0.8674430847167969,0.0,31.973262786865234
988784,0.4920237064361572,-0.8655658960342407,0.0,31.973596572875977
988794,0.4915020763874054,-0.865359902381897,0.0,31.97402000427246
988804,0.4914417862892151,-0.8646525740623474,0.0,31.972591400146484
988814,0.4909992218017578,-0.8635956048965454,0.0,31.97213363647461
988824,0.4896646738052368,-0.8647394180297852,0.0,31.97385025024414
988834,0.48940524458885193,-0.8633365631103516,0.0,31.97490119934082
988844,0.48926281929016113,-0.8627665638923645,0.0,31.972867965698242
988854,0.48885098099708557,-0.8636552095413208,0.0,31.972684860229492
988864,0.48882216215133667,-0.8633537888526917,0.0,31.971529006958008
988874,0.48914816975593567,-0.8640141487121582,0.0,31.971111297607422
988884,0.4888935387134552,-0.8649218082427979,0.0,31.9711856842041
988894,0.4904769957065582,-0.8656887412071228,0.0,31.97001838684082
988904,0.4922625422477722,-0.8654579520225525,0.0,31.96910285949707
988914,0.4916642904281616,-0.8652394413948059,0.0,31.969327926635742
988924,0.4902637302875519,-0.8647701740264893,0.0,31.96973419189453
988934,0.49128973484039307,-0.8660517334938049,0.0,31.966732025146484
988944,0.4925248920917511,-0.8658618927001953,0.0,31.966341018676758
988954,0.4918094575405121,-0.8656246066093445,0.0,31.965469360351562
988964,0.4918324947357178,-0.8657651543617249,0.0,31.963878631591797
988974,0.49118542671203613,-0.8658151030540466,0.0,31.964160919189453
988984,0.4906417429447174,-0.8657070994377136,0.0,31.963895797729492
988994,0.49110546708106995,-0.8657315373420715,0.0,31.965408325195312
989004,0.4914599359035492,-0.8651265501976013,0.0,31.96465492248535
989014,0.49139127135276794,-0.8637852668762207,0.0,31.964664459228516
989024,0.49159958958625793,-0.863036572933197,0.0,31.965055465698242
989034,0.4919549226760864,-0.862459659576416,0.0,31.964740753173828
989044,0.49286776781082153,-0.8628787994384766,0.0,31.96399688720703
989054,0.49290531873703003,-0.8629838228225708,0.0,31.962566375732422
989064,0.49228113889694214,-0.8625829815864563,0.0,31.961915969848633
989074,0.49211299419403076,-0.8644028902053833,0.0,31.961383819580078
989084,0.49078238010406494,-0.8646344542503357,0.0,31.961292266845703
989094,0.4907481372356415,-0.865512490272522,0.0,31.960771560668945
989104,0.491832435131073,-0.8650552034378052,0.0,31.960458755493164
989114,0.49133583903312683,-0.8643511533737183,0.0,31.95902442932129
989124,0.4918234050273895,-0.8652294278144836,0.0,31.95890998840332
989134,0.49169331789016724,-0.864393413066864,0.0,31.95787811279297
989144,0.49353793263435364,-0.8660587668418884,0.0,31.95703887939453
989154,0.4936767518520355,-0.8665794134140015,0.0,31.95718765258789
989164,0.4939412772655487,-0.8669625520706177,0.0,31.957416534423828
989174,0.49432021379470825,-0.8676372170448303,0.0,31.957292556762695
989184,0.4942295551300049,-0.8661486506462097,0.0,31.957027435302734
989194,0.4939531981945038,-0.8646511435508728,0.0,31.95641326904297
989204,0.4933803081512451,-0.8634164929389954,0.0,31.956451416015625
989214,0.4934717118740082,-0.8644723296165466,0.0,31.95713996887207
989224,0.49291133880615234,-0.8643885850906372,0.0,31.956600189208984
989234,0.4932992458343506,-0.8651143908500671,0.0,31.954221725463867
989244,0.49314814805984497,-0.8651038408279419,0.0,31.95349884033203
989254,0.49296364188194275,-0.8654235005378723,0.0,31.95281982421875
989264,0.49392586946487427,-0.8661203384399414,0.0,31.951581954956055
989274,0.4949262738227844,-0.8657793998718262,0.0,31.952281951904297
989284,0.49604034423828125,-0.8661997318267822,0.0,31.95203399658203
989294,0.49676188826560974,-0.8651772141456604,0.0,31.95208740234375
989304,0.49460047483444214,-0.8655645847320557,0.0,31.95171356201172
989314,0.4942322373390198,-0.8652094006538391,0.0,31.95131492614746
989324,0.49525386095046997,-0.8654701113700867,0.0,31.950773239135742
989334,0.4938910901546478,-0.8663181066513062,0.0,31.951534271240234
989344,0.4932803511619568,-0.8667904734611511,0.0,31.951597213745117
989354,0.496558278799057,-0.8654897212982178,0.0,31.9512939453125
989364,0.49567341804504395,-0.8656207919120789,0.0,31.95123863220215
989374,0.4948839545249939,-0.8658927083015442,0.0,31.951152801513672
989384,0.4945853650569916,-0.8667239546775818,0.0,31.951801300048828
989394,0.4943559765815735,-0.8658639192581177,0.0,31.952390670776367
989404,0.494905024766922,-0.8663028478622437,0.0,31.952484130859375
989414,0.49495044350624084,-0.8666172027587891,0.0,31.952096939086914
989424,0.49607715010643005,-0.8667845129966736,0.0,31.952173233032227
989434,0.49488672614097595,-0.8658587336540222,0.0,31.95094108581543
989444,0.49388086795806885,-0.8664034605026245,0.0,31.949310302734375
989454,0.4946839213371277,-0.8660866022109985,0.0,31.948772430419922
989464,0.49487370252609253,-0.8666542172431946,0.0,31.94931411743164
989474,0.49641817808151245,-0.8663690090179443,0.0,31.949186325073242
989484,0.496939092874527,-0.8669511675834656,0.0,31.951303482055664
989494,0.4972187578678131,-0.8672246932983398,0.0,31.950634002685547
989504,0.49732547998428345,-0.8675028085708618,0.0,31.949499130249023
989514,0.49669161438941956,-0.8678901195526123,0.0,31.949647903442383
989524,0.49564439058303833,-0.8675214052200317,0.0,31.950002670288086
989534,0.49616768956184387,-0.8665210604667664,0.0,31.949462890625
989544,0.4960349500179291,-0.8667232990264893,0.0,31.95090103149414
989554,0.4959779679775238,-0.8680164813995361,0.0,31.950172424316406
989564,0.49811285734176636,-0.866723895072937,0.0,31.94981575012207
989574,0.49814674258232117,-0.8663386106491089,0.0,31.948848724365234
989584,0.498852401971817,-0.8658201098442078,0.0,31.94845199584961
989594,0.49717140197753906,-0.8663693070411682,0.0,31.94713592529297
989604,0.4967111647129059,-0.8671615719795227,0.0,31.946319580078125
989614,0.49443453550338745,-0.8682507276535034,0.0,31.94605827331543
989624,0.49441832304000854,-0.8684440851211548,0.0,31.946369171142578
989634,0.4936011731624603,-0.8688582181930542,0.0,31.94690704345703
989644,0.4936160147190094,-0.8684625029563904,0.0,31.946426391601562
989654,0.49362170696258545,-0.8692847490310669,0.0,31.94710922241211
989664,0.49197983741760254,-0.870101273059845,0.0,31.94672966003418
989674,0.49259325861930847,-0.8698552250862122,0.0,31.946918487548828
989684,0.4939649701118469,-0.8692877888679504,0.0,31.9455623626709
989694,0.494850218296051,-0.8702389597892761,0.0,31.94574737548828
989704,0.49388471245765686,-0.8706885576248169,0.0,31.94441795349121
989714,0.4928007125854492,-0.8688111305236816,0.0,31.942773818969727
989724,0.49211379885673523,-0.8684998750686646,0.0,31.941349029541016
989734,0.4930025041103363,-0.8697147369384766,0.0,31.94060516357422
989744,0.49137604236602783,-0.8710055351257324,0.0,31.941165924072266
989754,0.4910954535007477,-0.8702476024627686,0.0,31.940168380737305
989764,0.49083441495895386,-0.8714028596878052,0.0,31.939544677734375
989774,0.49217790365219116,-0.8709428310394287,0.0,31.938961029052734
989784,0.4917756915092468,-0.8721858859062195,0.0,31.939712524414062
989794,0.49126529693603516,-0.871064305305481,0.0,31.93781852722168
989804,0.49101322889328003,-0.8708333969116211,0.0,31.93844985961914
989814,0.4904390573501587,-0.869274377822876,0.0,31.93807601928711
989824,0.4904390871524811,-0.8687638640403748,0.0,31.936796188354492
989834,0.49107643961906433,-0.8684954047203064,0.0,31.93706512451172
989844,0.4907241463661194,-0.8683575987815857,0.0,31.936140060424805
989854,0.4899073839187622,-0.8669021725654602,0.0,31.93478775024414
989864,0.49043434858322144,-0.8663371205329895,0.0,31.93482780456543
989874,0.49092453718185425,-0.8657443523406982,0.0,31.935333251953125
989884,0.4910467565059662,-0.8668704628944397,0.0,31.934734344482422
989894,0.49096235632896423,-0.868535578250885,0.0,31.93545913696289
989904,0.49041780829429626,-0.8684314489364624,0.0,31.93472671508789
989914,0.4899330139160156,-0.8679491281509399,0.0,31.934738159179688
989924,0.4904618263244629,-0.8690021634101868,0.0,31.934383392333984
989934,0.48912927508354187,-0.8691788911819458,0.0,31.933944702148438
989944,0.48994478583335876,-0.8693289160728455,0.0,31.93202781677246
989954,0.4900127053260803,-0.869967520236969,0.0,31.933216094970703
989964,0.48975688219070435,-0.8702249526977539,0.0,31.933944702148438
989974,0.49004411697387695,-0.8689672946929932,0.0,31.93243408203125
989984,0.4900989830493927,-0.8687711954116821,0.0,31.93275260925293
989994,0.48839133977890015,-0.8705797791481018,0.0,31.93211555480957
990004,0.48677340149879456,-0.8701140284538269,0.0,31.931711196899414
990014,0.48806363344192505,-0.8705009818077087,0.0,31.92989158630371
990024,0.48921000957489014,-0.8699057102203369,0.0,31.928815841674805
990034,0.48945555090904236,-0.8690895438194275,0.0,31.929458618164062
990044,0.48989877104759216,-0.8689378499984741,0.0,31.92945671081543
990054,0.48863011598587036,-0.8698652386665344,0.0,31.929004669189453
990064,0.48880505561828613,-0.8700839877128601,0.0,31.93083381652832
990074,0.48859545588493347,-0.8701632618904114,0.0,31.931564331054688
990084,0.4879368543624878,-0.8694564700126648,0.0,31.930295944213867
990094,0.4896773099899292,-0.8685755729675293,0.0,31.930185317993164
990104,0.4902327060699463,-0.8680859208106995,0.0,31.930665969848633
990114,0.49046874046325684,-0.8682661652565002,0.0,31.930564880371094
990124,0.4909588694572449,-0.8683711886405945,0.0,31.929935455322266
990134,0.49188661575317383,-0.8686299920082092,0.0,31.928926467895508
990144,0.4933560788631439,-0.8687723875045776,0.0,31.92913818359375
990154,0.4937511682510376,-0.868395984172821,0.0,31.929920196533203
990164,0.49398642778396606,-0.868247389793396,0.0,31.929296493530273
990174,0.4948418438434601,-0.8682988286018372,0.0,31.928970336914062
990184,0.49358808994293213,-0.8682692646980286,0.0,31.927982330322266
990194,0.4942839741706848,-0.8678652048110962,0.0,31.927228927612305
990204,0.49490392208099365,-0.8668280243873596,0.0,31.926420211791992
990214,0.49427860975265503,-0.8671438694000244,0.0,31.926061630249023
990224,0.49450305104255676,-0.867008626461029,0.0,31.925582885742188
990234,0.4940831661224365,-0.8673389554023743,0.0,31.925010681152344
990244,0.49452921748161316,-0.8676466941833496,0.0,31.923484802246094
990254,0.49472007155418396,-0.8665344715118408,0.0,31.923465728759766
990264,0.49368077516555786,-0.8664515018463135,0.0,31.921955108642578
990274,0.493609756231308,-0.8671653270721436,0.0,31.920425415039062
990284,0.49442341923713684,-0.8659141063690186,0.0,31.920808792114258
990294,0.49479940533638,-0.8664025068283081,0.0,31.919580459594727
990304,0.4952413737773895,-0.865820050239563,0.0,31.918346405029297
990314,0.4956763684749603,-0.8657054901123047,0.0,31.91881561279297
990324,0.4965762495994568,-0.8650933504104614,0.0,31.919469833374023
990334,0.49630415439605713,-0.8653032779693604,0.0,31.917709350585938
990344,0.4966157078742981,-0.866071879863739,0.0,31.91725730895996
990354,0.49692580103874207,-0.8664230704307556,0.0,31.9172420501709
990364,0.4971459209918976,-0.8655438423156738,0.0,31.91646957397461
990374,0.4961998462677002,-0.8669707775115967,0.0,31.916425704956055
990384,0.49798083305358887,-0.8667458295822144,0.0,31.914216995239258
990394,0.4972914457321167,-0.8670535683631897,0.0,31.914886474609375
990404,0.49561992287635803,-0.8671775460243225,0.0,31.915672302246094
990414,0.49433231353759766,-0.8676213622093201,0.0,31.91646957397461
990424,0.4942222535610199,-0.8683872818946838,0.0,31.914966583251953
990434,0.4949449300765991,-0.8685535192489624,0.0,31.91469383239746
990444,0.4959336817264557,-0.8687878251075745,0.0,31.913793563842773
990454,0.4969732463359833,-0.8687009811401367,0.0,31.91176986694336
990464,0.4952382445335388,-0.8673250675201416,0.0,31.912019729614258
990474,0.49455633759498596,-0.867182731628418,0.0,31.911720275878906
990484,0.4957403540611267,-0.8670058250427246,0.0,31.910934448242188
990494,0.4949381947517395,-0.8665164709091187,0.0,31.91058921813965
990504,0.49611756205558777,-0.8660037517547607,0.0,31.910188674926758
990514,0.49566441774368286,-0.8659848570823669,0.0,31.910110473632812
990524,0.4971945285797119,-0.8642891049385071,0.0,31.91002082824707
990534,0.498839408159256,-0.8645983934402466,0.0,31.91071891784668
990544,0.49895480275154114,-0.8626621961593628,0.0,31.910755157470703
990554,0.49819961190223694,-0.8621489405632019,0.0,31.91080093383789
990564,0.49820172786712646,-0.8613632321357727,0.0,31.91046714782715
990574,0.49800339341163635,-0.8610667586326599,0.0,31.908971786499023
990584,0.496925413608551,-0.8616446852684021,0.0,31.910526275634766
990594,0.4958442449569702,-0.8614728450775146,0.0,31.910140991210938
990604,0.4944306015968323,-0.8630849719047546,0.0,31.90998077392578
990614,0.49507611989974976,-0.8638758659362793,0.0,31.910518646240234
990624,0.4946209490299225,-0.8631896376609802,0.0,31.909273147583008
990634,0.49404844641685486,-0.8623876571655273,0.0,31.909093856811523
990644,0.49289530515670776,-0.8632572889328003,0.0,31.907617568969727
990654,0.492948979139328,-0.8634642362594604,0.0,31.90656852722168
990664,0.49240246415138245,-0.8637032508850098,0.0,31.907310485839844
990674,0.49333855509757996,-0.8643033504486084,0.0,31.907085418701172
990684,0.4927605390548706,-0.8664233684539795,0.0,31.907211303710938
990694,0.492420494556427,-0.8659428358078003,0.0,31.907978057861328
990704,0.4912995398044586,-0.8673719167709351,0.0,31.907682418823242
990714,0.49113237857818604,-0.8665466904640198,0.0,31.906076431274414
990724,0.4922669231891632,-0.8666338324546814,0.0,31.906808853149414
990734,0.4913129508495331,-0.8663821220397949,0.0,31.907785415649414
990744,0.49185246229171753,-0.8660742044448853,0.0,31.906234741210938
990754,0.4936794936656952,-0.8658595085144043,0.0,31.906038284301758
990764,0.4928229749202728,-0.8660739660263062,0.0,31.9051513671875
990774,0.4934983551502228,-0.8654093742370605,0.0,31.903865814208984
990784,0.4929170310497284,-0.8649418354034424,0.0,31.903301239013672
990794,0.49268609285354614,-0.8655527234077454,0.0,31.90252113342285
990804,0.4930536150932312,-0.8651379346847534,0.0,31.902591705322266
990814,0.49405649304389954,-0.8647430539131165,0.0,31.901893615722656
990824,0.49399682879447937,-0.8642863631248474,0.0,31.901460647583008
990834,0.49432480335235596,-0.8631418943405151,0.0,31.90091896057129
990844,0.49472343921661377,-0.8615064024925232,0.0,31.901700973510742
990854,0.49569082260131836,-0.860733151435852,0.0,31.899410247802734
990864,0.49642127752304077,-0.8619949817657471,0.0,31.899858474731445
990874,0.49873778223991394,-0.8617481589317322,0.0,31.898658752441406
990884,0.4965387284755707,-0.8626741170883179,0.0,31.898893356323242
990894,0.49604541063308716,-0.8637886047363281,0.0,31.89972496032715
990904,0.4943537414073944,-0.8639708757400513,0.0,31.89954376220703
990914,0.49623486399650574,-0.8646511435508728,0.0,31.89924430847168
990924,0.49594488739967346,-0.8648777008056641,0.0,31.89946937561035
990934,0.4946156144142151,-0.8660272359848022,0.0,31.8997802734375
990944,0.49292129278182983,-0.8651551604270935,0.0,31.899051666259766
990954,0.4941558539867401,-0.8635551929473877,0.0,31.898250579833984
990964,0.49385422468185425,-0.8634961843490601,0.0,31.896732330322266
990974,0.49267029762268066,-0.8634666204452515,0.0,31.896202087402344
990984,0.492795467376709,-0.8632456064224243,0.0,31.896347045898438
990994,0.4929528832435608,-0.86216801404953,0.0,31.89695167541504
991004,0.49205657839775085,-0.863817572593689,0.0,31.893823623657227
991014,0.49191009998321533,-0.863960325717926,0.0,31.89348602294922
991024,0.49196773767471313,-0.8635945916175842,0.0,31.89348793029785
991034,0.4913589656352997,-0.865056574344635,0.0,31.89225196838379
991044,0.49230465292930603,-0.8644120693206787,0.0,31.89131736755371
991054,0.4911242425441742,-0.8659695982933044,0.0,31.89224624633789
991064,0.48934903740882874,-0.8660242557525635,0.0,31.892614364624023
991074,0.48988837003707886,-0.8653284311294556,0.0,31.89212989807129
991084,0.48928430676460266,-0.8660215139389038,0.0,31.891843795776367
991094,0.48915255069732666,-0.8661645650863647,0.0,31.890544891357422
991104,0.4887063503265381,-0.8660872578620911,0.0,31.89095687866211
991114,0.4890846014022827,-0.8668789863586426,0.0,31.892045974731445
991124,0.4882800877094269,-0.8665352463722229,0.0,31.892597198486328
991134,0.48823830485343933,-0.8669580221176147,0.0,31.89391326904297
991144,0.4879853129386902,-0.8660834431648254,0.0,31.893104553222656
991154,0.4898551106452942,-0.8661604523658752,0.0,31.89227294921875
991164,0.4898819625377655,-0.8651576638221741,0.0,31.89274024963379
991174,0.490276038646698,-0.8656895160675049,0.0,31.89125633239746
991184,0.49149462580680847,-0.8659639358520508,0.0,31.89068603515625
991194,0.4919807016849518,-0.8654648065567017,0.0,31.891498565673828
991204,0.49265268445014954,-0.8643606305122375,0.0,31.891584396362305
991214,0.4919678866863251,-0.8632976412773132,0.0,31.891006469726562
991224,0.48999857902526855,-0.8623586297035217,0.0,31.889633178710938
991234,0.4894409477710724,-0.8614455461502075,0.0,31.889326095581055
991244,0.48949217796325684,-0.8621183037757874,0.0,31.889543533325195
991254,0.48909249901771545,-0.862440288066864,0.0,31.887683868408203
991264,0.4882228672504425,-0.8643960356712341,0.0,31.888893127441406
991274,0.4894128739833832,-0.8642406463623047,0.0,31.888458251953125
991284,0.48911377787590027,-0.865454912185669,0.0,31.88811683654785
991294,0.4888177216053009,-0.8670536279678345,0.0,31.88811683654785
991304,0.4884618818759918,-0.8677017688751221,0.0,31.88713264465332
991314,0.4871194064617157,-0.8688386678695679,0.0,31.884767532348633
991324,0.4865726828575134,-0.8694502115249634,0.0,31.885189056396484
991334,0.4858402609825134,-0.8686600923538208,0.0,31.884937286376953
991344,0.48674333095550537,-0.8696710467338562,0.0,31.883472442626953
991354,0.48615092039108276,-0.8710030913352966,0.0,31.882843017578125
991364,0.48674851655960083,-0.8710798621177673,0.0,31.8824462890625
991374,0.48864510655403137,-0.8710372447967529,0.0,31.883176803588867
991384,0.48990657925605774,-0.87225741147995,0.0,31.88313102722168
991394,0.4912472665309906,-0.8725175857543945,0.0,31.88286018371582
991404,0.49083375930786133,-0.8718818426132202,0.0,31.883304595947266
991414,0.4915449321269989,-0.8735336065292358,0.0,31.88228988647461
991424,0.4933074116706848,-0.8732221126556396,0.0,31.88132095336914
991434,0.49248579144477844,-0.8730441927909851,0.0,31.881160736083984
991444,0.4923880696296692,-0.8728295564651489,0.0,31.88033103942871
991454,0.49379849433898926,-0.8722036480903625,0.0,31.880041122436523
991464,0.4936761260032654,-0.8720265626907349,0.0,31.879356384277344
991474,0.49455955624580383,-0.8710100054740906,0.0,31.87883949279785
991484,0.49363601207733154,-0.870707631111145,0.0,31.8780574798584
991494,0.4938681125640869,-0.8710376620292664,0.0,31.87542724609375
991504,0.4949434995651245,-0.8706303834915161,0.0,31.874128341674805
991514,0.49512946605682373,-0.8697873950004578,0.0,31.87255096435547
991524,0.4946696162223816,-0.8703199625015259,0.0,31.873231887817383
991534,0.4947751760482788,-0.8706350922584534,0.0,31.872175216674805
991544,0.4939621388912201,-0.8708156943321228,0.0,31.871721267700195
991554,0.4909152090549469,-0.8717356324195862,0.0,31.871444702148438
991564,0.4897271394729614,-0.8708557486534119,0.0,31.87191390991211
991574,0.48971185088157654,-0.8723732233047485,0.0,31.869354248046875
991584,0.49133870005607605,-0.8724682927131653,0.0,31.869266510009766
991594,0.4900386929512024,-0.8728889226913452,0.0,31.868770599365234
991604,0.4895991384983063,-0.8730520606040955,0.0,31.869115829467773
991614,0.4911762773990631,-0.871605634689331,0.0,31.86823081970215
991624,0.4899289608001709,-0.8708921074867249,0.0,31.868030548095703
991634,0.4895336925983429,-0.8704659938812256,0.0,31.869680404663086
991644,0.4888894557952881,-0.8711222410202026,0.0,31.869550704956055
991654,0.48914650082588196,-0.8714106678962708,0.0,31.869972229003906
991664,0.4875595271587372,-0.8707981705665588,0.0,31.870098114013672
991674,0.4866410195827484,-0.8716844320297241,0.0,31.870071411132812
991684,0.4866736829280853,-0.8705753087997437,0.0,31.868736267089844
991694,0.4867200553417206,-0.8705071806907654,0.0,31.869924545288086
991704,0.4882909655570984,-0.8697258234024048,0.0,31.869108200073242
991714,0.4878898561000824,-0.8711827993392944,0.0,31.869426727294922
991724,0.4875907897949219,-0.8706486821174622,0.0,31.869630813598633
991734,0.4892937242984772,-0.8702168464660645,0.0,31.86839485168457
991744,0.4889775812625885,-0.8707193732261658,0.0,31.86849594116211
991754,0.4883665442466736,-0.8704057335853577,0.0,31.869537353515625
991764,0.48837533593177795,-0.871040940284729,0.0,31.86883544921875
991774,0.4885323643684387,-0.873055100440979,0.0,31.868824005126953
991784,0.48732244968414307,-0.8714445233345032,0.0,31.868635177612305
991794,0.4883791208267212,-0.8714181780815125,0.0,31.86879539489746
991804,0.4886281490325928,-0.87212735414505,0.0,31.868593215942383
991814,0.4896883964538574,-0.8709747195243835,0.0,31.86812973022461
991824,0.49011003971099854,-0.8705325722694397,0.0,31.868364334106445
991834,0.4893808364868164,-0.8700771927833557,0.0,31.867332458496094
991844,0.4889901876449585,-0.8699416518211365,0.0,31.865570068359375
991854,0.4879555404186249,-0.8708222508430481,0.0,31.864112854003906
991864,0.4880055785179138,-0.8697207570075989,0.0,31.865205764770508
991874,0.48830488324165344,-0.8693328499794006,0.0,31.86384391784668
991884,0.48723265528678894,-0.8692046999931335,0.0,31.863733291625977
991894,0.4872474670410156,-0.8668948411941528,0.0,31.864030838012695
991904,0.4856593608856201,-0.8667296767234802,0.0,31.8645076751709
991914,0.4858984351158142,-0.8663634061813354,0.0,31.86461067199707
991924,0.48612138628959656,-0.867316722869873,0.0,31.864885330200195
991934,0.4863550364971161,-0.8679157495498657,0.0,31.865821838378906
991944,0.485892117023468,-0.8675507307052612,0.0,31.864450454711914
991954,0.4863685369491577,-0.8673304915428162,0.0,31.862831115722656
991964,0.48570722341537476,-0.8671380281448364,0.0,31.86409568786621
991974,0.4857044517993927,-0.8685372471809387,0.0,31.863189697265625
991984,0.4871314764022827,-0.8689735531806946,0.0,31.864717483520508
991994,0.4881165623664856,-0.8688784837722778,0.0,31.863792419433594
992004,0.48697614669799805,-0.8682325482368469,0.0,31.863330841064453
992014,0.48549970984458923,-0.8699342012405396,0.0,31.862844467163086
992024,0.48354363441467285,-0.8688180446624756,0.0,31.862272262573242
992034,0.4833824038505554,-0.8697829842567444,0.0,31.862289428710938
992044,0.4837377369403839,-0.8700881600379944,0.0,31.86272430419922
992054,0.4837472140789032,-0.8705230951309204,0.0,31.862987518310547
992064,0.48506900668144226,-0.8695710897445679,0.0,31.86371612548828
992074,0.48558127880096436,-0.8695568442344666,0.0,31.862510681152344
992084,0.48586612939834595,-0.8685312271118164,0.0,31.863258361816406
992094,0.48512589931488037,-0.8688108921051025,0.0,31.862756729125977
992104,0.484928160905838,-0.8705909848213196,0.0,31.862342834472656
992114,0.4853435456752777,-0.8703215718269348,0.0,31.861595153808594
992124,0.4846712350845337,-0.8700894117355347,0.0,31.859962463378906
992134,0.48553478717803955,-0.8708871006965637,0.0,31.860076904296875
992144,0.4871276021003723,-0.8717935681343079,0.0,31.85977554321289
992154,0.4868299961090088,-0.8716080188751221,0.0,31.859790802001953
992164,0.48726686835289,-0.8724451661109924,0.0,31.859111785888672
992174,0.4882145822048187,-0.8726024627685547,0.0,31.8590030670166
992184,0.487945020198822,-0.8725889921188354,0.0,31.858692169189453
992194,0.4884403645992279,-0.8727728724479675,0.0,31.857702255249023
992204,0.4874969720840454,-0.8724431991577148,0.0,31.85650634765625
992214,0.4865237772464752,-0.8730143308639526,0.0,31.856775283813477
992224,0.4852760136127472,-0.8720821738243103,0.0,31.856725692749023
992234,0.48533326387405396,-0.8726578950881958,0.0,31.85590934753418
992244,0.48635101318359375,-0.8734815120697021,0.0,31.854158401489258
992254,0.48673295974731445,-0.8729260563850403,0.0,31.854068756103516
992264,0.4860059320926666,-0.872454822063446,0.0,31.854629516601562
992274,0.4865123927593231,-0.8732819557189941,0.0,31.85481834411621
992284,0.48837360739707947,-0.873650848865509,0.0,31.854738235473633
992294,0.48647937178611755,-0.873763918876648,0.0,31.85426902770996
992304,0.48740580677986145,-0.8741573095321655,0.0,31.853679656982422
992314,0.48854148387908936,-0.8745179176330566,0.0,31.853445053100586
992324,0.4870561957359314,-0.8749767541885376,0.0,31.852224349975586
992334,0.48746660351753235,-0.8757526874542236,0.0,31.853464126586914
992344,0.4863659143447876,-0.8762503862380981,0.0,31.85184097290039
992354,0.485996812582016,-0.875983715057373,0.0,31.8518123626709
992364,0.4864257872104645,-0.8758317828178406,0.0,31.85201644897461
992374,0.4859321117401123,-0.8758240342140198,0.0,31.851119995117188
992384,0.48411133885383606,-0.8752830028533936,0.0,31.85149383544922
992394,0.48623013496398926,-0.8740161657333374,0.0,31.850788116455078
992404,0.4864230751991272,-0.8740918636322021,0.0,31.849660873413086
992414,0.48864614963531494,-0.8742605447769165,0.0,31.849821090698242
992424,0.48794445395469666,-0.8724916577339172,0.0,31.84977912902832
992434,0.48728594183921814,-0.8733459711074829,0.0,31.84880256652832
992444,0.48769667744636536,-0.8721746206283569,0.0,31.84770965576172
992454,0.4885944128036499,-0.870756983757019,0.0,31.848291397094727
992464,0.48755595088005066,-0.8707133531570435,0.0,31.848461151123047
992474,0.4879070222377777,-0.8701101541519165,0.0,31.84777069091797
992484,0.48771408200263977,-0.8715433478355408,0.0,31.848501205444336
992494,0.48705577850341797,-0.8709822297096252,0.0,31.84723472595215
992504,0.4859212636947632,-0.8720443844795227,0.0,31.84770965576172
992514,0.48649194836616516,-0.8727957606315613,0.0,31.84770965576172
992524,0.4849117398262024,-0.8737188577651978,0.0,31.848302841186523
992534,0.48543742299079895,-0.8728457093238831,0.0,31.848690032958984
992544,0.4867531657218933,-0.870898425579071,0.0,31.84700584411621
992554,0.48804041743278503,-0.870661199092865,0.0,31.846132278442383
992564,0.48870566487312317,-0.8710778951644897,0.0,31.846399307250977
992574,0.48803985118865967,-0.8709509372711182,0.0,31.846309661865234
992584,0.488288015127182,-0.8717000484466553,0.0,31.84695053100586
992594,0.4875030815601349,-0.8713974952697754,0.0,31.84514617919922
992604,0.48753616213798523,-0.870360255241394,0.0,31.845264434814453
992614,0.48732244968414307,-0.8702647089958191,0.0,31.846364974975586
992624,0.4888698160648346,-0.8681522607803345,0.0,31.844676971435547
992634,0.48832911252975464,-0.8691306114196777,0.0,31.844175338745117
992644,0.48833760619163513,-0.8684769868850708,0.0,31.844770431518555
992654,0.48781752586364746,-0.866925835609436,0.0,31.843475341796875
992664,0.48600876331329346,-0.8685427904129028,0.0,31.841493606567383
992674,0.4868219494819641,-0.8683686256408691,0.0,31.840641021728516
992684,0.4874585270881653,-0.8687283992767334,0.0,31.84084701538086
992694,0.4876093864440918,-0.8695830702781677,0.0,31.840559005737305
992704,0.4876407980918884,-0.8682584762573242,0.0,31.840465545654297
992714,0.4867461025714874,-0.8694558143615723,0.0,31.839271545410156
992724,0.48711660504341125,-0.8700459599494934,0.0,31.83907699584961
992734,0.48589083552360535,-0.8698809742927551,0.0,31.83844757080078
992744,0.484952837228775,-0.8718519806861877,0.0,31.83780288696289
992754,0.4851156175136566,-0.8711757063865662,0.0,31.837736129760742
992764,0.4834532141685486,-0.8697904944419861,0.0,31.838472366333008
992774,0.48364320397377014,-0.8703694343566895,0.0,31.83819007873535
992784,0.48500922322273254,-0.8702318668365479,0.0,31.83838653564453
992794,0.48538222908973694,-0.8714727163314819,0.0,31.838581085205078
992804,0.48628756403923035,-0.871992826461792,0.0,31.83786964416504
992814,0.4847683012485504,-0.8718705177307129,0.0,31.838287353515625
992824,0.4846656620502472,-0.8732185363769531,0.0,31.838748931884766
992834,0.48574990034103394,-0.8732748627662659,0.0,31.836641311645508
992844,0.48562920093536377,-0.8721907138824463,0.0,31.837257385253906
992854,0.48549750447273254,-0.872387707233429,0.0,31.83678436279297
992864,0.48559126257896423,-0.8734758496284485,0.0,31.836950302124023
992874,0.48666512966156006,-0.8733192086219788,0.0,31.83748435974121
992884,0.4866162836551666,-0.8736433982849121,0.0,31.837406158447266
992894,0.4872065484523773,-0.8741745352745056,0.0,31.836942672729492
992904,0.4871003031730652,-0.8752545714378357,0.0,31.835256576538086
992914,0.48656436800956726,-0.8745201826095581,0.0,31.836214065551758
992924,0.4885542094707489,-0.8733864426612854,0.0,31.835927963256836
992934,0.48775139451026917,-0.8724613189697266,0.0,31.835079193115234
992944,0.486156165599823,-0.8726444244384766,0.0,31.83496856689453
992954,0.48547354340553284,-0.873202919960022,0.0,31.834705352783203
992964,0.4863067865371704,-0.8729267120361328,0.0,31.83342170715332
992974,0.48481589555740356,-0.8718888759613037,0.0,31.831707000732422
992984,0.4862596392631531,-0.8718957901000977,0.0,31.83064842224121
992994,0.48724883794784546,-0.871557891368866,0.0,31.830305099487305
993004,0.48574429750442505,-0.8717399835586548,0.0,31.82900047302246
993014,0.48520898818969727,-0.871905505657196,0.0,31.8303165435791
993024,0.4848690330982208,-0.8716244101524353,0.0,31.828561782836914
993034,0.4852263629436493,-0.8698344826698303,0.0,31.8287410736084
993044,0.48619428277015686,-0.8682839274406433,0.0,31.829084396362305
993054,0.4878450334072113,-0.8675936460494995,0.0,31.8267822265625
993064,0.4888492524623871,-0.8671847581863403,0.0,31.826980590820312
993074,0.48906123638153076,-0.8663139343261719,0.0,31.82643699645996
993084,0.4886043965816498,-0.8654062151908875,0.0,31.82607650756836
993094,0.49004966020584106,-0.8654199838638306,0.0,31.82404136657715
993104,0.4892778694629669,-0.8656463623046875,0.0,31.824098587036133
993114,0.4890756905078888,-0.8636853098869324,0.0,31.82400131225586
993124,0.4892703890800476,-0.8644302487373352,0.0,31.823684692382812
993134,0.48813387751579285,-0.8634961843490601,0.0,31.822906494140625
993144,0.48738157749176025,-0.862859845161438,0.0,31.821592330932617
993154,0.48677849769592285,-0.8639128804206848,0.0,31.821290969848633
993164,0.4876966178417206,-0.8638365268707275,0.0,31.820955276489258
993174,0.4863775372505188,-0.8643127083778381,0.0,31.82209014892578
993184,0.484991192817688,-0.8643436431884766,0.0,31.82131576538086
993194,0.4861553907394409,-0.8637189269065857,0.0,31.821435928344727
993204,0.4859115481376648,-0.864864706993103,0.0,31.819467544555664
993214,0.4868899881839752,-0.8649390339851379,0.0,31.81941032409668
993224,0.4875244200229645,-0.8644723296165466,0.0,31.819002151489258
993234,0.48887547850608826,-0.8627088069915771,0.0,31.817197799682617
993244,0.4898638129234314,-0.8618080019950867,0.0,31.816253662109375
993254,0.49179109930992126,-0.8628342747688293,0.0,31.816164016723633
993264,0.4912498891353607,-0.8633074164390564,0.0,31.816553115844727
993274,0.49219101667404175,-0.8626957535743713,0.0,31.81573486328125
993284,0.4922536611557007,-0.8631442785263062,0.0,31.814651489257812
993294,0.4919753968715668,-0.8626499772071838,0.0,31.81423568725586
993304,0.4923992156982422,-0.8618168234825134,0.0,31.813961029052734
993314,0.4938831031322479,-0.8616272211074829,0.0,31.81366539001465
993324,0.4907456934452057,-0.8614962100982666,0.0,31.813322067260742
993334,0.4908139407634735,-0.8614100813865662,0.0,31.81366729736328
993344,0.49111753702163696,-0.8610730171203613,0.0,31.814424514770508
993354,0.4928090572357178,-0.8613072633743286,0.0,31.812681198120117
993364,0.4926375150680542,-0.8610070943832397,0.0,31.811538696289062
993374,0.4924304485321045,-0.8613067269325256,0.0,31.811790466308594
993384,0.4918757677078247,-0.8615025877952576,0.0,31.811290740966797
993394,0.48997384309768677,-0.8617722988128662,0.0,31.81155776977539
993404,0.49003085494041443,-0.8621572256088257,0.0,31.810970306396484
993414,0.48942822217941284,-0.8627912402153015,0.0,31.81011199951172
993424,0.48872461915016174,-0.8622868657112122,0.0,31.811767578125
993434,0.48816990852355957,-0.8624280691146851,0.0,31.809782028198242
993444,0.48842310905456543,-0.8627052307128906,0.0,31.80927276611328
993454,0.48920685052871704,-0.8626541495323181,0.0,31.809860229492188
993464,0.4879131317138672,-0.8625054359436035,0.0,31.808841705322266
993474,0.48690760135650635,-0.8617274761199951,0.0,31.80959701538086
993484,0.4862097203731537,-0.861119270324707,0.0,31.809328079223633
993494,0.48501428961753845,-0.8604604601860046,0.0,31.80955696105957
993504,0.4839126169681549,-0.8608913421630859,0.0,31.80951499938965
993514,0.4844092130661011,-0.8600964546203613,0.0,31.810218811035156
993524,0.4836575984954834,-0.8597947955131531,0.0,31.810699462890625
993534,0.48418277502059937,-0.8587446212768555,0.0,31.809099197387695
993544,0.48334500193595886,-0.8580738306045532,0.0,31.808101654052734
993554,0.4840506315231323,-0.8574339747428894,0.0,31.80767822265625
993564,0.48346322774887085,-0.8577123880386353,0.0,31.80728530883789
993574,0.4828222692012787,-0.8587021827697754,0.0,31.806974411010742
993584,0.48431456089019775,-0.8587051033973694,0.0,31.80670738220215
993594,0.48504364490509033,-0.8585332632064819,0.0,31.806446075439453
993604,0.4842614233493805,-0.8587362170219421,0.0,31.805686950683594
993614,0.4841406047344208,-0.8569702506065369,0.0,31.80600357055664
993624,0.4838445484638214,-0.856985330581665,0.0,31.805522918701172
993634,0.48479536175727844,-0.8546578288078308,0.0,31.805967330932617
993644,0.4859245717525482,-0.8548396825790405,0.0,31.8044376373291
993654,0.4875084459781647,-0.8535359501838684,0.0,31.804166793823242
993664,0.48739513754844666,-0.8534846901893616,0.0,31.80316162109375
993674,0.48686936497688293,-0.8539096117019653,0.0,31.803007125854492
993684,0.4868151843547821,-0.8529197573661804,0.0,31.802473068237305
993694,0.48714932799339294,-0.8536465764045715,0.0,31.803606033325195
993704,0.4879375100135803,-0.8537923693656921,0.0,31.8034725189209
993714,0.4888104796409607,-0.8539574146270752,0.0,31.80265235900879
993724,0.48812028765678406,-0.8546997308731079,0.0,31.804336547851562
993734,0.48948290944099426,-0.8548624515533447,0.0,31.8035945892334
993744,0.48965442180633545,-0.8555172085762024,0.0,31.80352783203125
993754,0.4905545711517334,-0.8553168177604675,0.0,31.80289077758789
993764,0.48978546261787415,-0.855530321598053,0.0,31.802892684936523
993774,0.490879088640213,-0.8549680709838867,0.0,31.80240249633789
993784,0.49082937836647034,-0.8555787801742554,0.0,31.803157806396484
993794,0.4916670620441437,-0.855274498462677,0.0,31.80289077758789
993804,0.4912849962711334,-0.8551439046859741,0.0,31.803157806396484
993814,0.4901100695133209,-0.8543587923049927,0.0,31.803577423095703
993824,0.4915175139904022,-0.8545789122581482,0.0,31.80401611328125
993834,0.49074986577033997,-0.8536835312843323,0.0,31.802766799926758
993844,0.48879143595695496,-0.8532565832138062,0.0,31.8038330078125
993854,0.4871487617492676,-0.8528227806091309,0.0,31.802310943603516
993864,0.4862551987171173,-0.854839563369751,0.0,31.800350189208984
993874,0.4872931241989136,-0.855055570602417,0.0,31.80011558532715
993884,0.4874711334705353,-0.8554672598838806,0.0,31.798688888549805
993894,0.4881382882595062,-0.8544932007789612,0.0,31.79784393310547
993904,0.48848089575767517,-0.8547630310058594,0.0,31.79831886291504
993914,0.4905085563659668,-0.856111466884613,0.0,31.79874610900879
993924,0.4907315969467163,-0.8565090298652649,0.0,31.797197341918945
993934,0.491714209318161,-0.8567683696746826,0.0,31.796985626220703
993944,0.4929666519165039,-0.8558205366134644,0.0,31.797828674316406
993954,0.4926306903362274,-0.8565343618392944,0.0,31.798992156982422
993964,0.4930565059185028,-0.8547782897949219,0.0,31.79741668701172
993974,0.49204882979393005,-0.8549708127975464,0.0,31.797616958618164
993984,0.4892887473106384,-0.8541526794433594,0.0,31.796852111816406
993994,0.4899449348449707,-0.8539238572120667,0.0,31.79692840576172
994004,0.4917328655719757,-0.8529016971588135,0.0,31.796592712402344
994014,0.4913114011287689,-0.853125274181366,0.0,31.796384811401367
994024,0.4932272136211395,-0.8509447574615479,0.0,31.795373916625977
994034,0.49324578046798706,-0.8505091071128845,0.0,31.796220779418945
994044,0.493123322725296,-0.8511582612991333,0.0,31.794939041137695
994054,0.4931311011314392,-0.8519203662872314,0.0,31.793367385864258
994064,0.4918724298477173,-0.8517970442771912,0.0,31.79340934753418
994074,0.4901074171066284,-0.8513800501823425,0.0,31.793668746948242
994084,0.49147388339042664,-0.8519610166549683,0.0,31.794769287109375
994094,0.49216729402542114,-0.8520875573158264,0.0,31.79492950439453
994104,0.4933253824710846,-0.8532578945159912,0.0,31.79469108581543
994114,0.4952883720397949,-0.8531746864318848,0.0,31.79328727722168
994124,0.49442750215530396,-0.8542695045471191,0.0,31.79305648803711
994134,0.4939509928226471,-0.8549425005912781,0.0,31.794342041015625
994144,0.49361690878868103,-0.8539474010467529,0.0,31.794065475463867
994154,0.49322593212127686,-0.8528430461883545,0.0,31.79374122619629
994164,0.4911680817604065,-0.8541094660758972,0.0,31.793636322021484
994174,0.49066346883773804,-0.8548951148986816,0.0,31.793474197387695
994184,0.4901825785636902,-0.8548903465270996,0.0,31.79249382019043
994194,0.4902261793613434,-0.8548000454902649,0.0,31.791969299316406
994204,0.49106064438819885,-0.853567361831665,0.0,31.78957748413086
994214,0.4917239248752594,-0.8537830114364624,0.0,31.788726806640625
994224,0.4908452332019806,-0.8543420433998108,0.0,31.78826141357422
994234,0.4907287359237671,-0.8558480739593506,0.0,31.788192749023438
994244,0.49175140261650085,-0.8567333221435547,0.0,31.787893295288086
994254,0.49302417039871216,-0.8558633327484131,0.0,31.78782844543457
994264,0.4916541874408722,-0.857599675655365,0.0,31.78809928894043
994274,0.49169206619262695,-0.8573713898658752,0.0,31.788959503173828
994284,0.49073541164398193,-0.8569469451904297,0.0,31.7878360748291
994294,0.49052029848098755,-0.8567875623703003,0.0,31.788448333740234
994304,0.4896450936794281,-0.8573760986328125,0.0,31.787899017333984
994314,0.4891986548900604,-0.8574021458625793,0.0,31.7880859375
994324,0.4912734031677246,-0.857103168964386,0.0,31.78780174255371
994334,0.4895726144313812,-0.8565776944160461,0.0,31.7887020111084
994344,0.48896124958992004,-0.8576185703277588,0.0,31.789724349975586
994354,0.48957398533821106,-0.8574605584144592,0.0,31.78858757019043
994364,0.4889836311340332,-0.8579257130622864,0.0,31.78759765625
994374,0.4897521436214447,-0.8565756678581238,0.0,31.78734016418457
994384,0.4883345663547516,-0.8581904768943787,0.0,31.78557014465332
994394,0.4885455071926117,-0.8593013882637024,0.0,31.78474235534668
994404,0.48890018463134766,-0.861401379108429,0.0,31.783571243286133
994414,0.48956260085105896,-0.8606629967689514,0.0,31.78225326538086
994424,0.4891706109046936,-0.8605046272277832,0.0,31.782381057739258
994434,0.48922789096832275,-0.8596078157424927,0.0,31.781085968017578
994444,0.48851704597473145,-0.860345721244812,0.0,31.781814575195312
994454,0.4880947768688202,-0.8606131672859192,0.0,31.780763626098633
994464,0.4879612326622009,-0.8604783415794373,0.0,31.780914306640625
994474,0.4874774217605591,-0.8603221774101257,0.0,31.78058624267578
994484,0.4877318739891052,-0.8598200678825378,0.0,31.781951904296875
994494,0.4870280921459198,-0.8602170944213867,0.0,31.780807495117188
994504,0.48632127046585083,-0.8590015172958374,0.0,31.781686782836914
994514,0.48806485533714294,-0.8588060140609741,0.0,31.781049728393555
994524,0.48588821291923523,-0.8588618040084839,0.0,31.781198501586914
994534,0.48458847403526306,-0.8589004278182983,0.0,31.780452728271484
994544,0.4825838804244995,-0.8596019744873047,0.0,31.78057861328125
994554,0.48420628905296326,-0.8590047359466553,0.0,31.77838706970215
994564,0.4855302572250366,-0.8593437075614929,0.0,31.77822494506836
994574,0.4855830669403076,-0.8599399328231812,0.0,31.77900505065918
994584,0.486603319644928,-0.8607981204986572,0.0,31.77825355529785
994594,0.48647260665893555,-0.8601085543632507,0.0,31.776987075805664
994604,0.48752549290657043,-0.8603138327598572,0.0,31.775836944580078
994614,0.48591288924217224,-0.8600174188613892,0.0,31.77657127380371
994624,0.4875778555870056,-0.8595355749130249,0.0,31.774898529052734
994634,0.4867265224456787,-0.8597636818885803,0.0,31.775917053222656
994644,0.4870275855064392,-0.8609137535095215,0.0,31.77492332458496
994654,0.48769745230674744,-0.8593701124191284,0.0,31.775291442871094
994664,0.48898938298225403,-0.8586021065711975,0.0,31.775419235229492
994674,0.4908621609210968,-0.8594881296157837,0.0,31.77411460876465
994684,0.4906524419784546,-0.8594952821731567,0.0,31.77374839782715
994694,0.49148428440093994,-0.8590649962425232,0.0,31.77182960510254
994704,0.4907752573490143,-0.8590444922447205,0.0,31.77139663696289
994714,0.48945146799087524,-0.8598004579544067,0.0,31.768800735473633
994724,0.48943793773651123,-0.8591307401657104,0.0,31.7692813873291
994734,0.4891952574253082,-0.8588986992835999,0.0,31.76902198791504
994744,0.4895494282245636,-0.8600143194198608,0.0,31.769290924072266
994754,0.4904119074344635,-0.8601151704788208,0.0,31.769573211669922
994764,0.49097341299057007,-0.8604960441589355,0.0,31.769254684448242
994774,0.4895767867565155,-0.8609346151351929,0.0,31.767118453979492
994784,0.49001482129096985,-0.8591808676719666,0.0,31.76810646057129
994794,0.48842209577560425,-0.859489381313324,0.0,31.767900466918945
994804,0.4893997311592102,-0.8594847917556763,0.0,31.767635345458984
994814,0.48893168568611145,-0.858443021774292,0.0,31.76631736755371
994824,0.48839592933654785,-0.8589253425598145,0.0,31.766338348388672
994834,0.48816150426864624,-0.8589122295379639,0.0,31.76533317565918
994844,0.48795264959335327,-0.8584114909172058,0.0,31.76472282409668
994854,0.48748478293418884,-0.8575842380523682,0.0,31.76470947265625
994864,0.48722609877586365,-0.8568894267082214,0.0,31.765085220336914
994874,0.48788541555404663,-0.8570153713226318,0.0,31.763715744018555
994884,0.4875939190387726,-0.8569203019142151,0.0,31.764785766601562
994894,0.4871048927307129,-0.8559040427207947,0.0,31.765413284301758
994904,0.48850658535957336,-0.8562665581703186,0.0,31.765470504760742
994914,0.48912525177001953,-0.8565390706062317,0.0,31.765823364257812
994924,0.48842737078666687,-0.855891227722168,0.0,31.76615333557129
994934,0.4882863759994507,-0.8565776944160461,0.0,31.76765251159668
994944,0.4877540171146393,-0.8576568961143494,0.0,31.765979766845703
994954,0.48794373869895935,-0.8584227561950684,0.0,31.7661190032959
994964,0.4883483052253723,-0.857390820980072,0.0,31.765254974365234
994974,0.48883020877838135,-0.8577927350997925,0.0,31.765491485595703
994984,0.4903108775615692,-0.8570655584335327,0.0,31.765111923217773
994994,0.49038371443748474,-0.8565481901168823,0.0,31.76487922668457
995004,0.48998773097991943,-0.8565723299980164,0.0,31.76441192626953
995014,0.48962700366973877,-0.8569000363349915,0.0,31.763986587524414
995024,0.4903344213962555,-0.8563544750213623,0.0,31.762775421142578
995034,0.49070996046066284,-0.8557655215263367,0.0,31.76188850402832
995044,0.49030497670173645,-0.8560291528701782,0.0,31.760074615478516
995054,0.48988717794418335,-0.8570806980133057,0.0,31.762142181396484
995064,0.4904076159000397,-0.8578229546546936,0.0,31.761369705200195
995074,0.4909861385822296,-0.8583280444145203,0.0,31.760135650634766
995084,0.4916519820690155,-0.8578656911849976,0.0,31.759742736816406
995094,0.4922635555267334,-0.8582075238227844,0.0,31.75864028930664
995104,0.4920438826084137,-0.8582629561424255,0.0,31.76010513305664
995114,0.4925350248813629,-0.8595454096794128,0.0,31.758686065673828
995124,0.49300554394721985,-0.8592835068702698,0.0,31.757844924926758
995134,0.49244916439056396,-0.8591681718826294,0.0,31.758258819580078
995144,0.49171963334083557,-0.8582048416137695,0.0,31.757673263549805
995154,0.4913521111011505,-0.8585581183433533,0.0,31.757476806640625
995164,0.4921078681945801,-0.858462929725647,0.0,31.757568359375
995174,0.4942028820514679,-0.8582415580749512,0.0,31.756786346435547
995184,0.4929646849632263,-0.8580801486968994,0.0,31.75678253173828
995194,0.49217990040779114,-0.8595010638237,0.0,31.75710678100586
995204,0.4908067286014557,-0.8601476550102234,0.0,31.756067276000977
995214,0.4899992346763611,-0.86119544506073,0.0,31.755643844604492
995224,0.4909917116165161,-0.861148476600647,0.0,31.755189895629883
995234,0.4911612868309021,-0.8631197214126587,0.0,31.754135131835938
995244,0.48984894156455994,-0.8626682162284851,0.0,31.754108428955078
995254,0.4907867908477783,-0.8633315563201904,0.0,31.752981185913086
995264,0.49068695306777954,-0.8634395003318787,0.0,31.75247573852539
995274,0.4909449517726898,-0.8633347749710083,0.0,31.75142478942871
995284,0.4913925230503082,-0.863804042339325,0.0,31.7504940032959
995294,0.49107009172439575,-0.8643831610679626,0.0,31.75046730041504
995304,0.4895299971103668,-0.8648725748062134,0.0,31.749778747558594
995314,0.4885860085487366,-0.8640997409820557,0.0,31.749813079833984
995324,0.4888821840286255,-0.8638598918914795,0.0,31.749706268310547
995334,0.48986732959747314,-0.8642608523368835,0.0,31.74993133544922
995344,0.4895947277545929,-0.8640283346176147,0.0,31.749460220336914
995354,0.4892573654651642,-0.8641692996025085,0.0,31.74907875061035
