Timestamp,stabilizer.pitch,stabilizer.roll,stabilizer.thrust,stabilizer.yaw
252372,0.7740561366081238,-0.8992509245872498,0.0,-1.1812963485717773
252382,0.771319568157196,-0.8992740511894226,0.0,-1.1817976236343384
252392,0.7702135443687439,-0.8987517356872559,0.0,-1.1812922954559326
252402,0.7701043486595154,-0.8978281021118164,0.0,-1.1813557147979736
252412,0.7712082266807556,-0.8971432447433472,0.0,-1.1816461086273193
252422,0.7708061933517456,-0.8971522450447083,0.0,-1.1825982332229614
252432,0.7694119215011597,-0.8961470723152161,0.0,-1.1827393770217896
252442,0.77092045545578,-0.8975092172622681,0.0,-1.1818560361862183
252452,0.7712531685829163,-0.8983852863311768,0.0,-1.1831793785095215
252462,0.7722361087799072,-0.8984630703926086,0.0,-1.1843476295471191
252472,0.7731190323829651,-0.8980101943016052,0.0,-1.1843156814575195
252482,0.7745547890663147,-0.8977589011192322,0.0,-1.1856797933578491
252492,0.7741363644599915,-0.898002028465271,0.0,-1.1855679750442505
252502,0.7745504379272461,-0.8971980810165405,0.0,-1.1868318319320679
252512,0.7742933034896851,-0.8986156582832336,0.0,-1.1871635913848877
252522,0.7741410732269287,-0.8983180522918701,0.0,-1.1875907182693481
252532,0.7733006477355957,-0.898701012134552,0.0,-1.1891051530838013
252542,0.7726770639419556,-0.897908627986908,0.0,-1.1883318424224854
252552,0.771284282207489,-0.8973420858383179,0.0,-1.189605474472046
252562,0.7717769145965576,-0.8984811305999756,0.0,-1.1897501945495605
252572,0.7729556560516357,-0.8983545899391174,0.0,-1.1899290084838867
252582,0.7730001211166382,-0.8983997106552124,0.0,-1.1887612342834473
252592,0.7738491296768188,-0.8979666233062744,0.0,-1.1899453401565552
252602,0.7751532793045044,-0.8978101015090942,0.0,-1.1897082328796387
252612,0.7752038240432739,-0.8992201685905457,0.0,-1.1897773742675781
252622,0.7751143574714661,-0.9000077843666077,0.0,-1.190453052520752
252632,0.7752490043640137,-0.9005675315856934,0.0,-1.190194010734558
252642,0.7758906483650208,-0.8994526267051697,0.0,-1.1912347078323364
252652,0.7743146419525146,-0.8997333645820618,0.0,-1.190687656402588
252662,0.7738008499145508,-0.8999388813972473,0.0,-1.1909193992614746
252672,0.7731192708015442,-0.899748682975769,0.0,-1.1903022527694702
252682,0.7737731337547302,-0.8991268277168274,0.0,-1.1910507678985596
252692,0.7730942368507385,-0.899742066860199,0.0,-1.1913083791732788
252702,0.7732382416725159,-0.8987653851509094,0.0,-1.1907782554626465
252712,0.7734742760658264,-0.899402379989624,0.0,-1.190629243850708
252722,0.7735006213188171,-0.89909827709198,0.0,-1.1895933151245117
252732,0.7744691371917725,-0.8987930417060852,0.0,-1.1900221109390259
252742,0.7745469808578491,-0.8979379534721375,0.0,-1.1882590055465698
252752,0.7749652862548828,-0.8963000774383545,0.0,-1.188910722732544
252762,0.7764133810997009,-0.8974384665489197,0.0,-1.187572956085205
252772,0.777228832244873,-0.8973408341407776,0.0,-1.1879936456680298
252782,0.7780656814575195,-0.8970958590507507,0.0,-1.1891099214553833
252792,0.7777014970779419,-0.8979998826980591,0.0,-1.189370036125183
252802,0.7768685221672058,-0.8976689577102661,0.0,-1.189046859741211
252812,0.7759783864021301,-0.8965332508087158,0.0,-1.1895071268081665
252822,0.7757648229598999,-0.8969171047210693,0.0,-1.1880828142166138
252832,0.7758417725563049,-0.8979129791259766,0.0,-1.1894956827163696
252842,0.7757742404937744,-0.8968371152877808,0.0,-1.1904295682907104
252852,0.7742074728012085,-0.8978151082992554,0.0,-1.1926242113113403
252862,0.7750164866447449,-0.8978822231292725,0.0,-1.19361412525177
252872,0.7756359577178955,-0.8970212340354919,0.0,-1.193358063697815
252882,0.7756538391113281,-0.8970131278038025,0.0,-1.1936899423599243
252892,0.7741236686706543,-0.8981884717941284,0.0,-1.1921342611312866
252902,0.7746132612228394,-0.897998034954071,0.0,-1.191855549812317
252912,0.7733493447303772,-0.8964549899101257,0.0,-1.1940010786056519
252922,0.7743164896965027,-0.8966267704963684,0.0,-1.1932778358459473
252932,0.7746894359588623,-0.8975411653518677,0.0,-1.1943929195404053
252942,0.7757925987243652,-0.8982457518577576,0.0,-1.1948368549346924
252952,0.7737612128257751,-0.8980063796043396,0.0,-1.194452166557312
252962,0.7734909057617188,-0.8969740867614746,0.0,-1.195685863494873
252972,0.7729426622390747,-0.8981422781944275,0.0,-1.1955920457839966
252982,0.7730931043624878,-0.8973139524459839,0.0,-1.196738362312317
252992,0.7735100388526917,-0.8972475528717041,0.0,-1.1979405879974365
253002,0.7748833298683167,-0.8975844979286194,0.0,-1.1973295211791992
253012,0.7760154604911804,-0.8962849378585815,0.0,-1.1995826959609985
253022,0.7766742706298828,-0.8971171379089355,0.0,-1.1991554498672485
253032,0.7754100561141968,-0.897091269493103,0.0,-1.1988513469696045
253042,0.7744027376174927,-0.8959737420082092,0.0,-1.1977726221084595
253052,0.7747991681098938,-0.8954466581344604,0.0,-1.1989611387252808
253062,0.7754451036453247,-0.895733118057251,0.0,-1.19792902469635
253072,0.7762469053268433,-0.8947892189025879,0.0,-1.197629451751709
253082,0.7754817605018616,-0.8941307663917542,0.0,-1.1982744932174683
253092,0.7762207984924316,-0.8939257264137268,0.0,-1.1973906755447388
253102,0.7771024703979492,-0.8927905559539795,0.0,-1.1975975036621094
253112,0.7768903374671936,-0.8927868008613586,0.0,-1.1980831623077393
253122,0.7762120366096497,-0.8925130367279053,0.0,-1.1983487606048584
253132,0.7767680287361145,-0.891925036907196,0.0,-1.1992900371551514
253142,0.7780112028121948,-0.8932974934577942,0.0,-1.2013500928878784
253152,0.7775613069534302,-0.8934627175331116,0.0,-1.2012999057769775
253162,0.7781420946121216,-0.8927899599075317,0.0,-1.202539086341858
253172,0.7785067558288574,-0.8927213549613953,0.0,-1.2010202407836914
253182,0.7798203825950623,-0.8938913345336914,0.0,-1.2004148960113525
253192,0.7797930240631104,-0.8941176533699036,0.0,-1.20064377784729
253202,0.7792460918426514,-0.8924978375434875,0.0,-1.2008155584335327
253212,0.7796393036842346,-0.8924023509025574,0.0,-1.2007941007614136
253222,0.7790993452072144,-0.8916371464729309,0.0,-1.2012025117874146
253232,0.7791141271591187,-0.892885684967041,0.0,-1.2017425298690796
253242,0.7785738706588745,-0.8912672400474548,0.0,-1.2026640176773071
253252,0.7794350385665894,-0.8909056186676025,0.0,-1.203244686126709
253262,0.7791655659675598,-0.8913955092430115,0.0,-1.204085350036621
253272,0.7791578769683838,-0.8916670680046082,0.0,-1.2028589248657227
253282,0.7800378799438477,-0.8926169276237488,0.0,-1.203505039215088
253292,0.7795011401176453,-0.892769455909729,0.0,-1.2033177614212036
253302,0.7801579236984253,-0.8927544355392456,0.0,-1.202690839767456
253312,0.7804424166679382,-0.8942373394966125,0.0,-1.2034226655960083
253322,0.779788076877594,-0.8942990303039551,0.0,-1.20292329788208
253332,0.7800479531288147,-0.8947126269340515,0.0,-1.2045388221740723
253342,0.7784559726715088,-0.8940498232841492,0.0,-1.2044472694396973
253352,0.778393030166626,-0.8947531580924988,0.0,-1.2039380073547363
253362,0.7773975133895874,-0.8936554789543152,0.0,-1.204208254814148
253372,0.7761198878288269,-0.8938623666763306,0.0,-1.204484224319458
253382,0.775604784488678,-0.8928117156028748,0.0,-1.2042872905731201
253392,0.7758762836456299,-0.8918734788894653,0.0,-1.2041445970535278
253402,0.77614426612854,-0.891414999961853,0.0,-1.2027419805526733
253412,0.7776730060577393,-0.8905878067016602,0.0,-1.2027782201766968
253422,0.7776620388031006,-0.8908929824829102,0.0,-1.2018237113952637
253432,0.7781355977058411,-0.8898880481719971,0.0,-1.2027215957641602
253442,0.7808105945587158,-0.8887463808059692,0.0,-1.204359769821167
253452,0.7806137204170227,-0.8883980512619019,0.0,-1.204394817352295
253462,0.7811416983604431,-0.8870431780815125,0.0,-1.2042895555496216
253472,0.7815011739730835,-0.8878594040870667,0.0,-1.204318642616272
253482,0.7802733778953552,-0.8880236148834229,0.0,-1.2049598693847656
253492,0.7801432013511658,-0.8881994485855103,0.0,-1.2052772045135498
253502,0.7799245715141296,-0.8876219987869263,0.0,-1.2062721252441406
253512,0.7799156904220581,-0.8878747820854187,0.0,-1.2073900699615479
253522,0.7774499654769897,-0.8868551254272461,0.0,-1.208247184753418
253532,0.7774825096130371,-0.888149082660675,0.0,-1.2093526124954224
253542,0.778605043888092,-0.8875512480735779,0.0,-1.209742784500122
253552,0.7768810987472534,-0.8889864087104797,0.0,-1.2101786136627197
253562,0.7771068215370178,-0.8889932036399841,0.0,-1.209183931350708
253572,0.7761181592941284,-0.8876981735229492,0.0,-1.2092983722686768
253582,0.7761933207511902,-0.8871010541915894,0.0,-1.2105212211608887
253592,0.7772959470748901,-0.8871994018554688,0.0,-1.2112765312194824
253602,0.7773317694664001,-0.8874711990356445,0.0,-1.211172342300415
253612,0.7778748869895935,-0.887191891670227,0.0,-1.2117444276809692
253622,0.7779118418693542,-0.8872657418251038,0.0,-1.211511492729187
253632,0.7777148485183716,-0.8872178196907043,0.0,-1.2120611667633057
253642,0.776310384273529,-0.8870928287506104,0.0,-1.2117501497268677
253652,0.7759443521499634,-0.887897253036499,0.0,-1.2124383449554443
253662,0.777894914150238,-0.8888199925422668,0.0,-1.212389349937439
253672,0.7792551517486572,-0.8884003162384033,0.0,-1.213812232017517
253682,0.7795162796974182,-0.8883089423179626,0.0,-1.2140265703201294
253692,0.7814585566520691,-0.8878698348999023,0.0,-1.215874195098877
253702,0.7813185453414917,-0.8877211213111877,0.0,-1.2155760526657104
253712,0.7801251411437988,-0.8881669640541077,0.0,-1.2158713340759277
253722,0.7791748046875,-0.8889766335487366,0.0,-1.2153955698013306
253732,0.7794105410575867,-0.8899142742156982,0.0,-1.2164522409439087
253742,0.7801967263221741,-0.8900295495986938,0.0,-1.21588933467865
253752,0.7811333537101746,-0.8904638886451721,0.0,-1.2144993543624878
253762,0.780867338180542,-0.8895500302314758,0.0,-1.2159732580184937
253772,0.7806875109672546,-0.8895871043205261,0.0,-1.2165234088897705
253782,0.7816107273101807,-0.8890693187713623,0.0,-1.216274619102478
253792,0.7825121879577637,-0.8885853290557861,0.0,-1.2157447338104248
253802,0.7816477417945862,-0.8911445736885071,0.0,-1.2151720523834229
253812,0.7809880375862122,-0.8918978571891785,0.0,-1.2159223556518555
253822,0.7806543707847595,-0.8926778435707092,0.0,-1.2147655487060547
253832,0.7801839709281921,-0.8931812047958374,0.0,-1.2149072885513306
253842,0.7793214321136475,-0.89414381980896,0.0,-1.2153897285461426
253852,0.7786865234375,-0.8944406509399414,0.0,-1.2150027751922607
253862,0.7784329056739807,-0.8933954834938049,0.0,-1.2150799036026
253872,0.7801541090011597,-0.8924631476402283,0.0,-1.2168078422546387
253882,0.780146062374115,-0.8922675848007202,0.0,-1.2183462381362915
253892,0.7807058691978455,-0.8940436840057373,0.0,-1.2180081605911255
253902,0.7816905379295349,-0.8944625854492188,0.0,-1.2182540893554688
253912,0.7810483574867249,-0.8941748142242432,0.0,-1.2183547019958496
253922,0.7804361581802368,-0.8949643969535828,0.0,-1.2186988592147827
253932,0.7815136909484863,-0.8957979679107666,0.0,-1.219029188156128
253942,0.7814571261405945,-0.8976256847381592,0.0,-1.2189099788665771
253952,0.7800068259239197,-0.8997122049331665,0.0,-1.218174695968628
253962,0.7802257537841797,-0.8991022706031799,0.0,-1.2185529470443726
253972,0.7789376974105835,-0.9000533223152161,0.0,-1.2191613912582397
253982,0.7791236639022827,-0.9001148343086243,0.0,-1.2189310789108276
253992,0.7774344682693481,-0.8988573551177979,0.0,-1.2183785438537598
254002,0.7778456211090088,-0.8989782333374023,0.0,-1.2191543579101562
254012,0.7754888534545898,-0.8985852003097534,0.0,-1.2194143533706665
254022,0.7759726047515869,-0.8991806507110596,0.0,-1.2180932760238647
254032,0.7754632830619812,-0.8982714414596558,0.0,-1.2180352210998535
254042,0.7753109931945801,-0.8986279964447021,0.0,-1.2159409523010254
254052,0.7761414051055908,-0.8980250358581543,0.0,-1.217492699623108
254062,0.7770998477935791,-0.899225652217865,0.0,-1.2171717882156372
254072,0.7778583765029907,-0.8993247747421265,0.0,-1.2171847820281982
254082,0.7794135808944702,-0.8987913131713867,0.0,-1.2186192274093628
254092,0.7788510322570801,-0.8989461660385132,0.0,-1.2188079357147217
254102,0.7796269655227661,-0.8981943130493164,0.0,-1.219436526298523
254112,0.779414176940918,-0.8988468647003174,0.0,-1.2204184532165527
254122,0.7803359031677246,-0.8974480032920837,0.0,-1.22073495388031
254132,0.7818394303321838,-0.898177444934845,0.0,-1.2216829061508179
254142,0.781568706035614,-0.8993156552314758,0.0,-1.2218759059906006
254152,0.7806299924850464,-0.8989899754524231,0.0,-1.2237350940704346
254162,0.7803467512130737,-0.8988962173461914,0.0,-1.2226488590240479
254172,0.7801371812820435,-0.8997014164924622,0.0,-1.2220416069030762
254182,0.7803676128387451,-0.899322509765625,0.0,-1.2214363813400269
254192,0.77983158826828,-0.8999425768852234,0.0,-1.2245088815689087
254202,0.7798473834991455,-0.9011117815971375,0.0,-1.2240180969238281
254212,0.7793505787849426,-0.9005641341209412,0.0,-1.225524663925171
254222,0.777298629283905,-0.9014067649841309,0.0,-1.2246977090835571
254232,0.7765109539031982,-0.9023156762123108,0.0,-1.2232118844985962
254242,0.7761433720588684,-0.9021326303482056,0.0,-1.2248660326004028
254252,0.7767678499221802,-0.9016537666320801,0.0,-1.2235805988311768
254262,0.7760331034660339,-0.901362419128418,0.0,-1.2226439714431763
254272,0.7748885154724121,-0.8999583721160889,0.0,-1.2238527536392212
254282,0.7757571339607239,-0.8997702598571777,0.0,-1.222775936126709
254292,0.7760289907455444,-0.9000110626220703,0.0,-1.2236541509628296
254302,0.7753440141677856,-0.9000670313835144,0.0,-1.2248963117599487
254312,0.7750139832496643,-0.9001690745353699,0.0,-1.224672794342041
254322,0.774198055267334,-0.8997137546539307,0.0,-1.225174069404602
254332,0.7724944353103638,-0.900005578994751,0.0,-1.2257897853851318
254342,0.7725587487220764,-0.8986418843269348,0.0,-1.2243074178695679
254352,0.771483838558197,-0.8992336988449097,0.0,-1.2252305746078491
254362,0.771679699420929,-0.8996104598045349,0.0,-1.225354552268982
254372,0.771217405796051,-0.8979693651199341,0.0,-1.2268396615982056
254382,0.7710634469985962,-0.8981096744537354,0.0,-1.2262022495269775
254392,0.7727149724960327,-0.8969888091087341,0.0,-1.2273852825164795
254402,0.7725157737731934,-0.8972845077514648,0.0,-1.2279075384140015
254412,0.7713840007781982,-0.8977655172348022,0.0,-1.228198528289795
254422,0.7714360952377319,-0.8983577489852905,0.0,-1.2285398244857788
254432,0.7731155157089233,-0.899387776851654,0.0,-1.2276440858840942
254442,0.7738149762153625,-0.9000441431999207,0.0,-1.2281951904296875
254452,0.7738052606582642,-0.8997077345848083,0.0,-1.228655457496643
254462,0.7720816731452942,-0.9003416299819946,0.0,-1.2278618812561035
254472,0.7696921825408936,-0.9009299874305725,0.0,-1.2251890897750854
254482,0.7693666219711304,-0.9010264873504639,0.0,-1.2254626750946045
254492,0.7703151702880859,-0.9004178047180176,0.0,-1.2262009382247925
254502,0.7709896564483643,-0.8998403549194336,0.0,-1.2262022495269775
254512,0.7688473463058472,-0.8999224305152893,0.0,-1.225828766822815
254522,0.7670325636863708,-0.8995237946510315,0.0,-1.2262471914291382
254532,0.7687848210334778,-0.8992956876754761,0.0,-1.2269502878189087
254542,0.7701393365859985,-0.9000285267829895,0.0,-1.2286837100982666
254552,0.7701101303100586,-0.9005188941955566,0.0,-1.2287074327468872
254562,0.7703540325164795,-0.9009174704551697,0.0,-1.2278856039047241
254572,0.7701026797294617,-0.9004374146461487,0.0,-1.226919174194336
254582,0.7694131135940552,-0.901179313659668,0.0,-1.2258386611938477
254592,0.7700241208076477,-0.9021151065826416,0.0,-1.2264119386672974
254602,0.769635796546936,-0.9016008973121643,0.0,-1.2250264883041382
254612,0.7688536643981934,-0.9016637206077576,0.0,-1.2246555089950562
254622,0.7684640884399414,-0.9007340669631958,0.0,-1.2239316701889038
254632,0.7656800746917725,-0.8991725444793701,0.0,-1.2238364219665527
254642,0.765401303768158,-0.8997952342033386,0.0,-1.2226437330245972
254652,0.7669313549995422,-0.899101197719574,0.0,-1.2234641313552856
254662,0.7656623125076294,-0.8985788822174072,0.0,-1.223007082939148
254672,0.7642309665679932,-0.8981060981750488,0.0,-1.2223554849624634
254682,0.7642698287963867,-0.8981485366821289,0.0,-1.2219158411026
254692,0.7633731365203857,-0.897110641002655,0.0,-1.2222397327423096
254702,0.7640525698661804,-0.8984516859054565,0.0,-1.2233167886734009
254712,0.7639859914779663,-0.8982410430908203,0.0,-1.2254843711853027
254722,0.764324963092804,-0.8993354439735413,0.0,-1.22544527053833
254732,0.765247642993927,-0.8992176651954651,0.0,-1.2250096797943115
254742,0.7656627893447876,-0.8998287320137024,0.0,-1.22501802444458
254752,0.7670658826828003,-0.8994787931442261,0.0,-1.2255576848983765
254762,0.767292320728302,-0.8988973498344421,0.0,-1.2254054546356201
254772,0.7674890756607056,-0.8994078040122986,0.0,-1.226538062095642
254782,0.7691650986671448,-0.9003552794456482,0.0,-1.2284609079360962
254792,0.7684922814369202,-0.8986038565635681,0.0,-1.229235053062439
254802,0.7683876752853394,-0.898159921169281,0.0,-1.2305234670639038
254812,0.7700093388557434,-0.8977195024490356,0.0,-1.2298260927200317
254822,0.768301784992218,-0.8988373875617981,0.0,-1.2311079502105713
254832,0.7668653130531311,-0.8992257118225098,0.0,-1.231626272201538
254842,0.7667547464370728,-0.8984527587890625,0.0,-1.232261061668396
254852,0.7650651931762695,-0.8978942632675171,0.0,-1.2329754829406738
254862,0.7647992372512817,-0.8983778953552246,0.0,-1.233498215675354
254872,0.7644668817520142,-0.8980485796928406,0.0,-1.2332589626312256
254882,0.7639568448066711,-0.8968711495399475,0.0,-1.234120488166809
254892,0.7637665271759033,-0.8976067900657654,0.0,-1.2340903282165527
254902,0.7630808353424072,-0.8956956267356873,0.0,-1.2346588373184204
254912,0.7634754776954651,-0.8953781127929688,0.0,-1.2346916198730469
254922,0.7632771134376526,-0.8958625197410583,0.0,-1.2332531213760376
254932,0.7616448402404785,-0.8956138491630554,0.0,-1.2339105606079102
254942,0.7635655999183655,-0.8957604169845581,0.0,-1.2325612306594849
254952,0.7627649903297424,-0.896831750869751,0.0,-1.2334791421890259
254962,0.7624611258506775,-0.8973901271820068,0.0,-1.2325972318649292
254972,0.7617865204811096,-0.8972970843315125,0.0,-1.2331854104995728
254982,0.762332558631897,-0.8982518911361694,0.0,-1.2330896854400635
254992,0.7612195611000061,-0.8987793922424316,0.0,-1.232946515083313
255002,0.7614636421203613,-0.8999938368797302,0.0,-1.2332720756530762
255012,0.7615203261375427,-0.9005202054977417,0.0,-1.233119249343872
255022,0.7624201774597168,-0.9010679125785828,0.0,-1.2339156866073608
255032,0.7621464133262634,-0.9002472162246704,0.0,-1.2350621223449707
255042,0.7632575035095215,-0.9022522568702698,0.0,-1.234100103378296
255052,0.7628004550933838,-0.9015523195266724,0.0,-1.2341363430023193
255062,0.7620013952255249,-0.9013358950614929,0.0,-1.2347965240478516
255072,0.7619014382362366,-0.9011425971984863,0.0,-1.2342008352279663
255082,0.7609343528747559,-0.9016785025596619,0.0,-1.2351009845733643
255092,0.7620247602462769,-0.9019383192062378,0.0,-1.234509825706482
255102,0.7612451910972595,-0.9021546840667725,0.0,-1.2362648248672485
255112,0.760982096195221,-0.9025461673736572,0.0,-1.235878586769104
255122,0.760552704334259,-0.9038146734237671,0.0,-1.2349909543991089
255132,0.75904381275177,-0.903739869594574,0.0,-1.233063817024231
255142,0.7569757103919983,-0.9048807621002197,0.0,-1.2319750785827637
255152,0.7581241726875305,-0.905596911907196,0.0,-1.2328197956085205
255162,0.758721649646759,-0.9052385091781616,0.0,-1.2329210042953491
255172,0.7587329149246216,-0.9055494070053101,0.0,-1.2324579954147339
255182,0.7576919198036194,-0.9041351675987244,0.0,-1.2345852851867676
255192,0.7589330077171326,-0.9041792750358582,0.0,-1.235632061958313
255202,0.7589413523674011,-0.9032569527626038,0.0,-1.2360655069351196
255212,0.7588724493980408,-0.9041451215744019,0.0,-1.235012412071228
255222,0.7584251761436462,-0.903317391872406,0.0,-1.2363653182983398
255232,0.7579122185707092,-0.9033010005950928,0.0,-1.2357769012451172
255242,0.7575398087501526,-0.9028677344322205,0.0,-1.2360258102416992
255252,0.7572495341300964,-0.9019103646278381,0.0,-1.236032485961914
255262,0.7574683427810669,-0.9017927646636963,0.0,-1.236158847808838
255272,0.7559657692909241,-0.9016789793968201,0.0,-1.2369887828826904
255282,0.7572863698005676,-0.899911642074585,0.0,-1.2356973886489868
255292,0.7575735449790955,-0.9008958339691162,0.0,-1.2360374927520752
255302,0.7566160559654236,-0.9004837870597839,0.0,-1.2363312244415283
255312,0.7597457766532898,-0.8998539447784424,0.0,-1.2355611324310303
255322,0.7613987922668457,-0.8991032838821411,0.0,-1.2353441715240479
255332,0.7620964646339417,-0.8980104923248291,0.0,-1.2342538833618164
255342,0.7618561387062073,-0.8979968428611755,0.0,-1.23188316822052
255352,0.7617605924606323,-0.8978499174118042,0.0,-1.2319988012313843
255362,0.7629662752151489,-0.8973326683044434,0.0,-1.2318108081817627
255372,0.7634099125862122,-0.8970962166786194,0.0,-1.233851671218872
255382,0.7638702988624573,-0.8972861170768738,0.0,-1.2341771125793457
255392,0.7640011310577393,-0.8979353308677673,0.0,-1.233917236328125
255402,0.7638237476348877,-0.8983285427093506,0.0,-1.2330195903778076
255412,0.7635170221328735,-0.8983142971992493,0.0,-1.2326583862304688
255422,0.7637094855308533,-0.8981809020042419,0.0,-1.232923150062561
255432,0.7634700536727905,-0.8999270796775818,0.0,-1.2338310480117798
255442,0.7619178891181946,-0.8999138474464417,0.0,-1.2324070930480957
255452,0.7638701796531677,-0.8987118005752563,0.0,-1.2326912879943848
255462,0.7637410163879395,-0.8966090679168701,0.0,-1.233136534690857
255472,0.7652060985565186,-0.8948008418083191,0.0,-1.2330384254455566
255482,0.7646049857139587,-0.8937157392501831,0.0,-1.233399510383606
255492,0.7642390131950378,-0.8942902088165283,0.0,-1.2331300973892212
255502,0.7641028761863708,-0.8945013284683228,0.0,-1.232825756072998
255512,0.7638984322547913,-0.8946806192398071,0.0,-1.2331706285476685
255522,0.762540340423584,-0.89396733045578,0.0,-1.2324738502502441
255532,0.7619042992591858,-0.8940770626068115,0.0,-1.2330400943756104
255542,0.7628389000892639,-0.894279956817627,0.0,-1.2339589595794678
255552,0.7634268999099731,-0.8948412537574768,0.0,-1.2343472242355347
255562,0.7638856768608093,-0.8931303024291992,0.0,-1.2343604564666748
255572,0.7651988863945007,-0.8939967751502991,0.0,-1.2342994213104248
255582,0.7634292244911194,-0.8941420316696167,0.0,-1.233433723449707
255592,0.7628232836723328,-0.8947731852531433,0.0,-1.2343391180038452
255602,0.7634127140045166,-0.8948146104812622,0.0,-1.2335426807403564
255612,0.7626539468765259,-0.894115149974823,0.0,-1.2325698137283325
255622,0.7632524967193604,-0.8944826126098633,0.0,-1.2330825328826904
255632,0.7612605094909668,-0.8948476314544678,0.0,-1.2329003810882568
255642,0.76252281665802,-0.8937888741493225,0.0,-1.232342004776001
255652,0.7633057832717896,-0.8951876163482666,0.0,-1.2322790622711182
255662,0.7616384029388428,-0.8966681957244873,0.0,-1.2308975458145142
255672,0.7620103359222412,-0.8958885669708252,0.0,-1.2311577796936035
255682,0.7615218758583069,-0.8969367146492004,0.0,-1.2309263944625854
255692,0.7608944177627563,-0.8977805972099304,0.0,-1.2313506603240967
255702,0.7620438933372498,-0.8989148139953613,0.0,-1.231029748916626
255712,0.7612185478210449,-0.899330735206604,0.0,-1.2313573360443115
255722,0.7602658271789551,-0.8997458219528198,0.0,-1.2322744131088257
255732,0.7603332996368408,-0.9000571370124817,0.0,-1.2318840026855469
255742,0.7604387402534485,-0.9008199572563171,0.0,-1.2324787378311157
255752,0.7606176733970642,-0.9006683826446533,0.0,-1.2318201065063477
255762,0.7608988285064697,-0.901077926158905,0.0,-1.2310831546783447
255772,0.7587595582008362,-0.8997751474380493,0.0,-1.2323594093322754
255782,0.7586635947227478,-0.9007932543754578,0.0,-1.2316797971725464
255792,0.7582257986068726,-0.9008733034133911,0.0,-1.2315237522125244
255802,0.7570477724075317,-0.9006629586219788,0.0,-1.2296680212020874
255812,0.7568809390068054,-0.8990687727928162,0.0,-1.2304831743240356
255822,0.7560638785362244,-0.8995847702026367,0.0,-1.2296949625015259
255832,0.7575347423553467,-0.898445725440979,0.0,-1.2308542728424072
255842,0.7585076093673706,-0.8965984582901001,0.0,-1.2310395240783691
255852,0.7569615244865417,-0.8960568904876709,0.0,-1.2316592931747437
255862,0.7564406394958496,-0.8973744511604309,0.0,-1.2313306331634521
255872,0.7550244927406311,-0.8972642421722412,0.0,-1.231644630432129
255882,0.7555791735649109,-0.8965175747871399,0.0,-1.2322696447372437
255892,0.7560749650001526,-0.8976466059684753,0.0,-1.2327609062194824
255902,0.7562860250473022,-0.8967447876930237,0.0,-1.23318350315094
255912,0.7543860077857971,-0.8961341381072998,0.0,-1.2330318689346313
255922,0.7535427212715149,-0.8966713547706604,0.0,-1.2324427366256714
255932,0.7521718144416809,-0.8951321840286255,0.0,-1.2324484586715698
255942,0.7541396021842957,-0.8958244323730469,0.0,-1.231706142425537
255952,0.7546656131744385,-0.8955581188201904,0.0,-1.2331525087356567
255962,0.755074143409729,-0.8944867849349976,0.0,-1.233898639678955
255972,0.7574475407600403,-0.8945092558860779,0.0,-1.2346409559249878
255982,0.7591034770011902,-0.8947514295578003,0.0,-1.2339345216751099
255992,0.760278582572937,-0.8948436379432678,0.0,-1.2339485883712769
256002,0.759276807308197,-0.8938618898391724,0.0,-1.2343032360076904
256012,0.7605987787246704,-0.8935645818710327,0.0,-1.233683705329895
256022,0.7591829299926758,-0.8932697772979736,0.0,-1.2329140901565552
256032,0.7608354091644287,-0.894533634185791,0.0,-1.23330557346344
256042,0.7612273693084717,-0.8946470022201538,0.0,-1.234659194946289
256052,0.7625898122787476,-0.8952234387397766,0.0,-1.2335896492004395
256062,0.7622019052505493,-0.8957177996635437,0.0,-1.23363196849823
256072,0.7623555660247803,-0.8963801264762878,0.0,-1.2338258028030396
256082,0.7621622085571289,-0.8966364860534668,0.0,-1.2334262132644653
256092,0.7607370615005493,-0.8972289562225342,0.0,-1.2345377206802368
256102,0.7599388360977173,-0.897141695022583,0.0,-1.2333983182907104
256112,0.7602955102920532,-0.8981982469558716,0.0,-1.2339732646942139
256122,0.7596108913421631,-0.8984463810920715,0.0,-1.234602689743042
256132,0.7602883577346802,-0.8965592980384827,0.0,-1.2337325811386108
256142,0.7604779601097107,-0.8964701294898987,0.0,-1.2351597547531128
256152,0.7608498334884644,-0.8952059745788574,0.0,-1.2351280450820923
256162,0.7605865597724915,-0.895993173122406,0.0,-1.2348732948303223
256172,0.7604809999465942,-0.8942438364028931,0.0,-1.2345937490463257
256182,0.7611221671104431,-0.8937849998474121,0.0,-1.2341639995574951
256192,0.7598060369491577,-0.8925606608390808,0.0,-1.2332592010498047
256202,0.7599971890449524,-0.8931716084480286,0.0,-1.2330782413482666
256212,0.7610474228858948,-0.8919334411621094,0.0,-1.2351306676864624
256222,0.7606197595596313,-0.8914564847946167,0.0,-1.2354196310043335
256232,0.7629022002220154,-0.8903056979179382,0.0,-1.234627366065979
256242,0.7623481750488281,-0.8917326927185059,0.0,-1.233893871307373
256252,0.7615740299224854,-0.8921117782592773,0.0,-1.2335472106933594
256262,0.7606104016304016,-0.8924705982208252,0.0,-1.2338602542877197
256272,0.7614086270332336,-0.8927613496780396,0.0,-1.2330330610275269
256282,0.7611292600631714,-0.8919068574905396,0.0,-1.2325621843338013
256292,0.7619653344154358,-0.8928845524787903,0.0,-1.2342256307601929
256302,0.7626875638961792,-0.8925015330314636,0.0,-1.2332903146743774
256312,0.7613384127616882,-0.8928730487823486,0.0,-1.2323826551437378
256322,0.7600575089454651,-0.8921987414360046,0.0,-1.2331231832504272
256332,0.7593304514884949,-0.8934400677680969,0.0,-1.2328364849090576
256342,0.7587674856185913,-0.8930178880691528,0.0,-1.2334740161895752
256352,0.7589389681816101,-0.8933833241462708,0.0,-1.2346895933151245
256362,0.758151650428772,-0.8932719230651855,0.0,-1.234412431716919
256372,0.7568095922470093,-0.8946700096130371,0.0,-1.2361207008361816
256382,0.7565325498580933,-0.8945463299751282,0.0,-1.2358380556106567
256392,0.7565790414810181,-0.8947661519050598,0.0,-1.2352352142333984
256402,0.756461501121521,-0.8959972262382507,0.0,-1.2345423698425293
256412,0.7554843425750732,-0.8958554863929749,0.0,-1.2354518175125122
256422,0.7550585865974426,-0.8966437578201294,0.0,-1.235338807106018
256432,0.7551479935646057,-0.8966524004936218,0.0,-1.2361299991607666
256442,0.7544914484024048,-0.8971590399742126,0.0,-1.2336736917495728
256452,0.7547280788421631,-0.8958612680435181,0.0,-1.2326217889785767
256462,0.7556297779083252,-0.8960480093955994,0.0,-1.231022596359253
256472,0.756413459777832,-0.8950906991958618,0.0,-1.232075572013855
256482,0.7561602592468262,-0.8946750164031982,0.0,-1.2313838005065918
256492,0.7557719945907593,-0.8924207091331482,0.0,-1.2315340042114258
256502,0.7569231390953064,-0.8901287317276001,0.0,-1.2312730550765991
256512,0.7592239379882812,-0.8898190855979919,0.0,-1.2327951192855835
256522,0.7571981549263,-0.8911435008049011,0.0,-1.2317299842834473
256532,0.7571709156036377,-0.8915137648582458,0.0,-1.2314717769622803
256542,0.7563639879226685,-0.891696572303772,0.0,-1.2317533493041992
256552,0.7567320466041565,-0.8911951184272766,0.0,-1.2322485446929932
256562,0.7569897770881653,-0.8912405371665955,0.0,-1.2343600988388062
256572,0.7587555050849915,-0.8907181024551392,0.0,-1.2353923320770264
256582,0.7586543560028076,-0.8911045789718628,0.0,-1.235507607460022
256592,0.7582691311836243,-0.8923254609107971,0.0,-1.2358956336975098
256602,0.7589918971061707,-0.8918945789337158,0.0,-1.2354272603988647
256612,0.75911945104599,-0.8915762901306152,0.0,-1.2369110584259033
256622,0.7598367929458618,-0.8905832767486572,0.0,-1.2362984418869019
256632,0.7616593241691589,-0.891217827796936,0.0,-1.2356462478637695
256642,0.7604289054870605,-0.8920479416847229,0.0,-1.2364654541015625
256652,0.762119710445404,-0.8918235898017883,0.0,-1.2371726036071777
256662,0.7630444765090942,-0.890914797782898,0.0,-1.2375984191894531
256672,0.7634971737861633,-0.8897745609283447,0.0,-1.236067771911621
256682,0.763374388217926,-0.8898940682411194,0.0,-1.2376357316970825
256692,0.7653162479400635,-0.8899556398391724,0.0,-1.2380387783050537
256702,0.7652155756950378,-0.8898293375968933,0.0,-1.2401999235153198
256712,0.7652312517166138,-0.8891885876655579,0.0,-1.2409443855285645
256722,0.7653699517250061,-0.8891347050666809,0.0,-1.2410094738006592
256732,0.7647518515586853,-0.8902140259742737,0.0,-1.240035057067871
256742,0.7639675140380859,-0.8891995549201965,0.0,-1.240314245223999
256752,0.762220025062561,-0.8887907862663269,0.0,-1.2404242753982544
256762,0.7613889575004578,-0.8883661031723022,0.0,-1.2417559623718262
256772,0.7603432536125183,-0.8895180225372314,0.0,-1.241332769393921
256782,0.7608600854873657,-0.8899218440055847,0.0,-1.2427234649658203
256792,0.7618728280067444,-0.8894994854927063,0.0,-1.243192434310913
256802,0.7613295912742615,-0.890303373336792,0.0,-1.2425992488861084
256812,0.7634081244468689,-0.8902326226234436,0.0,-1.2433723211288452
256822,0.7636404633522034,-0.8898029923439026,0.0,-1.2435599565505981
256832,0.76419997215271,-0.8888658285140991,0.0,-1.2455955743789673
256842,0.7632957696914673,-0.8879275918006897,0.0,-1.2450028657913208
256852,0.7639917731285095,-0.8894529938697815,0.0,-1.2456260919570923
256862,0.7641897201538086,-0.8895975351333618,0.0,-1.2446632385253906
256872,0.7641834020614624,-0.8902958035469055,0.0,-1.2437999248504639
256882,0.7649039626121521,-0.8912209868431091,0.0,-1.2443944215774536
256892,0.7655876278877258,-0.8912308216094971,0.0,-1.2441425323486328
256902,0.76524418592453,-0.8914615511894226,0.0,-1.2435344457626343
256912,0.7650318145751953,-0.891341507434845,0.0,-1.2439576387405396
256922,0.7648460865020752,-0.8896413445472717,0.0,-1.2455517053604126
256932,0.7639385461807251,-0.8906527757644653,0.0,-1.2445135116577148
256942,0.7635223865509033,-0.8910866379737854,0.0,-1.244923710823059
256952,0.7628883123397827,-0.8912526369094849,0.0,-1.2439366579055786
256962,0.7626104354858398,-0.8917731642723083,0.0,-1.2435450553894043
256972,0.7627586126327515,-0.8910359740257263,0.0,-1.2418465614318848
256982,0.7631853818893433,-0.8899829387664795,0.0,-1.2431983947753906
256992,0.7635767459869385,-0.889785647392273,0.0,-1.2419990301132202
257002,0.7629948854446411,-0.8888686299324036,0.0,-1.2414144277572632
257012,0.7622233033180237,-0.8873459696769714,0.0,-1.242136836051941
257022,0.7606990337371826,-0.8871634602546692,0.0,-1.2413345575332642
257032,0.7610238194465637,-0.8855571746826172,0.0,-1.2406234741210938
257042,0.761356770992279,-0.8865519165992737,0.0,-1.2406095266342163
257052,0.7605938911437988,-0.8871332406997681,0.0,-1.240591049194336
257062,0.7594733834266663,-0.8857553601264954,0.0,-1.241202473640442
257072,0.7589693665504456,-0.8860682845115662,0.0,-1.2416199445724487
257082,0.7587208151817322,-0.8875660300254822,0.0,-1.2406203746795654
257092,0.7580811381340027,-0.8890424370765686,0.0,-1.2407060861587524
257102,0.7581835389137268,-0.8893626928329468,0.0,-1.2402775287628174
257112,0.7583103775978088,-0.8891022205352783,0.0,-1.2413358688354492
257122,0.7610667943954468,-0.8897307515144348,0.0,-1.241358995437622
257132,0.7618845701217651,-0.8885469436645508,0.0,-1.240327000617981
257142,0.7603683471679688,-0.8886501789093018,0.0,-1.2408651113510132
257152,0.7594083547592163,-0.8885235786437988,0.0,-1.2416259050369263
257162,0.7620799541473389,-0.8876256346702576,0.0,-1.2437330484390259
257172,0.7618503570556641,-0.8867807984352112,0.0,-1.244181513786316
257182,0.7602143287658691,-0.8859302401542664,0.0,-1.2428969144821167
257192,0.7596866488456726,-0.8860114812850952,0.0,-1.2442787885665894
257202,0.7593987584114075,-0.8864330053329468,0.0,-1.243767261505127
257212,0.759300172328949,-0.8873104453086853,0.0,-1.2444795370101929
257222,0.7594830393791199,-0.8876568078994751,0.0,-1.2429189682006836
257232,0.7588496804237366,-0.887794017791748,0.0,-1.2427952289581299
257242,0.7608019113540649,-0.8870490193367004,0.0,-1.2433114051818848
257252,0.7604447603225708,-0.8872234225273132,0.0,-1.2429966926574707
257262,0.7616269588470459,-0.8869380354881287,0.0,-1.2447261810302734
257272,0.762309730052948,-0.8867779970169067,0.0,-1.2443238496780396
257282,0.7611058950424194,-0.8878267407417297,0.0,-1.2447946071624756
257292,0.7631090879440308,-0.8873368501663208,0.0,-1.2461707592010498
257302,0.7628200054168701,-0.8888157606124878,0.0,-1.2483088970184326
257312,0.7628757953643799,-0.8888855576515198,0.0,-1.2492101192474365
257322,0.7626904845237732,-0.8872324228286743,0.0,-1.2509657144546509
257332,0.7657890915870667,-0.8863019347190857,0.0,-1.2507237195968628
257342,0.7658082246780396,-0.8857730627059937,0.0,-1.2532927989959717
257352,0.7669677734375,-0.8857046961784363,0.0,-1.2522653341293335
257362,0.7669298052787781,-0.8862562775611877,0.0,-1.2540631294250488
257372,0.7670170068740845,-0.8859893679618835,0.0,-1.2550559043884277
257382,0.766873300075531,-0.8856155276298523,0.0,-1.2544246912002563
257392,0.7669711112976074,-0.8854259848594666,0.0,-1.2548789978027344
257402,0.7665936350822449,-0.8841190338134766,0.0,-1.254202127456665
257412,0.7670116424560547,-0.8845874071121216,0.0,-1.2539573907852173
257422,0.7673637866973877,-0.8850297927856445,0.0,-1.2553577423095703
257432,0.7677735090255737,-0.884166955947876,0.0,-1.2544615268707275
257442,0.7662556767463684,-0.8841412663459778,0.0,-1.2531577348709106
257452,0.7671996355056763,-0.8847421407699585,0.0,-1.253340482711792
257462,0.7653822302818298,-0.8864045739173889,0.0,-1.2539323568344116
257472,0.7660827040672302,-0.8860289454460144,0.0,-1.2538493871688843
257482,0.7667058706283569,-0.8865390419960022,0.0,-1.2533977031707764
257492,0.7661504149436951,-0.8852182030677795,0.0,-1.2538948059082031
257502,0.7669736742973328,-0.8866609334945679,0.0,-1.252946376800537
257512,0.7674971222877502,-0.8873841762542725,0.0,-1.2530064582824707
257522,0.7675860524177551,-0.8872211575508118,0.0,-1.2528489828109741
257532,0.7658409476280212,-0.8868650794029236,0.0,-1.2530957460403442
257542,0.7665930986404419,-0.886180579662323,0.0,-1.2535814046859741
257552,0.7665625810623169,-0.8885518908500671,0.0,-1.2551125288009644
257562,0.7674239277839661,-0.8889102339744568,0.0,-1.255985140800476
257572,0.7661464214324951,-0.8886215686798096,0.0,-1.2547054290771484
257582,0.7671332955360413,-0.8876473307609558,0.0,-1.2548927068710327
257592,0.7687006592750549,-0.8887068629264832,0.0,-1.2552480697631836
257602,0.7682645916938782,-0.8880922198295593,0.0,-1.2562922239303589
257612,0.7677537798881531,-0.8877491354942322,0.0,-1.2567901611328125
257622,0.7672123312950134,-0.8876320123672485,0.0,-1.2561227083206177
257632,0.7663965225219727,-0.8885056376457214,0.0,-1.2554175853729248
257642,0.7655443549156189,-0.8880968689918518,0.0,-1.254631519317627
257652,0.7663556933403015,-0.888586163520813,0.0,-1.2544670104980469
257662,0.7673513293266296,-0.8877424001693726,0.0,-1.2546836137771606
257672,0.7675102353096008,-0.8883238434791565,0.0,-1.254491925239563
257682,0.7666381001472473,-0.8886221051216125,0.0,-1.2543689012527466
257692,0.7672639489173889,-0.8903530836105347,0.0,-1.2543857097625732
257702,0.7679782509803772,-0.8897923827171326,0.0,-1.2553983926773071
257712,0.7679579854011536,-0.8891090154647827,0.0,-1.2570644617080688
257722,0.7682381272315979,-0.8886021971702576,0.0,-1.2565022706985474
257732,0.7695457339286804,-0.8878042697906494,0.0,-1.2590670585632324
257742,0.7698549032211304,-0.8878970742225647,0.0,-1.258507490158081
257752,0.7691748142242432,-0.8859946131706238,0.0,-1.2596811056137085
257762,0.7692257761955261,-0.8871640563011169,0.0,-1.25954008102417
257772,0.7699303030967712,-0.8872092366218567,0.0,-1.2580589056015015
257782,0.7714664936065674,-0.887645959854126,0.0,-1.2592054605484009
257792,0.7722233533859253,-0.8873177170753479,0.0,-1.2592859268188477
257802,0.7717300057411194,-0.8879084587097168,0.0,-1.2587623596191406
257812,0.7716155648231506,-0.8879052400588989,0.0,-1.2588579654693604
257822,0.7718062996864319,-0.8881270289421082,0.0,-1.2598038911819458
257832,0.7733669877052307,-0.8909416198730469,0.0,-1.2611980438232422
257842,0.7733131051063538,-0.8925316333770752,0.0,-1.2615028619766235
257852,0.7717675566673279,-0.8918678760528564,0.0,-1.2622464895248413
257862,0.7731437087059021,-0.8924476504325867,0.0,-1.2620714902877808
257872,0.7726688981056213,-0.8922162055969238,0.0,-1.262416958808899
257882,0.7741024494171143,-0.8927797675132751,0.0,-1.2624850273132324
257892,0.7734375596046448,-0.8936683535575867,0.0,-1.2625834941864014
257902,0.7737450003623962,-0.8940876722335815,0.0,-1.2635056972503662
257912,0.7744194865226746,-0.8924989104270935,0.0,-1.2634432315826416
257922,0.775449275970459,-0.8923662900924683,0.0,-1.2642096281051636
257932,0.7745634913444519,-0.892425537109375,0.0,-1.2641068696975708
257942,0.7739709615707397,-0.892930269241333,0.0,-1.264413833618164
257952,0.7751426100730896,-0.8945524096488953,0.0,-1.264987826347351
257962,0.7743251919746399,-0.8966624140739441,0.0,-1.264880895614624
257972,0.7730414867401123,-0.8964431285858154,0.0,-1.2652615308761597
257982,0.7712323665618896,-0.8965973854064941,0.0,-1.2636332511901855
257992,0.7719545364379883,-0.8970179557800293,0.0,-1.2635326385498047
258002,0.7713450193405151,-0.8973885774612427,0.0,-1.265650749206543
258012,0.7707470059394836,-0.89686518907547,0.0,-1.2655291557312012
258022,0.7710098624229431,-0.8978875279426575,0.0,-1.2663532495498657
258032,0.7723519206047058,-0.899170458316803,0.0,-1.2658038139343262
258042,0.7734197378158569,-0.898801863193512,0.0,-1.2656413316726685
258052,0.7744000554084778,-0.8973145484924316,0.0,-1.2666871547698975
258062,0.7755885124206543,-0.8974044322967529,0.0,-1.2660051584243774
258072,0.7747853994369507,-0.8958168029785156,0.0,-1.265672206878662
258082,0.7758864164352417,-0.8943845629692078,0.0,-1.265611171722412
258092,0.7749826312065125,-0.8931493759155273,0.0,-1.2636351585388184
258102,0.7728174924850464,-0.8937234878540039,0.0,-1.2624588012695312
258112,0.7725598812103271,-0.893513560295105,0.0,-1.2625781297683716
258122,0.7728841304779053,-0.8950510621070862,0.0,-1.2644258737564087
258132,0.772433876991272,-0.8949805498123169,0.0,-1.264094591140747
258142,0.772219717502594,-0.8947442770004272,0.0,-1.2655861377716064
258152,0.7725871801376343,-0.8952964544296265,0.0,-1.2649341821670532
258162,0.7728240489959717,-0.8968167304992676,0.0,-1.2644001245498657
258172,0.7733333706855774,-0.8971931338310242,0.0,-1.2643638849258423
258182,0.7744104862213135,-0.89717036485672,0.0,-1.2642756700515747
258192,0.7742852568626404,-0.8971276879310608,0.0,-1.263655424118042
258202,0.7742916345596313,-0.8965882062911987,0.0,-1.2643303871154785
258212,0.772863507270813,-0.8975945711135864,0.0,-1.2671504020690918
258222,0.771731972694397,-0.8976953625679016,0.0,-1.2656445503234863
258232,0.7727785110473633,-0.8971583843231201,0.0,-1.2673746347427368
258242,0.7734207510948181,-0.8965967893600464,0.0,-1.2686055898666382
258252,0.7726044654846191,-0.8949414491653442,0.0,-1.2682768106460571
258262,0.7712317109107971,-0.8967306017875671,0.0,-1.2680660486221313
258272,0.7711145877838135,-0.8969343304634094,0.0,-1.267471432685852
258282,0.7699036002159119,-0.8961954712867737,0.0,-1.267375111579895
258292,0.7692325711250305,-0.8975160717964172,0.0,-1.2663012742996216
258302,0.770122766494751,-0.8968921303749084,0.0,-1.266524314880371
258312,0.771369457244873,-0.8964099884033203,0.0,-1.2670572996139526
258322,0.7711009383201599,-0.8952733874320984,0.0,-1.2671167850494385
258332,0.7731560468673706,-0.8974476456642151,0.0,-1.2667953968048096
258342,0.7733258605003357,-0.8970949053764343,0.0,-1.2674347162246704
258352,0.7736098766326904,-0.8961697220802307,0.0,-1.2668684720993042
258362,0.7748562693595886,-0.8945122957229614,0.0,-1.2687628269195557
258372,0.7760627865791321,-0.8936325311660767,0.0,-1.267396092414856
258382,0.7776384353637695,-0.8930785655975342,0.0,-1.2676279544830322
258392,0.7784069776535034,-0.8928679823875427,0.0,-1.2672314643859863
258402,0.7767525315284729,-0.8934926986694336,0.0,-1.2671897411346436
258412,0.7761082053184509,-0.8929809331893921,0.0,-1.266513466835022
258422,0.7758057117462158,-0.8930782675743103,0.0,-1.2669228315353394
258432,0.7759222984313965,-0.8925982117652893,0.0,-1.266608715057373
258442,0.7752903699874878,-0.8918026089668274,0.0,-1.2661408185958862
258452,0.7757567763328552,-0.8918985724449158,0.0,-1.2660382986068726
258462,0.7750309705734253,-0.8930324912071228,0.0,-1.2653801441192627
258472,0.7744268774986267,-0.8925397396087646,0.0,-1.2653660774230957
258482,0.7749937176704407,-0.8926652669906616,0.0,-1.2664066553115845
258492,0.7743174433708191,-0.8936522603034973,0.0,-1.266489028930664
258502,0.7737510800361633,-0.8949228525161743,0.0,-1.2667946815490723
258512,0.7739723324775696,-0.894282341003418,0.0,-1.2663252353668213
258522,0.7738617062568665,-0.895677924156189,0.0,-1.2652168273925781
258532,0.7739977836608887,-0.8948447108268738,0.0,-1.2668447494506836
258542,0.7748580574989319,-0.8951563835144043,0.0,-1.2677195072174072
258552,0.7744026780128479,-0.8948166370391846,0.0,-1.2684231996536255
258562,0.7741960883140564,-0.8947904109954834,0.0,-1.2674590349197388
258572,0.7734845876693726,-0.8927077651023865,0.0,-1.2671314477920532
258582,0.7727570533752441,-0.8922145962715149,0.0,-1.2673907279968262
258592,0.772196352481842,-0.8912966251373291,0.0,-1.2664021253585815
258602,0.7721811532974243,-0.8920437693595886,0.0,-1.2681924104690552
258612,0.7721349000930786,-0.8930180668830872,0.0,-1.2688289880752563
258622,0.7715367674827576,-0.8928936719894409,0.0,-1.2695043087005615
258632,0.7697855830192566,-0.8921610116958618,0.0,-1.27013099193573
258642,0.7705067992210388,-0.8913888931274414,0.0,-1.2705199718475342
258652,0.769618570804596,-0.8917301297187805,0.0,-1.2697242498397827
258662,0.7684516310691833,-0.8916732668876648,0.0,-1.2688329219818115
258672,0.7682750821113586,-0.8910255432128906,0.0,-1.2689818143844604
258682,0.7688792943954468,-0.8906150460243225,0.0,-1.268584132194519
258692,0.7683420181274414,-0.8896462917327881,0.0,-1.2685247659683228
258702,0.7687011957168579,-0.8901475667953491,0.0,-1.2684940099716187
258712,0.7688276767730713,-0.8905064463615417,0.0,-1.2704824209213257
258722,0.7693855166435242,-0.8883021473884583,0.0,-1.2699189186096191
258732,0.7699455618858337,-0.8866766691207886,0.0,-1.2710325717926025
258742,0.7717040181159973,-0.8883786797523499,0.0,-1.270735740661621
258752,0.7736808061599731,-0.8872517347335815,0.0,-1.27205491065979
258762,0.7737247943878174,-0.8883836269378662,0.0,-1.2707747220993042
258772,0.7728862762451172,-0.8882091641426086,0.0,-1.269148349761963
258782,0.7710331082344055,-0.8875951170921326,0.0,-1.2685455083847046
258792,0.771324872970581,-0.8872151970863342,0.0,-1.2680308818817139
258802,0.7707850337028503,-0.8888325095176697,0.0,-1.2682483196258545
258812,0.7708412408828735,-0.8891643285751343,0.0,-1.2690703868865967
258822,0.7695602178573608,-0.8906394839286804,0.0,-1.2703008651733398
258832,0.769290566444397,-0.8910999894142151,0.0,-1.270622968673706
258842,0.7691087126731873,-0.8929278254508972,0.0,-1.2702938318252563
258852,0.7690625786781311,-0.8932889699935913,0.0,-1.2713574171066284
258862,0.7688231468200684,-0.8933371901512146,0.0,-1.2708948850631714
258872,0.7678735256195068,-0.8935272693634033,0.0,-1.271896243095398
258882,0.7677566409111023,-0.8950009346008301,0.0,-1.2705525159835815
258892,0.7665583491325378,-0.8939589858055115,0.0,-1.270888328552246
258902,0.7672721147537231,-0.8938719630241394,0.0,-1.2728005647659302
258912,0.765781819820404,-0.8943943977355957,0.0,-1.2734289169311523
258922,0.7649489641189575,-0.8948782086372375,0.0,-1.2726496458053589
258932,0.764662504196167,-0.8944008946418762,0.0,-1.2725274562835693
258942,0.7656287550926208,-0.8944482207298279,0.0,-1.2715901136398315
258952,0.7666299939155579,-0.8949757218360901,0.0,-1.272498607635498
258962,0.7662711143493652,-0.8944012522697449,0.0,-1.2716411352157593
258972,0.7666531801223755,-0.8939806818962097,0.0,-1.273066520690918
258982,0.7693169713020325,-0.8919698596000671,0.0,-1.2752619981765747
258992,0.7693870663642883,-0.8930853605270386,0.0,-1.2752180099487305
259002,0.7690091729164124,-0.892918050289154,0.0,-1.275178074836731
259012,0.7692257761955261,-0.8927955627441406,0.0,-1.275525450706482
259022,0.7681246995925903,-0.8929610848426819,0.0,-1.27571702003479
259032,0.7684973478317261,-0.8935086727142334,0.0,-1.2746011018753052
259042,0.770655632019043,-0.892451822757721,0.0,-1.2747254371643066
259052,0.7688175439834595,-0.8926623463630676,0.0,-1.2757374048233032
259062,0.7701802849769592,-0.8938789963722229,0.0,-1.2756000757217407
259072,0.7704590559005737,-0.8927960395812988,0.0,-1.2754018306732178
259082,0.7711248397827148,-0.8936911225318909,0.0,-1.2754802703857422
259092,0.7717494368553162,-0.8939557671546936,0.0,-1.276662826538086
259102,0.7719794511795044,-0.8931674957275391,0.0,-1.2765260934829712
259112,0.7721650004386902,-0.8944962620735168,0.0,-1.2753573656082153
259122,0.7718948125839233,-0.8956497311592102,0.0,-1.2755106687545776
259132,0.7725244164466858,-0.8949355483055115,0.0,-1.2770328521728516
259142,0.7734651565551758,-0.8951455950737,0.0,-1.2776668071746826
259152,0.7719122767448425,-0.8962418437004089,0.0,-1.278223991394043
259162,0.7713334560394287,-0.8979738354682922,0.0,-1.2783609628677368
259172,0.7721861600875854,-0.8967685103416443,0.0,-1.2772294282913208
259182,0.771780252456665,-0.896561324596405,0.0,-1.2763173580169678
259192,0.7733340263366699,-0.8963092565536499,0.0,-1.277239441871643
259202,0.7727975845336914,-0.8970736265182495,0.0,-1.2765675783157349
259212,0.7732958793640137,-0.897362232208252,0.0,-1.2776055335998535
259222,0.7708486914634705,-0.8970920443534851,0.0,-1.277506709098816
259232,0.7704949975013733,-0.8983352780342102,0.0,-1.2784183025360107
259242,0.7687929272651672,-0.8981790542602539,0.0,-1.2786767482757568
259252,0.767730176448822,-0.8981441855430603,0.0,-1.2785661220550537
259262,0.7677757740020752,-0.8985061049461365,0.0,-1.278993844985962
259272,0.7682865262031555,-0.8984726667404175,0.0,-1.278861403465271
259282,0.7666217684745789,-0.8999122977256775,0.0,-1.2786043882369995
259292,0.7670236825942993,-0.8988182544708252,0.0,-1.27802574634552
259302,0.7655821442604065,-0.8985581994056702,0.0,-1.278157353401184
259312,0.7654182314872742,-0.8987352252006531,0.0,-1.277443289756775
259322,0.7646583914756775,-0.8995897173881531,0.0,-1.2781176567077637
259332,0.7662890553474426,-0.8991826176643372,0.0,-1.2803406715393066
259342,0.7666129469871521,-0.8993057608604431,0.0,-1.2798302173614502
259352,0.766146719455719,-0.8987252116203308,0.0,-1.2796727418899536
259362,0.7657279372215271,-0.8978790640830994,0.0,-1.2800720930099487
259372,0.7659486532211304,-0.8970497846603394,0.0,-1.2789493799209595
259382,0.7664734721183777,-0.8966188430786133,0.0,-1.279143214225769
259392,0.7662695050239563,-0.8953535556793213,0.0,-1.2801740169525146
259402,0.7664069533348083,-0.895836353302002,0.0,-1.2808574438095093
259412,0.7667744755744934,-0.8963391184806824,0.0,-1.282125473022461
259422,0.7662075757980347,-0.8972558975219727,0.0,-1.2811492681503296
259432,0.7678387761116028,-0.8964344263076782,0.0,-1.2811212539672852
259442,0.7676221132278442,-0.8955507278442383,0.0,-1.2809734344482422
259452,0.7665736079216003,-0.8953444361686707,0.0,-1.280654788017273
259462,0.7660848498344421,-0.8956321477890015,0.0,-1.280605673789978
259472,0.7673508524894714,-0.8960365056991577,0.0,-1.2807025909423828
259482,0.7661582231521606,-0.8945514559745789,0.0,-1.2795714139938354
259492,0.7656776309013367,-0.8955920338630676,0.0,-1.278385877609253
259502,0.765239953994751,-0.8965602517127991,0.0,-1.2782233953475952
259512,0.7636639475822449,-0.8973240256309509,0.0,-1.279274344444275
259522,0.7641140222549438,-0.8968259692192078,0.0,-1.2783684730529785
259532,0.7645212411880493,-0.8966667652130127,0.0,-1.2780427932739258
259542,0.7644660472869873,-0.8959691524505615,0.0,-1.2767595052719116
259552,0.7640756964683533,-0.8966301083564758,0.0,-1.275245189666748
259562,0.7653815150260925,-0.8960574865341187,0.0,-1.2767466306686401
259572,0.7649440765380859,-0.8976160883903503,0.0,-1.2768149375915527
259582,0.7660769820213318,-0.8985612988471985,0.0,-1.2755491733551025
259592,0.7670319676399231,-0.8991915583610535,0.0,-1.2765306234359741
259602,0.7670791745185852,-0.8988864421844482,0.0,-1.2765699625015259
259612,0.7685658931732178,-0.8995426297187805,0.0,-1.2763473987579346
259622,0.7697113752365112,-0.8985405564308167,0.0,-1.2755160331726074
259632,0.7702667713165283,-0.899517297744751,0.0,-1.276577353477478
259642,0.7715733647346497,-0.9010606408119202,0.0,-1.2771408557891846
259652,0.7724984884262085,-0.8996555209159851,0.0,-1.2774144411087036
259662,0.7716915011405945,-0.8990706205368042,0.0,-1.2774327993392944
259672,0.7713525891304016,-0.8989482522010803,0.0,-1.277478814125061
259682,0.7718989253044128,-0.898547887802124,0.0,-1.277029037475586
259692,0.7715619802474976,-0.8987960815429688,0.0,-1.2772256135940552
259702,0.7722184062004089,-0.8987690210342407,0.0,-1.2781378030776978
259712,0.773054838180542,-0.8986841440200806,0.0,-1.2784827947616577
259722,0.7729941010475159,-0.8997520804405212,0.0,-1.2777490615844727
259732,0.7732455134391785,-0.9004274606704712,0.0,-1.277841329574585
259742,0.7746091485023499,-0.8996320962905884,0.0,-1.2789198160171509
259752,0.7747239470481873,-0.9007161259651184,0.0,-1.2774810791015625
259762,0.7756795287132263,-0.9017924070358276,0.0,-1.278540849685669
259772,0.7732565402984619,-0.9019062519073486,0.0,-1.2787331342697144
259782,0.7723074555397034,-0.9006404876708984,0.0,-1.2775310277938843
259792,0.7709892988204956,-0.8989198207855225,0.0,-1.278008222579956
259802,0.7713388800621033,-0.8981257677078247,0.0,-1.2790248394012451
259812,0.7707682847976685,-0.8979582190513611,0.0,-1.2787021398544312
259822,0.7708951234817505,-0.897007405757904,0.0,-1.277552604675293
259832,0.7720167636871338,-0.8972209095954895,0.0,-1.2770779132843018
259842,0.7738359570503235,-0.8972805738449097,0.0,-1.2791205644607544
259852,0.7744818925857544,-0.8964073657989502,0.0,-1.2784103155136108
259862,0.7744622826576233,-0.8963751196861267,0.0,-1.2773939371109009
259872,0.7721672654151917,-0.8972511291503906,0.0,-1.278594970703125
259882,0.7724401354789734,-0.8970550298690796,0.0,-1.2779090404510498
259892,0.7712397575378418,-0.8985499143600464,0.0,-1.2769447565078735
259902,0.7710150480270386,-0.898460865020752,0.0,-1.2772190570831299
259912,0.7717314958572388,-0.8993385434150696,0.0,-1.2767462730407715
259922,0.7711541652679443,-0.8974665403366089,0.0,-1.2772835493087769
259932,0.7704556584358215,-0.8983193635940552,0.0,-1.277424931526184
259942,0.7707915902137756,-0.8991308808326721,0.0,-1.2762507200241089
259952,0.7707347869873047,-0.8974148631095886,0.0,-1.2760822772979736
259962,0.7715731859207153,-0.8967257738113403,0.0,-1.2769122123718262
259972,0.7729257941246033,-0.8967832326889038,0.0,-1.277072787284851
259982,0.7724290490150452,-0.8965826630592346,0.0,-1.2762213945388794
259992,0.77250075340271,-0.898023784160614,0.0,-1.277103066444397
260002,0.7712562680244446,-0.8988885283470154,0.0,-1.2773418426513672
260012,0.7724899649620056,-0.898455023765564,0.0,-1.2782139778137207
260022,0.7730529308319092,-0.8981716632843018,0.0,-1.277131199836731
260032,0.771368145942688,-0.8973961472511292,0.0,-1.2774404287338257
260042,0.7710910439491272,-0.8969112634658813,0.0,-1.2778993844985962
260052,0.772625207901001,-0.8963453769683838,0.0,-1.2784738540649414
260062,0.7719099521636963,-0.8972318172454834,0.0,-1.277677059173584
260072,0.7721139192581177,-0.8966737389564514,0.0,-1.2782329320907593
260082,0.7718806266784668,-0.8988975882530212,0.0,-1.2778984308242798
260092,0.7725279331207275,-0.8973298072814941,0.0,-1.2786848545074463
260102,0.7730691432952881,-0.8956124782562256,0.0,-1.279511570930481
260112,0.7722523808479309,-0.8951348066329956,0.0,-1.2806096076965332
260122,0.7719480395317078,-0.8948453664779663,0.0,-1.2795807123184204
260132,0.7699811458587646,-0.8937726020812988,0.0,-1.2800167798995972
260142,0.7693940997123718,-0.8952024579048157,0.0,-1.282065749168396
260152,0.7687562108039856,-0.8947439193725586,0.0,-1.2804992198944092
260162,0.7688501477241516,-0.8956514000892639,0.0,-1.2804241180419922
260172,0.7694987058639526,-0.8970542550086975,0.0,-1.281039834022522
260182,0.7707043290138245,-0.8967423439025879,0.0,-1.2820160388946533
260192,0.7704099416732788,-0.8965243101119995,0.0,-1.2824684381484985
260202,0.7725807428359985,-0.8972328305244446,0.0,-1.2817621231079102
260212,0.7722818851470947,-0.8966456651687622,0.0,-1.2810430526733398
260222,0.7736980319023132,-0.8969451189041138,0.0,-1.2813323736190796
260232,0.7731061577796936,-0.8979252576828003,0.0,-1.282586693763733
260242,0.7738749980926514,-0.8986132144927979,0.0,-1.2823243141174316
260252,0.7741122841835022,-0.8982258439064026,0.0,-1.283136010169983
260262,0.7729082703590393,-0.8985449075698853,0.0,-1.283844232559204
260272,0.7721491456031799,-0.8984116911888123,0.0,-1.2833855152130127
260282,0.7713943123817444,-0.8998045325279236,0.0,-1.2840688228607178
260292,0.7721536755561829,-0.9013899564743042,0.0,-1.284598469734192
260302,0.7703867554664612,-0.9033069610595703,0.0,-1.2841365337371826
260312,0.7702462673187256,-0.9043353796005249,0.0,-1.2843413352966309
260322,0.7694180607795715,-0.9040005803108215,0.0,-1.2834054231643677
260332,0.7685950994491577,-0.9045689702033997,0.0,-1.2849364280700684
260342,0.7690728902816772,-0.9041533470153809,0.0,-1.2860478162765503
260352,0.7675781846046448,-0.9036692976951599,0.0,-1.28739595413208
260362,0.7678857445716858,-0.9056450128555298,0.0,-1.2865816354751587
260372,0.7674915790557861,-0.905567467212677,0.0,-1.2865129709243774
260382,0.7664341926574707,-0.9041362404823303,0.0,-1.2858386039733887
260392,0.7664819955825806,-0.9049003720283508,0.0,-1.2856945991516113
260402,0.7679750919342041,-0.9052414298057556,0.0,-1.2874243259429932
260412,0.768475353717804,-0.9065786004066467,0.0,-1.2874703407287598
260422,0.7668958306312561,-0.9062696695327759,0.0,-1.2874516248703003
260432,0.7680761814117432,-0.9056541323661804,0.0,-1.2877146005630493
260442,0.7669016122817993,-0.906608521938324,0.0,-1.288669466972351
260452,0.7674750089645386,-0.9057726860046387,0.0,-1.289324164390564
260462,0.768396258354187,-0.9061328172683716,0.0,-1.2908761501312256
260472,0.7692751288414001,-0.9064052104949951,0.0,-1.2907832860946655
260482,0.767846941947937,-0.9051783680915833,0.0,-1.2903478145599365
260492,0.7684721350669861,-0.9057917594909668,0.0,-1.2897632122039795
260502,0.769399106502533,-0.9066587090492249,0.0,-1.2897452116012573
260512,0.7696479558944702,-0.9076467156410217,0.0,-1.289815902709961
260522,0.7713869214057922,-0.909243106842041,0.0,-1.291307806968689
260532,0.7712947130203247,-0.9085879325866699,0.0,-1.2908602952957153
260542,0.772361695766449,-0.9096353054046631,0.0,-1.289709210395813
260552,0.770637571811676,-0.9095091223716736,0.0,-1.2905808687210083
260562,0.7696030735969543,-0.909189760684967,0.0,-1.2906028032302856
260572,0.7705942988395691,-0.9093545079231262,0.0,-1.2919713258743286
260582,0.7716980576515198,-0.9096889495849609,0.0,-1.2924892902374268
260592,0.7718445062637329,-0.9096390008926392,0.0,-1.2920089960098267
260602,0.7709511518478394,-0.9098398089408875,0.0,-1.2922227382659912
260612,0.7711296081542969,-0.9096119403839111,0.0,-1.2917819023132324
260622,0.7733002305030823,-0.9086501598358154,0.0,-1.292881965637207
260632,0.7740735411643982,-0.9095723032951355,0.0,-1.29099440574646
260642,0.7746885418891907,-0.9094220399856567,0.0,-1.2916306257247925
260652,0.7735006809234619,-0.90877366065979,0.0,-1.2915384769439697
260662,0.7732760310173035,-0.9096195101737976,0.0,-1.2903579473495483
260672,0.7730730175971985,-0.9091597199440002,0.0,-1.2917733192443848
260682,0.7741867303848267,-0.9101887345314026,0.0,-1.2909417152404785
260692,0.7726765275001526,-0.9101846814155579,0.0,-1.290321946144104
260702,0.7733250260353088,-0.9113694429397583,0.0,-1.2899397611618042
260712,0.7722805142402649,-0.9118502736091614,0.0,-1.2904891967773438
260722,0.7712339162826538,-0.9125847220420837,0.0,-1.2898057699203491
260732,0.7705843448638916,-0.911591112613678,0.0,-1.290998935699463
260742,0.7687279582023621,-0.912534773349762,0.0,-1.2903515100479126
260752,0.7688740491867065,-0.9126891493797302,0.0,-1.2897080183029175
260762,0.769169270992279,-0.9120664596557617,0.0,-1.2897013425827026
260772,0.7704405188560486,-0.9127856492996216,0.0,-1.289685845375061
260782,0.7717939615249634,-0.9129458069801331,0.0,-1.2909423112869263
260792,0.7722489237785339,-0.9131662845611572,0.0,-1.2906333208084106
260802,0.7732070088386536,-0.9136891961097717,0.0,-1.2909424304962158
260812,0.7734866738319397,-0.913615882396698,0.0,-1.2903993129730225
260822,0.7727994322776794,-0.9139089584350586,0.0,-1.2901462316513062
260832,0.7723246216773987,-0.9142352938652039,0.0,-1.2898719310760498
260842,0.7705007195472717,-0.913745105266571,0.0,-1.2914444208145142
260852,0.7719108462333679,-0.9132916331291199,0.0,-1.2914072275161743
260862,0.7720448970794678,-0.9135107398033142,0.0,-1.2903069257736206
260872,0.7725141048431396,-0.9145246744155884,0.0,-1.290415644645691
260882,0.7717888951301575,-0.9125649333000183,0.0,-1.2911183834075928
260892,0.7704583406448364,-0.91361403465271,0.0,-1.2918301820755005
260902,0.7694618701934814,-0.9136347770690918,0.0,-1.2902363538742065
260912,0.7700435519218445,-0.9140760898590088,0.0,-1.2900760173797607
260922,0.7698968052864075,-0.9142552018165588,0.0,-1.290091872215271
260932,0.7693719267845154,-0.9138256311416626,0.0,-1.2905575037002563
260942,0.7683993577957153,-0.9128794074058533,0.0,-1.290914535522461
260952,0.7697550058364868,-0.9124546647071838,0.0,-1.2911850214004517
260962,0.7684586644172668,-0.9124877452850342,0.0,-1.2918423414230347
260972,0.7663582563400269,-0.9134765267372131,0.0,-1.2908439636230469
260982,0.7675480842590332,-0.9127255082130432,0.0,-1.291031837463379
