Timestamp,stabilizer.pitch,stabilizer.roll,stabilizer.thrust,stabilizer.yaw
1688648647.4169996,0.8336073160171509,-0.9609697461128236,0.0,12.982382774353027
1688648647.4269996,0.8333337306976318,-0.9616241455078124,0.0,12.981975555419922
1688648647.4369996,0.8327040076255798,-0.9615225195884703,0.0,12.982653617858888
1688648647.4469995,0.8316197395324707,-0.9624293446540833,0.0,12.983149528503418
1688648647.4569995,0.8307046294212341,-0.96184641122818,0.0,12.982905387878418
1688648647.4669995,0.8294336199760437,-0.9619575142860411,0.0,12.98268222808838
1688648647.4769995,0.8288390040397644,-0.9628387093544006,0.0,12.98170280456543
1688648647.4869995,0.8269884586334229,-0.9623574018478394,0.0,12.982455253601074
1688648647.4969995,0.8275826573371887,-0.9628989696502686,0.0,12.984140396118164
1688648647.5069995,0.8273444175720215,-0.9624285101890564,0.0,12.983729362487791
1688648647.5169995,0.8265263438224792,-0.9620699286460876,0.0,12.983762741088867
1688648647.5269995,0.8276914358139038,-0.9622740745544434,0.0,12.984253883361816
1688648647.5369995,0.8270538449287415,-0.9626126885414124,0.0,12.984521865844728
1688648647.5469997,0.8252884149551392,-0.96314936876297,0.0,12.98306941986084
1688648647.5569997,0.8249574899673462,-0.9636966586112976,0.0,12.98345184326172
1688648647.5669997,0.8263212442398071,-0.9641886353492736,0.0,12.985267639160156
1688648647.5769997,0.8267039656639099,-0.9640117287635804,0.0,12.985055923461914
1688648647.5869997,0.8261431455612183,-0.964145004749298,0.0,12.985743522644045
1688648647.5969996,0.8263330459594727,-0.964563012123108,0.0,12.986095428466797
1688648647.6069996,0.8268946409225464,-0.9642865061759948,0.0,12.986934661865234
1688648647.6169996,0.8275777697563171,-0.9641551971435548,0.0,12.986769676208496
1688648647.6269996,0.8277913331985474,-0.9641374945640564,0.0,12.986455917358398
1688648647.6369996,0.8288041949272156,-0.9651115536689758,0.0,12.985820770263672
1688648647.6469996,0.8277936577796936,-0.9646607041358948,0.0,12.98390293121338
1688648647.6569996,0.827418863773346,-0.965782105922699,0.0,12.98377799987793
1688648647.6669996,0.8287072777748108,-0.965217649936676,0.0,12.982412338256836
1688648647.6769996,0.8286460638046265,-0.9656596779823304,0.0,12.981658935546877
1688648647.6869996,0.8286806344985962,-0.96676105260849,0.0,12.98190975189209
1688648647.6969995,0.8287792801856995,-0.9665520191192628,0.0,12.98078441619873
1688648647.7069995,0.8289828300476074,-0.9665725231170654,0.0,12.980802536010742
1688648647.7169995,0.8266718983650208,-0.9663950204849244,0.0,12.979596138000488
1688648647.7269995,0.8277515769004822,-0.9666894674301147,0.0,12.98006820678711
1688648647.7369995,0.8269516825675964,-0.9669650793075562,0.0,12.981500625610352
1688648647.7469995,0.825644850730896,-0.9670262932777404,0.0,12.983105659484863
1688648647.7569995,0.8242811560630798,-0.9677613377571106,0.0,12.984362602233888
1688648647.7669995,0.8245622515678406,-0.9678001999855042,0.0,12.984046936035156
1688648647.7769995,0.8255398869514465,-0.9673058390617372,0.0,12.984313011169434
1688648647.7869995,0.8246057033538818,-0.9675573110580444,0.0,12.984760284423828
1688648647.7969997,0.8240727186203003,-0.9672263860702516,0.0,12.984992980957031
1688648647.8069997,0.8251192569732666,-0.9663618803024292,0.0,12.983415603637695
1688648647.8169997,0.827721357345581,-0.9664722084999084,0.0,12.982518196105955
1688648647.8269997,0.828193187713623,-0.9678900837898254,0.0,12.983135223388672
1688648647.8369997,0.8292402029037476,-0.968088150024414,0.0,12.98276710510254
1688648647.8469996,0.8287884593009949,-0.9672508239746094,0.0,12.983745574951172
1688648647.8569996,0.8283772468566895,-0.9664883613586426,0.0,12.985204696655272
1688648647.8669996,0.828761100769043,-0.9669871926307678,0.0,12.986201286315918
1688648647.8769996,0.8281989097595215,-0.9660795331001282,0.0,12.98737907409668
1688648647.8869996,0.828666090965271,-0.9657517075538636,0.0,12.986544609069824
1688648647.8969996,0.8273398280143738,-0.9659836292266846,0.0,12.988423347473145
1688648647.9069996,0.8262834548950195,-0.9665261507034302,0.0,12.989775657653809
1688648647.9169996,0.8254642486572266,-0.9668250679969788,0.0,12.991537094116213
1688648647.9269996,0.8267132639884949,-0.965627908706665,0.0,12.992467880249023
1688648647.9369996,0.8270793557167053,-0.96586674451828,0.0,12.993399620056152
1688648647.9469995,0.8262133002281189,-0.9657657742500304,0.0,12.993892669677734
1688648647.9569995,0.8252399563789368,-0.96612149477005,0.0,12.99474811553955
1688648647.9669995,0.8263395428657532,-0.9656882882118224,0.0,12.994261741638184
1688648647.9769995,0.8267227411270142,-0.9643155336380004,0.0,12.996088027954102
1688648647.9869995,0.8263437151908875,-0.9645516276359558,0.0,12.995756149291992
1688648647.9969995,0.8267092108726501,-0.963318645954132,0.0,12.996702194213867
1688648648.0069995,0.8275843262672424,-0.9628335237503052,0.0,12.997620582580566
1688648648.0169995,0.8272519707679749,-0.962798237800598,0.0,12.9981050491333
1688648648.0269995,0.8266854882240295,-0.9633090496063232,0.0,12.997888565063477
1688648648.0369995,0.8268253207206726,-0.9650031924247742,0.0,12.99871063232422
1688648648.0469997,0.8262717127799988,-0.9645655751228333,0.0,12.998623847961426
1688648648.0569997,0.8265944123268127,-0.9643916487693788,0.0,12.997854232788086
1688648648.0669997,0.8259680271148682,-0.963305115699768,0.0,12.998716354370115
1688648648.0769997,0.8261967897415161,-0.9627493619918824,0.0,12.999404907226562
1688648648.0869997,0.8277949094772339,-0.9614749550819396,0.0,13.000852584838867
1688648648.0969996,0.8258194327354431,-0.9608010649681092,0.0,13.003487586975098
1688648648.1069996,0.8255470395088196,-0.960670530796051,0.0,13.003056526184082
1688648648.1169996,0.8250702023506165,-0.9595771431922911,0.0,13.00407886505127
1688648648.1269996,0.8245866894721985,-0.9591631889343262,0.0,13.002670288085938
1688648648.1369996,0.8233292102813721,-0.9588003754615784,0.0,13.002639770507812
1688648648.1469996,0.8233378529548645,-0.9583102464675904,0.0,13.003373146057127
1688648648.1569996,0.8232551217079163,-0.9576820731163024,0.0,13.003289222717283
1688648648.1669996,0.823315441608429,-0.9582659006118774,0.0,13.003439903259276
1688648648.1769996,0.8230587840080261,-0.9571691155433656,0.0,13.003396034240724
1688648648.1869996,0.8230942487716675,-0.9566015005111694,0.0,13.004627227783203
1688648648.1969995,0.8207837343215942,-0.955414652824402,0.0,13.005412101745604
1688648648.2069995,0.819957971572876,-0.9546390175819396,0.0,13.007177352905272
1688648648.2169995,0.8212164640426636,-0.954805552959442,0.0,13.007999420166016
1688648648.2269995,0.8202409148216248,-0.9547607898712158,0.0,13.008048057556152
1688648648.2369995,0.8215619325637817,-0.954662561416626,0.0,13.006789207458496
1688648648.2469995,0.8217030167579651,-0.953753650188446,0.0,13.006311416625977
1688648648.2569995,0.8217268586158752,-0.9538028836250304,0.0,13.00757122039795
1688648648.2669995,0.8215564489364624,-0.95485657453537,0.0,13.00761604309082
1688648648.2769995,0.8211478590965271,-0.9569644331932068,0.0,13.008323669433594
1688648648.2869995,0.8206245303153992,-0.95686012506485,0.0,13.00907039642334
1688648648.2969997,0.8181002140045166,-0.9563304781913756,0.0,13.008131980895996
1688648648.3069997,0.8172697424888611,-0.95599764585495,0.0,13.008281707763672
1688648648.3169997,0.8156211972236633,-0.9573435187339784,0.0,13.01007080078125
1688648648.3269997,0.8144205212593079,-0.9564234018325806,0.0,13.009323120117188
1688648648.3369997,0.8151713013648987,-0.957409143447876,0.0,13.00795841217041
1688648648.3469996,0.8141669034957886,-0.9586142301559448,0.0,13.008455276489258
1688648648.3569996,0.8124860525131226,-0.9578746557235718,0.0,13.009933471679688
1688648648.3669996,0.8130857348442078,-0.9575042128562928,0.0,13.010878562927246
1688648648.3769996,0.8128768801689148,-0.9564306139945984,0.0,13.010565757751465
1688648648.3869996,0.8129255771636963,-0.9561752080917358,0.0,13.011656761169434
1688648648.3969996,0.8121466636657715,-0.9558055400848388,0.0,13.013367652893066
1688648648.4069996,0.8119233846664429,-0.955125629901886,0.0,13.014759063720703
1688648648.4169996,0.8108794093132019,-0.955483078956604,0.0,13.015230178833008
1688648648.4269996,0.8104158043861389,-0.955791473388672,0.0,13.015039443969728
1688648648.4369996,0.812720000743866,-0.9557360410690308,0.0,13.013716697692873
1688648648.4469995,0.8115862607955933,-0.9554386138916016,0.0,13.01387882232666
1688648648.4569995,0.8116976022720337,-0.9543975591659546,0.0,13.01610279083252
1688648648.4669995,0.8115000128746033,-0.9556524753570556,0.0,13.016800880432127
1688648648.4769995,0.8116114735603333,-0.9558312892913818,0.0,13.014470100402832
1688648648.4869995,0.8127469420433044,-0.957040786743164,0.0,13.015210151672363
1688648648.4969995,0.8122068643569946,-0.956604540348053,0.0,13.015438079833984
1688648648.5069995,0.8113398551940918,-0.9565881490707396,0.0,13.01563835144043
1688648648.5169995,0.8118079304695129,-0.9564375877380372,0.0,13.015643119812012
1688648648.5269995,0.8123756051063538,-0.9578229188919068,0.0,13.0150785446167
1688648648.5369995,0.8125946521759033,-0.958652138710022,0.0,13.014606475830078
1688648648.5469997,0.810785174369812,-0.9584094882011414,0.0,13.014183044433594
1688648648.5569997,0.8102078437805176,-0.9572880864143372,0.0,13.01590347290039
1688648648.5669997,0.8101102113723755,-0.9579809904098512,0.0,13.017175674438477
1688648648.5769997,0.8098570108413696,-0.9581076502799988,0.0,13.017961502075195
1688648648.5869997,0.8113583922386169,-0.9579271674156188,0.0,13.017807006835938
1688648648.5969996,0.8109293580055237,-0.957249402999878,0.0,13.019736289978027
1688648648.6069996,0.8112906217575073,-0.9565922021865844,0.0,13.018838882446287
1688648648.6169996,0.8124927878379822,-0.9569822549819946,0.0,13.020234107971191
1688648648.6269996,0.8126698732376099,-0.955918550491333,0.0,13.021855354309082
1688648648.6369996,0.8126510381698608,-0.956135869026184,0.0,13.021552085876465
1688648648.6469996,0.8136904835700989,-0.9556909203529358,0.0,13.020915985107422
1688648648.6569996,0.813772976398468,-0.9555849432945251,0.0,13.021085739135742
1688648648.6669996,0.8129598498344421,-0.9553585052490234,0.0,13.021120071411133
1688648648.6769996,0.8124755024909973,-0.9548575282096864,0.0,13.022018432617188
1688648648.6869996,0.8124361038208008,-0.9559263586997986,0.0,13.021299362182615
1688648648.6969995,0.8128983378410339,-0.9562364816665648,0.0,13.021099090576172
1688648648.7069995,0.8132655024528503,-0.9567594528198242,0.0,13.021551132202148
1688648648.7169995,0.8119773268699646,-0.9563257694244384,0.0,13.02200984954834
1688648648.7269995,0.8148701786994934,-0.9553391337394714,0.0,13.021442413330078
1688648648.7369995,0.8152697086334229,-0.9552493095397948,0.0,13.022201538085938
1688648648.7469995,0.8159322738647461,-0.954876184463501,0.0,13.020952224731444
1688648648.7569995,0.8172518610954285,-0.9547370076179504,0.0,13.021343231201172
1688648648.7669995,0.817014217376709,-0.9551393389701844,0.0,13.022987365722656
1688648648.7769995,0.8170515894889832,-0.9545356631278992,0.0,13.024081230163574
1688648648.7869995,0.818234920501709,-0.9527941942214966,0.0,13.02344036102295
1688648648.7969997,0.8172878623008728,-0.9537200331687928,0.0,13.024516105651855
1688648648.8069997,0.8169281482696533,-0.9536351561546326,0.0,13.025053977966309
1688648648.8169997,0.8171711564064026,-0.9531129002571106,0.0,13.02540397644043
1688648648.8269997,0.817724883556366,-0.952894687652588,0.0,13.025716781616213
1688648648.8369997,0.8178332448005676,-0.9515251517295836,0.0,13.025229454040527
1688648648.8469996,0.8182812333106995,-0.9525341391563416,0.0,13.024236679077148
1688648648.8569996,0.8180342316627502,-0.9528563022613524,0.0,13.023486137390137
1688648648.8669996,0.8167684674263,-0.9530525207519532,0.0,13.026223182678224
1688648648.8769996,0.8168637156486511,-0.9522776007652284,0.0,13.025640487670898
1688648648.8869996,0.8174265623092651,-0.9512198567390442,0.0,13.024696350097656
1688648648.8969996,0.8177938461303711,-0.9522380828857422,0.0,13.02542781829834
1688648648.9069996,0.8168285489082336,-0.9519986510276794,0.0,13.025848388671877
1688648648.9169996,0.817026674747467,-0.9514561295509338,0.0,13.025832176208496
1688648648.9269996,0.8162950277328491,-0.95146507024765,0.0,13.025891304016112
1688648648.9369996,0.814945638179779,-0.952240228652954,0.0,13.02616024017334
1688648648.9469995,0.8149566650390625,-0.9524986743927002,0.0,13.026848793029783
1688648648.9569995,0.814824640750885,-0.9526495337486268,0.0,13.027023315429688
1688648648.9669995,0.8149096965789795,-0.951466143131256,0.0,13.026066780090332
1688648648.9769995,0.8148727416992188,-0.9507668614387512,0.0,13.027129173278809
1688648648.9869995,0.8128693103790283,-0.9507250189781188,0.0,13.02740478515625
1688648648.9969995,0.8133265972137451,-0.9520358443260192,0.0,13.027938842773438
1688648649.0069995,0.8131778836250305,-0.9538842439651488,0.0,13.028701782226562
1688648649.0169995,0.8129979372024536,-0.9541828632354736,0.0,13.029234886169434
1688648649.0269995,0.8133918046951294,-0.9551680088043212,0.0,13.03053379058838
1688648649.0369995,0.8145148158073425,-0.955370306968689,0.0,13.03090000152588
1688648649.0469997,0.8126972317695618,-0.9541409611701964,0.0,13.030346870422363
1688648649.0569997,0.8137573599815369,-0.9538756012916564,0.0,13.03079319000244
1688648649.0669997,0.8146936297416687,-0.9533172249794006,0.0,13.03048610687256
1688648649.0769997,0.8131490349769592,-0.9534021019935608,0.0,13.031822204589844
1688648649.0869997,0.8130409717559814,-0.952202320098877,0.0,13.032174110412598
1688648649.0969996,0.8120779991149902,-0.9526426792144777,0.0,13.032977104187012
1688648649.1069996,0.8130751252174377,-0.9514068961143494,0.0,13.032760620117188
1688648649.1169996,0.8122721910476685,-0.9507134556770324,0.0,13.032637596130373
1688648649.1269996,0.8129779100418091,-0.9510402083396912,0.0,13.03024959564209
1688648649.1369996,0.812835156917572,-0.9510555267333984,0.0,13.03022289276123
1688648649.1469996,0.8132482767105103,-0.9502444863319396,0.0,13.030364990234377
1688648649.1569996,0.8134279847145081,-0.9493794441223145,0.0,13.03028678894043
1688648649.1669996,0.8145323395729065,-0.949415922164917,0.0,13.031329154968262
1688648649.1769996,0.8153420686721802,-0.9479464292526244,0.0,13.031023025512695
1688648649.1869996,0.815760612487793,-0.9482532739639282,0.0,13.03195095062256
1688648649.1969995,0.8164477944374084,-0.948089063167572,0.0,13.031184196472168
1688648649.2069995,0.8159791231155396,-0.9480204582214355,0.0,13.03262710571289
1688648649.2169995,0.8169859051704407,-0.9475975632667542,0.0,13.032855033874512
1688648649.2269995,0.8182407021522522,-0.9475502967834472,0.0,13.032825469970703
1688648649.2369995,0.8180404901504517,-0.9469373226165771,0.0,13.032270431518556
1688648649.2469995,0.8205057978630066,-0.9473416805267334,0.0,13.031662940979004
1688648649.2569995,0.8204226493835449,-0.9480257630348206,0.0,13.03260898590088
1688648649.2669995,0.82264244556427,-0.9488059282302856,0.0,13.032408714294434
1688648649.2769995,0.8224962949752808,-0.9490031003952026,0.0,13.032808303833008
1688648649.2869995,0.8234872817993164,-0.9471306800842284,0.0,13.033331871032717
1688648649.2969997,0.8224543929100037,-0.9467161893844604,0.0,13.03449249267578
1688648649.3069997,0.8238792419433594,-0.9456972479820251,0.0,13.032512664794922
1688648649.3169997,0.8249271512031555,-0.9459028840065002,0.0,13.030756950378418
1688648649.3269997,0.8259397745132446,-0.9462677240371704,0.0,13.03209400177002
1688648649.3369997,0.8246780037879944,-0.9468271136283876,0.0,13.031991004943848
1688648649.3469996,0.8252710103988647,-0.9482597708702089,0.0,13.033403396606444
1688648649.3569996,0.8248488903045654,-0.9478491544723512,0.0,13.033321380615234
1688648649.3669996,0.8238202333450317,-0.9477599263191224,0.0,13.034147262573242
1688648649.3769996,0.8218644857406616,-0.9477336406707764,0.0,13.034977912902832
1688648649.3869996,0.8237205147743225,-0.948253333568573,0.0,13.032892227172852
1688648649.3969996,0.8235616683959961,-0.948607861995697,0.0,13.032770156860352
1688648649.4069996,0.8258487582206726,-0.9478468894958496,0.0,13.031729698181152
1688648649.4169996,0.8258748650550842,-0.9472761154174804,0.0,13.031173706054688
1688648649.4269996,0.8270993828773499,-0.9465932846069336,0.0,13.031501770019531
1688648649.4369996,0.8275067806243896,-0.9466200470924376,0.0,13.032950401306152
1688648649.4469995,0.829285740852356,-0.9457641243934632,0.0,13.03110694885254
1688648649.4569995,0.8290766477584839,-0.9462469220161438,0.0,13.031614303588867
1688648649.4669995,0.8277159929275513,-0.945722758769989,0.0,13.032720565795898
1688648649.4769995,0.82735675573349,-0.9461562037467957,0.0,13.032973289489746
1688648649.4869995,0.828368067741394,-0.9460423588752748,0.0,13.033598899841309
1688648649.4969995,0.8297026753425598,-0.945667803287506,0.0,13.03365421295166
1688648649.5069995,0.8306019902229309,-0.9445232152938844,0.0,13.03226089477539
1688648649.5169995,0.830650269985199,-0.9453407526016236,0.0,13.03351593017578
1688648649.5269995,0.8299716114997864,-0.946266770362854,0.0,13.033334732055664
1688648649.5369995,0.8297111988067627,-0.9458308815956116,0.0,13.032716751098633
1688648649.5469997,0.829512357711792,-0.9452823400497437,0.0,13.03273868560791
1688648649.5569997,0.8273018598556519,-0.9452450275421144,0.0,13.03317642211914
1688648649.5669997,0.82813960313797,-0.945329487323761,0.0,13.034161567687988
1688648649.5769997,0.8267835974693298,-0.9458821415901184,0.0,13.036442756652832
1688648649.5869997,0.8264402747154236,-0.9455763697624208,0.0,13.038310050964355
1688648649.5969996,0.825062096118927,-0.946499764919281,0.0,13.03786563873291
1688648649.6069996,0.8243080377578735,-0.9468184113502502,0.0,13.036818504333496
1688648649.6169996,0.8256731033325195,-0.9466128945350648,0.0,13.03683853149414
1688648649.6269996,0.8257912397384644,-0.9465407133102416,0.0,13.036245346069336
1688648649.6369996,0.8248424530029297,-0.946890950202942,0.0,13.034811973571776
1688648649.6469996,0.8245955109596252,-0.9456280469894408,0.0,13.035219192504885
1688648649.6569996,0.8232030868530273,-0.9453972578048706,0.0,13.036114692687988
1688648649.6669996,0.8223366141319275,-0.9452094435691832,0.0,13.034659385681152
1688648649.6769996,0.8227928876876831,-0.945526361465454,0.0,13.03525447845459
1688648649.6869996,0.822618305683136,-0.9453521966934204,0.0,13.0358304977417
1688648649.6969995,0.8234974145889282,-0.945216715335846,0.0,13.036865234375
1688648649.7069995,0.8232589364051819,-0.9455460906028748,0.0,13.038009643554688
1688648649.7169995,0.8230693340301514,-0.9467440843582152,0.0,13.041043281555176
1688648649.7269995,0.8242128491401672,-0.9465298652648926,0.0,13.040868759155272
1688648649.7369995,0.8239797949790955,-0.946555197238922,0.0,13.041892051696776
1688648649.7469995,0.8248187899589539,-0.945402979850769,0.0,13.042047500610352
1688648649.7569995,0.8245280385017395,-0.9475833773612976,0.0,13.041986465454102
1688648649.7669995,0.8245704770088196,-0.948749542236328,0.0,13.042031288146973
1688648649.7769995,0.8269447684288025,-0.9468312859535216,0.0,13.041693687438965
1688648649.7869995,0.8272377848625183,-0.94566810131073,0.0,13.042876243591309
1688648649.7969997,0.825253427028656,-0.947300910949707,0.0,13.04314422607422
1688648649.8069997,0.8257514834403992,-0.946885585784912,0.0,13.04291534423828
1688648649.8169997,0.8247606754302979,-0.9468531012535096,0.0,13.043309211730955
1688648649.8269997,0.825974702835083,-0.9456154704093932,0.0,13.043207168579102
1688648649.8369997,0.8249853849411011,-0.943674623966217,0.0,13.044626235961914
1688648649.8469996,0.8262325525283813,-0.9429420232772828,0.0,13.045228958129885
1688648649.8569996,0.8257630467414856,-0.943083882331848,0.0,13.046955108642578
1688648649.8669996,0.8266915678977966,-0.9425715208053588,0.0,13.04690170288086
1688648649.8769996,0.8281858563423157,-0.9429638981819152,0.0,13.04683780670166
1688648649.8869996,0.828327476978302,-0.942661464214325,0.0,13.048136711120604
1688648649.8969996,0.8287644982337952,-0.9408088326454164,0.0,13.047786712646484
1688648649.9069996,0.8283419609069824,-0.9394764304161072,0.0,13.047917366027832
1688648649.9169996,0.8285520076751709,-0.9403042793273926,0.0,13.04769229888916
1688648649.9269996,0.829227089881897,-0.9409748911857604,0.0,13.048083305358888
1688648649.9369996,0.8290141820907593,-0.9398504495620728,0.0,13.047353744506836
1688648649.9469995,0.8291773796081543,-0.9406899213790894,0.0,13.049019813537598
1688648649.9569995,0.8292729258537292,-0.9406336545944214,0.0,13.049700736999512
1688648649.9669995,0.8309260606765747,-0.9405083060264589,0.0,13.049976348876951
1688648649.9769995,0.8317213654518127,-0.9402369260787964,0.0,13.048486709594728
1688648649.9869995,0.8318871259689331,-0.939947783946991,0.0,13.047740936279297
1688648649.9969995,0.8314578533172607,-0.9400492310523988,0.0,13.04799747467041
1688648650.0069995,0.830894947052002,-0.939851939678192,0.0,13.048026084899902
1688648650.0169995,0.8314785361289978,-0.9387282729148864,0.0,13.048223495483398
1688648650.0269995,0.8309453725814819,-0.9384453296661376,0.0,13.048784255981444
1688648650.0369995,0.8289152383804321,-0.9387572407722472,0.0,13.047762870788574
1688648650.0469997,0.8279976844787598,-0.9387987852096558,0.0,13.047743797302246
1688648650.0569997,0.8272767663002014,-0.9409391283988952,0.0,13.048077583312988
1688648650.0669997,0.8268901705741882,-0.9403327107429504,0.0,13.04909324645996
1688648650.0769997,0.8269696831703186,-0.940313994884491,0.0,13.047314643859863
1688648650.0869997,0.8285123705863953,-0.939426839351654,0.0,13.048206329345703
1688648650.0969996,0.8282248377799988,-0.9392582178115844,0.0,13.048383712768556
1688648650.1069996,0.8292217254638672,-0.9395481944084167,0.0,13.0478515625
1688648650.1169996,0.8296907544136047,-0.9391552209854126,0.0,13.04848861694336
1688648650.1269996,0.8292953372001648,-0.9391106367111206,0.0,13.04934787750244
1688648650.1369996,0.8303210139274597,-0.9386876225471495,0.0,13.050365447998049
1688648650.1469996,0.8305951952934265,-0.9389919638633728,0.0,13.048975944519045
1688648650.1569996,0.8322160243988037,-0.939140796661377,0.0,13.049345016479492
1688648650.1669996,0.8309905529022217,-0.9399570226669312,0.0,13.049620628356934
1688648650.1769996,0.8308810591697693,-0.941174328327179,0.0,13.049985885620115
1688648650.1869996,0.8299018740653992,-0.9402520060539246,0.0,13.05080795288086
1688648650.1969995,0.8301948308944702,-0.9395736455917358,0.0,13.051668167114258
1688648650.2069995,0.8304153680801392,-0.939599633216858,0.0,13.051347732543944
1688648650.2169995,0.8309600353240967,-0.9387054443359376,0.0,13.051623344421388
1688648650.2269995,0.8297116756439209,-0.9383533596992492,0.0,13.050312995910645
1688648650.2369995,0.8301947712898254,-0.9364961385726928,0.0,13.052061080932615
1688648650.2469995,0.8307309150695801,-0.9363582730293274,0.0,13.052491188049316
1688648650.2569995,0.8318087458610535,-0.9367817640304564,0.0,13.052952766418455
1688648650.2669995,0.8317556977272034,-0.936040997505188,0.0,13.053281784057615
1688648650.2769995,0.8318741917610168,-0.9366177916526794,0.0,13.052979469299316
1688648650.2869995,0.8314346075057983,-0.9348983764648438,0.0,13.051937103271484
1688648650.2969997,0.8302879333496094,-0.9342456459999084,0.0,13.05229663848877
1688648650.3069997,0.8314173221588135,-0.933207869529724,0.0,13.05263900756836
1688648650.3169997,0.8317180871963501,-0.9336155652999878,0.0,13.053858757019045
1688648650.3269997,0.8306026458740234,-0.9332972168922424,0.0,13.053370475769045
1688648650.3369997,0.831367015838623,-0.9321306347846984,0.0,13.052927017211914
1688648650.3469996,0.8301865458488464,-0.9307005405426024,0.0,13.05469036102295
1688648650.3569996,0.830852210521698,-0.9310434460639954,0.0,13.054194450378418
1688648650.3669996,0.8306204080581665,-0.931519329547882,0.0,13.053508758544922
1688648650.3769996,0.8308849930763245,-0.9320362210273744,0.0,13.055071830749512
1688648650.3869996,0.8312106132507324,-0.9313911199569702,0.0,13.055536270141602
1688648650.3969996,0.8337319493293762,-0.9306645393371582,0.0,13.056437492370604
1688648650.4069996,0.8352789878845215,-0.930960476398468,0.0,13.05631160736084
1688648650.4169996,0.833885908126831,-0.9307353496551514,0.0,13.05751132965088
1688648650.4269996,0.8330625891685486,-0.9296677112579346,0.0,13.057741165161133
1688648650.4369996,0.8339087963104248,-0.929606556892395,0.0,13.05807399749756
1688648650.4469995,0.8339893817901611,-0.9295948147773744,0.0,13.057724952697754
1688648650.4569995,0.8343220949172974,-0.9306520819664,0.0,13.057612419128418
1688648650.4669995,0.8338269591331482,-0.9312771558761596,0.0,13.056702613830566
1688648650.4769995,0.8330491781234741,-0.9324332475662231,0.0,13.05808925628662
1688648650.4869995,0.8344332575798035,-0.9327386021614076,0.0,13.058344841003418
1688648650.4969995,0.8325659036636353,-0.9323998093605042,0.0,13.060023307800291
1688648650.5069995,0.8316020965576172,-0.9328945875167848,0.0,13.060890197753906
1688648650.5169995,0.8321852684020996,-0.932924747467041,0.0,13.05865478515625
1688648650.5269995,0.8332628011703491,-0.9323868155479432,0.0,13.060382843017578
1688648650.5369995,0.833895742893219,-0.9323471188545228,0.0,13.06139087677002
1688648650.5469997,0.8351042866706848,-0.932683527469635,0.0,13.060429573059082
1688648650.5569997,0.834521472454071,-0.9324718713760376,0.0,13.060365676879885
1688648650.5669997,0.8367403745651245,-0.931096374988556,0.0,13.06050968170166
1688648650.5769997,0.8359935879707336,-0.9322713017463684,0.0,13.06043815612793
1688648650.5869997,0.835597813129425,-0.9327521324157716,0.0,13.060486793518066
1688648650.5969996,0.8352026343345642,-0.933683216571808,0.0,13.06006908416748
1688648650.6069996,0.8370385766029358,-0.933381736278534,0.0,13.06067180633545
1688648650.6169996,0.837751567363739,-0.9343054294586182,0.0,13.061674118041992
1688648650.6269996,0.8391547203063965,-0.9345895051956176,0.0,13.061458587646484
1688648650.6369996,0.838589072227478,-0.9339191317558287,0.0,13.061288833618164
1688648650.6469996,0.8393608331680298,-0.9339558482170104,0.0,13.061786651611328
1688648650.6569996,0.8402859568595886,-0.9338999390602112,0.0,13.062463760375977
1688648650.6669996,0.8402808308601379,-0.9343804121017456,0.0,13.06235408782959
1688648650.6769996,0.8411900401115417,-0.9354740381240844,0.0,13.062758445739746
1688648650.6869996,0.8406453132629395,-0.9358503818511964,0.0,13.06277561187744
1688648650.6969995,0.8402604460716248,-0.9357213973999025,0.0,13.063615798950195
1688648650.7069995,0.8402525782585144,-0.9356727600097656,0.0,13.064666748046877
1688648650.7169995,0.8395069241523743,-0.9363741874694824,0.0,13.065672874450684
1688648650.7269995,0.8386322259902954,-0.937204360961914,0.0,13.066893577575684
1688648650.7369995,0.8381807804107666,-0.9379896521568298,0.0,13.068405151367188
1688648650.7469995,0.839266300201416,-0.9391474723815918,0.0,13.068521499633787
1688648650.7569995,0.8396073579788208,-0.9382913708686828,0.0,13.067364692687988
1688648650.7669995,0.8397663235664368,-0.9378037452697754,0.0,13.067896842956545
1688648650.7769995,0.8405709266662598,-0.9380444288253784,0.0,13.069082260131836
1688648650.7869995,0.8403645753860474,-0.9362507462501526,0.0,13.071560859680176
1688648650.7969997,0.8402695655822754,-0.935060977935791,0.0,13.072012901306152
1688648650.8069997,0.8375229239463806,-0.935629427433014,0.0,13.073373794555664
1688648650.8169997,0.8386838436126709,-0.9350575804710388,0.0,13.072867393493652
1688648650.8269997,0.8391541838645935,-0.9358561635017396,0.0,13.072751998901367
1688648650.8369997,0.8379528522491455,-0.9363135695457458,0.0,13.073946952819824
1688648650.8469996,0.836675763130188,-0.9362379908561708,0.0,13.074440002441406
1688648650.8569996,0.8371977210044861,-0.9363096356391908,0.0,13.07514190673828
1688648650.8669996,0.8388013243675232,-0.9368097186088562,0.0,13.075303077697754
1688648650.8769996,0.8377448320388794,-0.9354122281074524,0.0,13.075421333312988
1688648650.8869996,0.8372871279716492,-0.9353991150856018,0.0,13.076257705688477
1688648650.8969996,0.8377262353897095,-0.9349659085273744,0.0,13.07729148864746
1688648650.9069996,0.8383691310882568,-0.9360932111740112,0.0,13.078852653503418
1688648650.9169996,0.8372753858566284,-0.9356482625007628,0.0,13.080342292785645
1688648650.9269996,0.8386474251747131,-0.934541642665863,0.0,13.079879760742188
1688648650.9369996,0.8396490812301636,-0.9342251420021056,0.0,13.080137252807615
1688648650.9469995,0.8402335047721863,-0.9349337816238404,0.0,13.079889297485352
1688648650.9569995,0.8404289484024048,-0.9346089363098145,0.0,13.080182075500488
1688648650.9669995,0.8412721753120422,-0.9358633756637572,0.0,13.08135986328125
1688648650.9769995,0.8426978588104248,-0.9358017444610596,0.0,13.080256462097168
1688648650.9869995,0.8407161831855774,-0.9353999495506288,0.0,13.080121994018556
1688648650.9969995,0.8414047360420227,-0.9342952370643616,0.0,13.080387115478516
1688648651.0069995,0.842290461063385,-0.933997929096222,0.0,13.081742286682127
1688648651.0169995,0.8417673110961914,-0.9347752332687378,0.0,13.08413314819336
1688648651.0269995,0.8397901058197021,-0.9329741597175598,0.0,13.083280563354492
1688648651.0369995,0.8392616510391235,-0.9334374666213988,0.0,13.084809303283691
1688648651.0469997,0.8389894366264343,-0.9335546493530272,0.0,13.086127281188965
1688648651.0569997,0.8402523994445801,-0.9339863657951356,0.0,13.08526611328125
1688648651.0669997,0.8403775095939636,-0.9330283403396606,0.0,13.085392951965332
1688648651.0769997,0.8393452763557434,-0.9323657751083374,0.0,13.084799766540527
1688648651.0869997,0.8403142690658569,-0.9321210384368896,0.0,13.08481502532959
1688648651.0969996,0.8405571579933167,-0.9328876733779908,0.0,13.085779190063477
1688648651.1069996,0.8399379253387451,-0.9339160919189452,0.0,13.086060523986816
1688648651.1169996,0.841319739818573,-0.9351761341094972,0.0,13.08684253692627
1688648651.1269996,0.8400344848632812,-0.9345276951789856,0.0,13.08721160888672
1688648651.1369996,0.8419346213340759,-0.9341615438461304,0.0,13.08864688873291
1688648651.1469996,0.8409629464149475,-0.9354143142700196,0.0,13.088186264038086
1688648651.1569996,0.842010498046875,-0.9362632036209106,0.0,13.089221954345703
1688648651.1669996,0.8412197232246399,-0.9380433559417723,0.0,13.090690612792969
1688648651.1769996,0.8411319255828857,-0.938362956047058,0.0,13.090665817260742
1688648651.1869996,0.8431535959243774,-0.9388662576675416,0.0,13.090641975402832
1688648651.1969995,0.8427534103393555,-0.9389399886131288,0.0,13.090266227722168
1688648651.2069995,0.844076931476593,-0.9384796023368835,0.0,13.091135025024414
1688648651.2169995,0.842298150062561,-0.9381558895111084,0.0,13.090211868286133
1688648651.2269995,0.8435126543045044,-0.938318133354187,0.0,13.089744567871094
1688648651.2369995,0.8420124650001526,-0.938956618309021,0.0,13.090943336486816
1688648651.2469995,0.8416107892990112,-0.9388833045959472,0.0,13.092792510986328
1688648651.2569995,0.8421408534049988,-0.9385205507278442,0.0,13.093131065368652
1688648651.2669995,0.842992901802063,-0.9388738870620728,0.0,13.092113494873049
1688648651.2769995,0.8428669571876526,-0.940505027770996,0.0,13.091419219970703
1688648651.2869995,0.8420915603637695,-0.9392260313034058,0.0,13.091718673706056
1688648651.2969997,0.8420274257659912,-0.939094066619873,0.0,13.090971946716309
1688648651.3069997,0.8426119089126587,-0.9391793608665466,0.0,13.091381072998049
1688648651.3169997,0.8442996740341187,-0.939340114593506,0.0,13.090531349182127
1688648651.3269997,0.8455036282539368,-0.9379723072052002,0.0,13.090194702148438
1688648651.3369997,0.8457613587379456,-0.9380977749824524,0.0,13.090681076049805
1688648651.3469996,0.8449740409851074,-0.9379011392593384,0.0,13.08907699584961
1688648651.3569996,0.845703661441803,-0.9375258684158324,0.0,13.08873462677002
1688648651.3669996,0.8462343215942383,-0.937743365764618,0.0,13.089763641357422
1688648651.3769996,0.8445436358451843,-0.9380487203598022,0.0,13.090072631835938
1688648651.3869996,0.8446506857872009,-0.9370112419128418,0.0,13.091208457946776
1688648651.3969996,0.843656599521637,-0.937226176261902,0.0,13.09138298034668
1688648651.4069996,0.8429461121559143,-0.9376922845840454,0.0,13.09245491027832
1688648651.4169996,0.8426898717880249,-0.9378107786178588,0.0,13.091551780700684
1688648651.4269996,0.8430464863777161,-0.937959849834442,0.0,13.092464447021484
1688648651.4369996,0.8432059288024902,-0.9376834630966188,0.0,13.092530250549316
1688648651.4469995,0.8432403802871704,-0.9375262260437012,0.0,13.094017028808594
1688648651.4569995,0.8449969291687012,-0.9368862509727478,0.0,13.095033645629885
1688648651.4669995,0.8448563814163208,-0.9363533854484558,0.0,13.095911979675291
1688648651.4769995,0.8444316983222961,-0.93603515625,0.0,13.096783638000488
1688648651.4869995,0.8440696001052856,-0.936269760131836,0.0,13.09628963470459
1688648651.4969995,0.8428145051002502,-0.9370696544647216,0.0,13.097148895263672
1688648651.5069995,0.8432459235191345,-0.93710595369339,0.0,13.098184585571287
1688648651.5169995,0.8434807658195496,-0.9358569383621216,0.0,13.098380088806152
1688648651.5269995,0.8438701629638672,-0.9348417520523072,0.0,13.098132133483888
1688648651.5369995,0.842876136302948,-0.9340162873268129,0.0,13.100293159484863
1688648651.5469997,0.8429367542266846,-0.9343501925468444,0.0,13.100882530212402
1688648651.5569997,0.8413657546043396,-0.9338347315788268,0.0,13.103303909301758
1688648651.5669997,0.8401975035667419,-0.933103322982788,0.0,13.103590965270996
1688648651.5769997,0.8402689099311829,-0.9338796138763428,0.0,13.104726791381836
1688648651.5869997,0.8408680558204651,-0.9334719181060792,0.0,13.105230331420898
1688648651.5969996,0.8407663702964783,-0.9337830543518066,0.0,13.106436729431152
1688648651.6069996,0.8404353260993958,-0.9346034526824952,0.0,13.105862617492676
1688648651.6169996,0.8417398929595947,-0.9357450604438782,0.0,13.106437683105469
1688648651.6269996,0.84180748462677,-0.9358564019203186,0.0,13.106757164001465
1688648651.6369996,0.8420082330703735,-0.9362833499908448,0.0,13.105782508850098
1688648651.6469996,0.8429280519485474,-0.9355980157852172,0.0,13.108323097229004
1688648651.6569996,0.8422709703445435,-0.9340322017669678,0.0,13.109210014343262
1688648651.6669996,0.8423234224319458,-0.9341473579406738,0.0,13.109086036682127
1688648651.6769996,0.8417790532112122,-0.9327014088630676,0.0,13.110237121582031
1688648651.6869996,0.8417117595672607,-0.9326735138893129,0.0,13.110755920410156
1688648651.6969995,0.8424386978149414,-0.9317866563796996,0.0,13.109525680541992
1688648651.7069995,0.8429853320121765,-0.9311509132385254,0.0,13.109591484069824
1688648651.7169995,0.8410722613334656,-0.9326658248901368,0.0,13.111781120300291
1688648651.7269995,0.8418588638305664,-0.933168888092041,0.0,13.110901832580566
1688648651.7369995,0.8424776196479797,-0.9337438941001892,0.0,13.110407829284668
1688648651.7469995,0.8426194190979004,-0.9351090788841248,0.0,13.110747337341309
1688648651.7569995,0.8416655659675598,-0.9342284798622132,0.0,13.109928131103516
1688648651.7669995,0.8415554165840149,-0.9354134798049928,0.0,13.109590530395508
1688648651.7769995,0.8412538170814514,-0.9358243942260742,0.0,13.111318588256836
1688648651.7869995,0.8412801623344421,-0.9348820447921752,0.0,13.111183166503906
1688648651.7969997,0.8395584225654602,-0.9344660639762878,0.0,13.114584922790527
1688648651.8069997,0.8395187258720398,-0.9341084957122804,0.0,13.113070487976074
1688648651.8169997,0.8406009674072266,-0.9353389739990234,0.0,13.112598419189451
1688648651.8269997,0.8414743542671204,-0.9359171390533448,0.0,13.112574577331545
1688648651.8369997,0.8410171270370483,-0.9356439709663392,0.0,13.113293647766112
1688648651.8469996,0.8419504761695862,-0.9361152052879332,0.0,13.113495826721191
1688648651.8569996,0.8420302271842957,-0.936269223690033,0.0,13.113438606262209
1688648651.8669996,0.8414115309715271,-0.937073528766632,0.0,13.11484718322754
1688648651.8769996,0.8401726484298706,-0.938504159450531,0.0,13.115254402160645
1688648651.8869996,0.8406155109405518,-0.9387868642807008,0.0,13.11453914642334
1688648651.8969996,0.839801549911499,-0.939320147037506,0.0,13.114839553833008
1688648651.9069996,0.840697705745697,-0.9397920370101928,0.0,13.114300727844238
1688648651.9169996,0.8406406044960022,-0.9394251704216005,0.0,13.115678787231444
1688648651.9269996,0.840578556060791,-0.9396955966949464,0.0,13.117042541503906
1688648651.9369996,0.8410869836807251,-0.9404739141464232,0.0,13.117297172546388
1688648651.9469995,0.8414596915245056,-0.9402008056640624,0.0,13.11824893951416
1688648651.9569995,0.8399495482444763,-0.940368115901947,0.0,13.118826866149902
1688648651.9669995,0.8395017385482788,-0.940518081188202,0.0,13.1195707321167
1688648651.9769995,0.839592695236206,-0.9397888779640198,0.0,13.120153427124023
1688648651.9869995,0.8400701880455017,-0.9380095601081848,0.0,13.11910915374756
1688648651.9969995,0.8411751985549927,-0.9370131492614746,0.0,13.120455741882324
1688648652.0069995,0.8401874899864197,-0.937383770942688,0.0,13.121122360229492
1688648652.0169995,0.8401326537132263,-0.937278926372528,0.0,13.12161350250244
1688648652.0269995,0.8404871821403503,-0.9362255930900574,0.0,13.122203826904297
1688648652.0369995,0.8414090275764465,-0.9370096325874328,0.0,13.124216079711914
1688648652.0469997,0.8403849601745605,-0.9365100264549256,0.0,13.125225067138672
1688648652.0569997,0.8396621346473694,-0.9360371828079224,0.0,13.124242782592772
1688648652.0669997,0.8394591212272644,-0.9362443089485168,0.0,13.124794006347656
1688648652.0769997,0.8390341401100159,-0.9374231696128844,0.0,13.12515926361084
1688648652.0869997,0.8393190503120422,-0.9369218945503236,0.0,13.125886917114258
1688648652.0969996,0.837915301322937,-0.9368631839752196,0.0,13.12472438812256
1688648652.1069996,0.8381724953651428,-0.9368054270744324,0.0,13.127300262451172
1688648652.1169996,0.8373674154281616,-0.9373221397399902,0.0,13.127870559692385
1688648652.1269996,0.8367304801940918,-0.937808871269226,0.0,13.1292085647583
1688648652.1369996,0.8368328809738159,-0.9386736154556274,0.0,13.12898063659668
1688648652.1469996,0.8362500667572021,-0.938063144683838,0.0,13.12851905822754
1688648652.1569996,0.8357581496238708,-0.9400405287742616,0.0,13.130854606628418
1688648652.1669996,0.8355227708816528,-0.9403827786445618,0.0,13.13012981414795
1688648652.1769996,0.8356717824935913,-0.9395670294761658,0.0,13.130970001220703
1688648652.1869996,0.8363506197929382,-0.940551459789276,0.0,13.132028579711914
1688648652.1969995,0.8359249830245972,-0.9406050443649292,0.0,13.131407737731934
1688648652.2069995,0.8367602229118347,-0.9411852955818176,0.0,13.132201194763184
1688648652.2169995,0.8364113569259644,-0.941365122795105,0.0,13.133027076721191
1688648652.2269995,0.836266279220581,-0.9420840740203856,0.0,13.133176803588867
1688648652.2369995,0.837701678276062,-0.9416621327400208,0.0,13.13397979736328
1688648652.2469995,0.8376371264457703,-0.9405354857444764,0.0,13.132709503173828
1688648652.2569995,0.8389996290206909,-0.9407513737678528,0.0,13.13223648071289
1688648652.2669995,0.8380928039550781,-0.9400179386138916,0.0,13.132201194763184
1688648652.2769995,0.8377247452735901,-0.9389411211013794,0.0,13.133505821228027
1688648652.2869995,0.8383828401565552,-0.938048541545868,0.0,13.13417148590088
1688648652.2969997,0.8371787071228027,-0.9378204345703124,0.0,13.134573936462402
1688648652.3069997,0.8375486135482788,-0.9377899765968324,0.0,13.135624885559082
1688648652.3169997,0.8377872109413147,-0.936610996723175,0.0,13.13736057281494
1688648652.3269997,0.8374682664871216,-0.9371277093887328,0.0,13.138007164001465
1688648652.3369997,0.8377544283866882,-0.9365063309669496,0.0,13.137535095214844
1688648652.3469996,0.8363546133041382,-0.9362024664878844,0.0,13.137776374816896
1688648652.3569996,0.838148295879364,-0.9351167678833008,0.0,13.13755989074707
1688648652.3669996,0.8379198908805847,-0.934904932975769,0.0,13.13694667816162
1688648652.3769996,0.838031530380249,-0.9356797337532043,0.0,13.136637687683104
1688648652.3869996,0.8375037908554077,-0.9356427192687988,0.0,13.135540008544922
1688648652.3969996,0.838792085647583,-0.9363511204719543,0.0,13.13599681854248
1688648652.4069996,0.8387875556945801,-0.9349743127822876,0.0,13.135889053344728
1688648652.4169996,0.8383665084838867,-0.9341518878936768,0.0,13.136114120483398
1688648652.4269996,0.837419331073761,-0.9346035718917848,0.0,13.13633918762207
1688648652.4369996,0.8369601368904114,-0.9351795315742492,0.0,13.13719654083252
1688648652.4469995,0.8375245928764343,-0.933944046497345,0.0,13.138338088989258
1688648652.4569995,0.8376204371452332,-0.9319154024124146,0.0,13.137102127075195
1688648652.4669995,0.8398504853248596,-0.9309264421463012,0.0,13.137948036193848
1688648652.4769995,0.840279221534729,-0.9312074780464172,0.0,13.137938499450684
1688648652.4869995,0.8416515588760376,-0.931368052959442,0.0,13.139098167419434
1688648652.4969995,0.8422231674194336,-0.930725634098053,0.0,13.138993263244627
1688648652.5069995,0.8421509265899658,-0.9309712052345276,0.0,13.140436172485352
1688648652.5169995,0.8416554927825928,-0.9308665990829468,0.0,13.141493797302246
1688648652.5269995,0.841487467288971,-0.9310868978500366,0.0,13.141735076904297
1688648652.5369995,0.8407878875732422,-0.9319679737091064,0.0,13.140850067138672
1688648652.5469997,0.8404979109764099,-0.9326366782188416,0.0,13.140774726867676
1688648652.5569997,0.8393262624740601,-0.9325365424156188,0.0,13.141000747680664
1688648652.5669997,0.8384515643119812,-0.931982398033142,0.0,13.141728401184082
1688648652.5769997,0.8396289944648743,-0.9328406453132628,0.0,13.141009330749512
1688648652.5869997,0.8394924402236938,-0.9328160881996156,0.0,13.141106605529783
1688648652.5969996,0.8383391499519348,-0.9333841800689696,0.0,13.14182472229004
1688648652.6069996,0.8383820056915283,-0.9335780143737792,0.0,13.143144607543944
1688648652.6169996,0.8377209901809692,-0.934037744998932,0.0,13.144506454467772
1688648652.6269996,0.8363279700279236,-0.9349250197410583,0.0,13.145289421081545
1688648652.6369996,0.8359708786010742,-0.9350203275680542,0.0,13.144981384277344
1688648652.6469996,0.8358388543128967,-0.9337835907936096,0.0,13.145751953125
1688648652.6569996,0.8364805579185486,-0.9339545965194702,0.0,13.14609718322754
1688648652.6669996,0.8378295302391052,-0.9327069520950316,0.0,13.148152351379396
1688648652.6769996,0.8383964896202087,-0.9338799715042114,0.0,13.14842700958252
1688648652.6869996,0.839564323425293,-0.9342385530471802,0.0,13.148284912109377
1688648652.6969995,0.8390730619430542,-0.935408055782318,0.0,13.149155616760254
1688648652.7069995,0.8406690955162048,-0.93407541513443,0.0,13.15067195892334
1688648652.7169995,0.8402991890907288,-0.9333332777023317,0.0,13.151070594787598
1688648652.7269995,0.8393692970275879,-0.9332395195961,0.0,13.153145790100098
1688648652.7369995,0.8381935358047485,-0.932209610939026,0.0,13.154033660888672
1688648652.7469995,0.8370081782341003,-0.9328047037124634,0.0,13.15407943725586
1688648652.7569995,0.8369854688644409,-0.933460295200348,0.0,13.154519081115724
1688648652.7669995,0.8376781940460205,-0.9332759380340576,0.0,13.155742645263672
1688648652.7769995,0.8375487923622131,-0.9340391755104064,0.0,13.15703010559082
1688648652.7869995,0.8368954062461853,-0.9352787733078004,0.0,13.157106399536133
1688648652.7969997,0.8376958966255188,-0.93337082862854,0.0,13.157390594482422
1688648652.8069997,0.8369014859199524,-0.933020293712616,0.0,13.156728744506836
1688648652.8169997,0.838079035282135,-0.9331987500190736,0.0,13.157557487487791
1688648652.8269997,0.8380909562110901,-0.9337205290794371,0.0,13.158031463623049
1688648652.8369997,0.839368462562561,-0.9344651699066162,0.0,13.157393455505373
1688648652.8469996,0.8392572402954102,-0.9363221526145936,0.0,13.15639877319336
1688648652.8569996,0.8401216864585876,-0.9367001056671144,0.0,13.157931327819824
1688648652.8669996,0.8398963212966919,-0.9368881583213806,0.0,13.158909797668455
1688648652.8769996,0.8390410542488098,-0.9366944432258606,0.0,13.160567283630373
1688648652.8869996,0.8399682641029358,-0.9371415376663208,0.0,13.161884307861328
1688648652.8969996,0.8394613265991211,-0.9361330270767212,0.0,13.16221523284912
1688648652.9069996,0.8407508730888367,-0.9360803365707396,0.0,13.162362098693848
1688648652.9169996,0.8408421874046326,-0.9364579916000366,0.0,13.163256645202637
1688648652.9269996,0.8402270078659058,-0.936115026473999,0.0,13.161084175109863
1688648652.9369996,0.8400431275367737,-0.935801327228546,0.0,13.161380767822266
1688648652.9469995,0.8404636383056641,-0.9362218976020812,0.0,13.162994384765623
1688648652.9569995,0.8398726582527161,-0.9361158013343812,0.0,13.16322898864746
1688648652.9669995,0.8390257954597473,-0.9362044930458068,0.0,13.164326667785645
1688648652.9769995,0.8391757011413574,-0.9360952973365784,0.0,13.163708686828612
1688648652.9869995,0.8378417491912842,-0.9350597858428956,0.0,13.164566040039062
1688648652.9969995,0.8384428024291992,-0.9351685047149658,0.0,13.164223670959473
1688648653.0069995,0.8410847783088684,-0.936428725719452,0.0,13.164939880371094
1688648653.0169995,0.8403787612915039,-0.9359892010688782,0.0,13.16364574432373
1688648653.0269995,0.8389627933502197,-0.9371486306190492,0.0,13.16460132598877
1688648653.0369995,0.8409830927848816,-0.9363561272621156,0.0,13.165005683898926
1688648653.0469997,0.8388960957527161,-0.9369088411331176,0.0,13.164810180664062
1688648653.0569997,0.8379045128822327,-0.9371931552886964,0.0,13.166412353515623
1688648653.0669997,0.8357347846031189,-0.9360437989234924,0.0,13.165806770324709
1688648653.0769997,0.8365851640701294,-0.935157597064972,0.0,13.166325569152832
1688648653.0869997,0.8363858461380005,-0.9340853095054626,0.0,13.16599464416504
1688648653.0969996,0.8353743553161621,-0.9346646666526794,0.0,13.167744636535645
1688648653.1069996,0.8359616994857788,-0.935193657875061,0.0,13.16878890991211
1688648653.1169996,0.8364713788032532,-0.9333726167678832,0.0,13.16778564453125
1688648653.1269996,0.8376723527908325,-0.9328561425209044,0.0,13.168923377990724
1688648653.1369996,0.8377178907394409,-0.9321255087852478,0.0,13.16812801361084
1688648653.1469996,0.8380528092384338,-0.931898832321167,0.0,13.168628692626951
1688648653.1569996,0.8380041718482971,-0.929745614528656,0.0,13.168463706970217
1688648653.1669996,0.8359663486480713,-0.9288111329078674,0.0,13.169217109680176
1688648653.1769996,0.8356190323829651,-0.9295039772987366,0.0,13.168559074401855
1688648653.1869996,0.8360373377799988,-0.929919958114624,0.0,13.168527603149414
1688648653.1969995,0.8361762762069702,-0.930581510066986,0.0,13.1680908203125
1688648653.2069995,0.8350657820701599,-0.9306609630584716,0.0,13.167121887207031
1688648653.2169995,0.8341283798217773,-0.9308184385299684,0.0,13.168673515319824
1688648653.2269995,0.8341997265815735,-0.9294348359107972,0.0,13.169902801513672
1688648653.2369995,0.8345916271209717,-0.9293047189712524,0.0,13.170111656188965
1688648653.2469995,0.835387647151947,-0.9294114112854004,0.0,13.169748306274414
1688648653.2569995,0.8352232575416565,-0.9289443492889404,0.0,13.170207023620604
1688648653.2669995,0.8344182372093201,-0.92986798286438,0.0,13.169659614562988
1688648653.2769995,0.8338671922683716,-0.9310388565063475,0.0,13.170339584350586
1688648653.2869995,0.8332321047782898,-0.9311149716377258,0.0,13.170631408691406
1688648653.2969997,0.8340985178947449,-0.9320099949836732,0.0,13.17262840270996
1688648653.3069997,0.834059476852417,-0.9324639439582824,0.0,13.175201416015623
1688648653.3169997,0.8334475755691528,-0.9316451549530028,0.0,13.174909591674805
1688648653.3269997,0.8343944549560547,-0.9320470690727234,0.0,13.175804138183594
1688648653.3369997,0.832162082195282,-0.9320520758628844,0.0,13.175820350646973
1688648653.3469996,0.8331353664398193,-0.9324689507484436,0.0,13.17674446105957
1688648653.3569996,0.8318881988525391,-0.9339390397071838,0.0,13.178357124328612
1688648653.3669996,0.832942545413971,-0.9339916110038756,0.0,13.178184509277344
1688648653.3769996,0.8356647491455078,-0.9337304830551147,0.0,13.179266929626465
1688648653.3869996,0.8346207737922668,-0.9330077767372132,0.0,13.179054260253906
1688648653.3969996,0.8349136710166931,-0.9331055283546448,0.0,13.18162727355957
1688648653.4069996,0.8341091871261597,-0.9333081841468812,0.0,13.182639122009276
1688648653.4169996,0.8339188694953918,-0.9331756234169006,0.0,13.182827949523926
1688648653.4269996,0.8327594995498657,-0.9338260889053344,0.0,13.182316780090332
1688648653.4369996,0.8325693011283875,-0.9347021579742432,0.0,13.185145378112791
1688648653.4469995,0.831613302230835,-0.9341666102409364,0.0,13.185352325439451
1688648653.4569995,0.8329682350158691,-0.9331868886947632,0.0,13.185893058776855
1688648653.4669995,0.8326157331466675,-0.9329625368118286,0.0,13.186071395874023
1688648653.4769995,0.8321385979652405,-0.9340099692344666,0.0,13.18681812286377
1688648653.4869995,0.8326293230056763,-0.9331764578819276,0.0,13.187399864196776
1688648653.4969995,0.8337056636810303,-0.93479984998703,0.0,13.186214447021484
1688648653.5069995,0.8321486115455627,-0.9345741271972656,0.0,13.185441970825195
1688648653.5169995,0.832160472869873,-0.9354272484779358,0.0,13.187244415283203
1688648653.5269995,0.832349419593811,-0.9349839687347412,0.0,13.186605453491213
1688648653.5369995,0.8330334424972534,-0.9363003969192504,0.0,13.186925888061523
1688648653.5469997,0.8324371576309204,-0.9371549487113952,0.0,13.187444686889648
1688648653.5569997,0.8337430953979492,-0.937500536441803,0.0,13.188558578491213
1688648653.5669997,0.8346608281135559,-0.9372117519378662,0.0,13.18842601776123
1688648653.5769997,0.8346360325813293,-0.9378056526184082,0.0,13.190374374389648
1688648653.5869997,0.8333451151847839,-0.9389778971672058,0.0,13.188924789428713
1688648653.5969996,0.8324980139732361,-0.938572108745575,0.0,13.191301345825195
1688648653.6069996,0.8329070210456848,-0.9390348196029664,0.0,13.191753387451172
1688648653.6169996,0.8340033292770386,-0.9388440847396852,0.0,13.1912260055542
1688648653.6269996,0.8335543870925903,-0.9385435581207277,0.0,13.191801071166992
1688648653.6369996,0.8348235487937927,-0.93841952085495,0.0,13.193398475646973
1688648653.6469996,0.8343251347541809,-0.9388774633407592,0.0,13.193942070007324
1688648653.6569996,0.8328090310096741,-0.9391904473304749,0.0,13.193156242370604
1688648653.6669996,0.8332110643386841,-0.9409878253936768,0.0,13.195385932922363
1688648653.6769996,0.8320093154907227,-0.939530611038208,0.0,13.19423484802246
1688648653.6869996,0.8325382471084595,-0.9395614266395568,0.0,13.194519996643066
1688648653.6969995,0.831900417804718,-0.9391943216323853,0.0,13.194487571716309
1688648653.7069995,0.8314672708511353,-0.9395003914833068,0.0,13.193929672241213
1688648653.7169995,0.8296410441398621,-0.9397205710411072,0.0,13.1951904296875
1688648653.7269995,0.8286696672439575,-0.9394890666007996,0.0,13.195497512817385
1688648653.7369995,0.8285853862762451,-0.9392642974853516,0.0,13.194496154785156
1688648653.7469995,0.8304747939109802,-0.9378605484962464,0.0,13.194157600402832
1688648653.7569995,0.8308864831924438,-0.9378584623336792,0.0,13.194830894470217
1688648653.7669995,0.8318805694580078,-0.9381272196769714,0.0,13.195549011230469
1688648653.7769995,0.8317516446113586,-0.9378910660743712,0.0,13.195831298828123
1688648653.7869995,0.8332054018974304,-0.9395970106124878,0.0,13.196813583374023
1688648653.7969997,0.8335559368133545,-0.9389521479606628,0.0,13.19574737548828
1688648653.8069997,0.833203136920929,-0.938818097114563,0.0,13.196165084838867
1688648653.8169997,0.8341002464294434,-0.937991976737976,0.0,13.196573257446287
1688648653.8269997,0.8335330486297607,-0.937776267528534,0.0,13.197491645812988
1688648653.8369997,0.8325193524360657,-0.937562882900238,0.0,13.197397232055664
1688648653.8469996,0.832120418548584,-0.9388662576675416,0.0,13.19835090637207
1688648653.8569996,0.8332309126853943,-0.9398011565208436,0.0,13.198955535888672
1688648653.8669996,0.833494246006012,-0.9404726028442384,0.0,13.200541496276855
1688648653.8769996,0.831516444683075,-0.9396950602531432,0.0,13.201770782470703
1688648653.8869996,0.8321741223335266,-0.9374881386756896,0.0,13.202241897583008
1688648653.8969996,0.8331784009933472,-0.9364482760429382,0.0,13.201667785644531
1688648653.9069996,0.8339299559593201,-0.9376504421234132,0.0,13.201485633850098
1688648653.9169996,0.8350581526756287,-0.9378532767295836,0.0,13.202190399169922
1688648653.9269996,0.8338558673858643,-0.9371634125709534,0.0,13.202630996704102
1688648653.9369996,0.8320891261100769,-0.93658185005188,0.0,13.20427417755127
1688648653.9469995,0.8318778872489929,-0.9357003569602966,0.0,13.203817367553713
1688648653.9569995,0.8319764137268066,-0.935496747493744,0.0,13.205224990844728
1688648653.9669995,0.829555869102478,-0.935973823070526,0.0,13.205531120300291
1688648653.9769995,0.8289774656295776,-0.935568869113922,0.0,13.205974578857422
1688648653.9869995,0.8286713361740112,-0.935710906982422,0.0,13.205903053283691
1688648653.9969995,0.8287975192070007,-0.9362544417381288,0.0,13.206465721130373
1688648654.0069995,0.8267126679420471,-0.9362240433692932,0.0,13.208023071289062
1688648654.0169995,0.8264698386192322,-0.9373093843460084,0.0,13.209210395812988
1688648654.0269995,0.826951801776886,-0.937592089176178,0.0,13.208126068115234
1688648654.0369995,0.8268005847930908,-0.93697851896286,0.0,13.206379890441896
1688648654.0469997,0.8277621865272522,-0.9379238486289978,0.0,13.206427574157717
1688648654.0569997,0.8287258148193359,-0.9386122226715088,0.0,13.207197189331056
1688648654.0669997,0.8293858170509338,-0.938562273979187,0.0,13.20793914794922
1688648654.0769997,0.8280303478240967,-0.9376087188720704,0.0,13.209437370300291
1688648654.0869997,0.8300092816352844,-0.9381422400474548,0.0,13.210769653320312
1688648654.0969996,0.8300824165344238,-0.9383150935173036,0.0,13.21135139465332
1688648654.1069996,0.8284700512886047,-0.93771892786026,0.0,13.211956024169922
1688648654.1169996,0.8279301524162292,-0.938065469264984,0.0,13.211908340454102
1688648654.1269996,0.8285800814628601,-0.9377442002296448,0.0,13.211949348449709
1688648654.1369996,0.8287769556045532,-0.9381678700447084,0.0,13.213396072387695
1688648654.1469996,0.83115553855896,-0.9382614493370056,0.0,13.213382720947266
1688648654.1569996,0.8302509188652039,-0.938057005405426,0.0,13.213217735290527
1688648654.1669996,0.8294554352760315,-0.9384815692901612,0.0,13.213010787963867
1688648654.1769996,0.8284710645675659,-0.9377797842025756,0.0,13.213105201721191
1688648654.1869996,0.8291425108909607,-0.9391345381736756,0.0,13.21339225769043
1688648654.1969995,0.829196572303772,-0.939583659172058,0.0,13.213971138000488
1688648654.2069995,0.8292819857597351,-0.9396272301673888,0.0,13.214162826538086
1688648654.2169995,0.8286778926849365,-0.9406118392944336,0.0,13.21359634399414
1688648654.2269995,0.828998863697052,-0.9403809309005736,0.0,13.213982582092283
1688648654.2369995,0.8283354043960571,-0.9397050738334656,0.0,13.214009284973145
1688648654.2469995,0.8260331153869629,-0.9407911896705629,0.0,13.214559555053713
1688648654.2569995,0.8266858458518982,-0.9404902458190918,0.0,13.21603775024414
1688648654.2669995,0.8261761665344238,-0.9407749176025392,0.0,13.21845531463623
1688648654.2769995,0.8264799118041992,-0.9397483468055724,0.0,13.21895980834961
1688648654.2869995,0.8257282376289368,-0.940422534942627,0.0,13.218223571777344
1688648654.2969997,0.827314555644989,-0.9411604404449464,0.0,13.2198486328125
1688648654.3069997,0.8272188901901245,-0.9418670535087584,0.0,13.220311164855955
1688648654.3169997,0.8266938328742981,-0.9415704011917114,0.0,13.220319747924805
1688648654.3269997,0.8264605402946472,-0.9424229264259338,0.0,13.220575332641602
1688648654.3369997,0.8272029757499695,-0.941804587841034,0.0,13.219285011291504
1688648654.3469996,0.8268657922744751,-0.9417737722396852,0.0,13.220342636108398
1688648654.3569996,0.8263066411018372,-0.9424856305122375,0.0,13.220244407653809
1688648654.3669996,0.8241026997566223,-0.9428665041923524,0.0,13.219910621643066
1688648654.3769996,0.8238053917884827,-0.9419190287590028,0.0,13.220585823059082
1688648654.3869996,0.8229987621307373,-0.9406307339668274,0.0,13.221670150756836
1688648654.3969996,0.8230012059211731,-0.9409530758857728,0.0,13.221846580505373
1688648654.4069996,0.8218327760696411,-0.9419734477996826,0.0,13.222031593322754
1688648654.4169996,0.8213989734649658,-0.9420194625854492,0.0,13.222601890563965
1688648654.4269996,0.8232861161231995,-0.9415050745010376,0.0,13.224615097045898
1688648654.4369996,0.8229402303695679,-0.9412110447883606,0.0,13.224308013916016
1688648654.4469995,0.8230781555175781,-0.9413704872131348,0.0,13.225387573242188
1688648654.4569995,0.8221251368522644,-0.9427313208580016,0.0,13.227014541625977
1688648654.4669995,0.8229556083679199,-0.9425050616264344,0.0,13.227861404418944
1688648654.4769995,0.8226849436759949,-0.9426947832107544,0.0,13.22827434539795
1688648654.4869995,0.8233312368392944,-0.941536009311676,0.0,13.229249000549316
1688648654.4969995,0.8242037892341614,-0.9411963224411012,0.0,13.229741096496582
1688648654.5069995,0.822691798210144,-0.9409654140472412,0.0,13.23062229156494
1688648654.5169995,0.8233044743537903,-0.9419604539871216,0.0,13.232337951660156
1688648654.5269995,0.8235450983047485,-0.9414632320404052,0.0,13.232511520385742
1688648654.5369995,0.8234676718711853,-0.9410962462425232,0.0,13.23110580444336
1688648654.5469997,0.8249982595443726,-0.9398912191390992,0.0,13.232349395751951
1688648654.5569997,0.8259485960006714,-0.9401410818099976,0.0,13.23075008392334
1688648654.5669997,0.8255887031555176,-0.9391767978668212,0.0,13.229215621948242
1688648654.5769997,0.8263959288597107,-0.9382993578910828,0.0,13.229994773864746
1688648654.5869997,0.8262564539909363,-0.9374021291732788,0.0,13.22990894317627
1688648654.5969996,0.8269851803779602,-0.9378198385238647,0.0,13.231270790100098
1688648654.6069996,0.8273441195487976,-0.9380244612693788,0.0,13.230226516723633
1688648654.6169996,0.8276498317718506,-0.938893735408783,0.0,13.23288917541504
1688648654.6269996,0.8272053003311157,-0.939255714416504,0.0,13.234607696533203
1688648654.6369996,0.8266730904579163,-0.9392058253288268,0.0,13.23315143585205
1688648654.6469996,0.8267432451248169,-0.9393917322158812,0.0,13.23393726348877
1688648654.6569996,0.8269184827804565,-0.941351056098938,0.0,13.23462963104248
1688648654.6669996,0.826800525188446,-0.9417231678962708,0.0,13.23493194580078
1688648654.6769996,0.8262442350387573,-0.9426296949386596,0.0,13.23629665374756
1688648654.6869996,0.825554370880127,-0.9429222345352172,0.0,13.236701011657717
1688648654.6969995,0.8267868161201477,-0.943255603313446,0.0,13.235719680786133
1688648654.7069995,0.8266913294792175,-0.9435335397720336,0.0,13.236257553100586
1688648654.7169995,0.8266733288764954,-0.943961501121521,0.0,13.237157821655272
1688648654.7269995,0.8281728029251099,-0.9429858326911926,0.0,13.237257957458496
1688648654.7369995,0.8286837339401245,-0.9430812001228333,0.0,13.23648738861084
1688648654.7469995,0.8300360441207886,-0.9416502118110656,0.0,13.236675262451172
1688648654.7569995,0.829427182674408,-0.9415320754051208,0.0,13.237714767456056
1688648654.7669995,0.8291977643966675,-0.9407442212104796,0.0,13.239039421081545
1688648654.7769995,0.8293156027793884,-0.941047430038452,0.0,13.240508079528809
1688648654.7869995,0.8286723494529724,-0.9412344098091124,0.0,13.240580558776855
1688648654.7969997,0.8284703493118286,-0.9402796626091005,0.0,13.241424560546877
1688648654.8069997,0.8299621939659119,-0.9397878646850586,0.0,13.241233825683594
1688648654.8169997,0.8306813836097717,-0.9387453198432922,0.0,13.24179744720459
1688648654.8269997,0.829564094543457,-0.9393984079360962,0.0,13.241238594055176
1688648654.8369997,0.8292602300643921,-0.937895894050598,0.0,13.24106216430664
1688648654.8469996,0.8301137089729309,-0.9387474060058594,0.0,13.241025924682615
1688648654.8569996,0.8303433656692505,-0.9394884705543518,0.0,13.241305351257324
