Time,Roll input,Pitch input,Yawrate input,Thrust input
1688552595.4760873,-0.903614342212677,-1.805625438690185,-0.03013610839846491,0
1688552595.4868662,-0.9036774039268494,-1.8045696020126345,0.07407665252691231,0
1688552595.497146,-0.9045224785804749,-1.8039380311965945,0.07481575012212716,0
1688552595.5081482,-0.9024478793144226,-1.8025387525558472,-0.014650821685805226,0
1688552595.5183527,-0.9013687372207642,-1.802273154258728,0.04038810729984732,0
1688552595.5285544,-0.9018939733505248,-1.804124116897583,-0.04434585571293326,0
1688552595.5387192,-0.9024816155433656,-1.8050729036331177,-0.11454820632944518,0
1688552595.5489898,-0.902460277080536,-1.8045557737350464,-0.06419420242315255,0
1688552595.5596445,-0.9028743505477904,-1.803678035736084,-0.09932518005381041,0
1688552595.5700984,-0.90272855758667,-1.804364562034607,-0.14028549194350148,0
1688552595.5813498,-0.9033501148223876,-1.804756760597229,-0.1177549362183612,0
1688552595.591725,-0.903896689414978,-1.8049955368041992,-0.10275840759284449,0
1688552595.6026337,-0.9045398235321044,-1.806490898132324,-0.15416145324721242,0
1688552595.6128573,-0.9047788977622986,-1.807517170906067,-0.05557537078863106,0
1688552595.6230698,-0.904921293258667,-1.8077735900878904,0.013017654418973734,0
1688552595.6332712,-0.9048472046852112,-1.808822512626648,-0.06585121154793683,0
1688552595.6435468,-0.9036523699760436,-1.8090357780456543,0.019049644470214844,0
1688552595.653909,-0.9047278761863708,-1.809116005897522,-0.03281831741333008,0
1688552595.6642401,-0.9046361446380616,-1.8091723918914795,-0.20028352737445232,0
1688552595.674864,-0.9051668643951416,-1.8101810216903689,-0.10594129562385035,0
1688552595.6850173,-0.9058319330215454,-1.8107539415359497,0.03458261489871006,0
1688552595.695225,-0.9058963060379028,-1.8116158246994016,0.010836124420151805,0
1688552595.7055767,-0.905215620994568,-1.812871336936951,-0.1161694526673358,0
1688552595.716444,-0.9056113362312316,-1.8120098114013672,-0.13109445571912204,0
1688552595.726605,-0.9057121872901917,-1.8119724988937376,-0.07940530776882326,0
1688552595.7375636,-0.9052063226699828,-1.81224262714386,0.004041194917761004,0
1688552595.747752,-0.9046480059623718,-1.8128623962402344,0.05416870117190342,0
1688552595.758042,-0.9054326415061952,-1.811032056808472,0.07699728012090645,0
1688552595.768225,-0.9053996205329896,-1.8100184202194212,0.03563165664678536,0
1688552595.7784,-0.9052743315696716,-1.809103012084961,-0.06537437438969107,0
1688552595.7885735,-0.9064542651176452,-1.8084139823913572,-0.05090236663824044,0
1688552595.79873,-0.9055224657058716,-1.806580901145935,-0.026929378509564117,0
1688552595.808879,-0.9055594801902772,-1.807450294494629,0.03083944320681553,0
1688552595.8190298,-0.9053072929382324,-1.8076419830322263,-0.018167495727553273,0
1688552595.829186,-0.905906617641449,-1.8089194297790527,-0.05856752395635567,0
1688552595.8396926,-0.9062002301216124,-1.8072774410247805,-0.06492137908942652,0
1688552595.8510325,-0.9065966606140136,-1.8076376914978027,-0.08279085159310284,0
1688552595.861208,-0.9064683318138124,-1.806675910949707,-0.00883340835571289,0
1688552595.8714206,-0.907582938671112,-1.8047493696212769,0.04985332489017935,0
1688552595.881779,-0.9083985090255736,-1.8067257404327397,-0.0043392181396484375,0
1688552595.892822,-0.9090290069580078,-1.8076379299163816,-0.0019431114196635235,0
1688552595.9031708,-0.909798502922058,-1.8056029081344604,0.05507469177250357,0
1688552595.9134004,-0.91019207239151,-1.8058704137802124,-0.0031113624573038123,0
1688552595.9235744,-0.911909282207489,-1.8056386709213257,0.025284290313749125,0
1688552595.9337485,-0.9123522639274596,-1.8070425987243648,0.055503845214929015,0
1688552595.9446151,-0.913681149482727,-1.807361364364624,-0.0558257102966877,0
1688552595.954939,-0.912818193435669,-1.8064547777175903,-0.0411748886109109,0
1688552595.965951,-0.9127113819122314,-1.8064032793045044,0.051355361938519195,0
1688552595.9761498,-0.9126026630401612,-1.806597590446472,0.07836818695078307,0
1688552595.9862924,-0.9139081239700316,-1.8046950101852417,-0.0058054923984229845,0
1688552595.996442,-0.9139997959136964,-1.80512273311615,-0.14761686324976608,0
1688552596.0066211,-0.915093183517456,-1.8056892156600952,-0.055110454559368804,0
1688552596.0171747,-0.9133951663970948,-1.8055154085159304,0.045502185821561625,0
1688552596.0277388,-0.9133265018463136,-1.8067868947982788,0.04178285598756304,0
1688552596.0379806,-0.9134931564331056,-1.8069069385528564,-0.026512145996136383,0
1688552596.048574,-0.913323700428009,-1.8065519332885744,-0.10577440261849347,0
1688552596.0590117,-0.91277676820755,-1.8068209886550903,-0.08134841918949576,0
1688552596.0691528,-0.9133528470993042,-1.806753754615784,-0.04221200942996006,0
1688552596.079434,-0.912764847278595,-1.8070005178451536,-0.037372112274212554,0
1688552596.0896125,-0.9131420850753784,-1.806995749473572,0.02926588058474522,0
1688552596.1004841,-0.912152111530304,-1.8076735734939573,0.0888109207154173,0
1688552596.1106606,-0.9134600758552552,-1.8061747550964355,0.009524822235107422,0
1688552596.1211271,-0.9137229323387146,-1.805016040802002,-0.04146099090580435,0
1688552596.131291,-0.9140828847885132,-1.8041523694992063,-0.05699396133427115,0
1688552596.1417613,-0.915158987045288,-1.80416476726532,-0.12054443359386369,0
1688552596.1525006,-0.9146324396133424,-1.802384614944458,-0.07547140121467066,0
1688552596.1626897,-0.9148591160774232,-1.802741289138794,0.03020763397219639,0
1688552596.1731477,-0.9156492948532104,-1.8030264377593996,0.0401735305786417,0
1688552596.1833699,-0.9161924719810486,-1.803562879562378,0.05160570144659005,0
1688552596.1935177,-0.9140653610229492,-1.8026607036590576,0.07110834121711207,0
1688552596.2037911,-0.9142856001853944,-1.8024982213974,0.013768672943129445,0
1688552596.21398,-0.9133681654930116,-1.8036024570465088,-0.05896091461187325,0
1688552596.224496,-0.9129355549812316,-1.8013200759887695,-0.0692963600159402,0
1688552596.234898,-0.913846790790558,-1.7999523878097534,-0.043213367462200836,0
1688552596.2450886,-0.9135254621505736,-1.798930525779724,-0.0053048133854076696,0
1688552596.2552798,-0.91385817527771,-1.798960566520691,0.0017523765560838456,0
1688552596.2655087,-0.9125844836235046,-1.7971135377883911,-0.020503997802777008,0
1688552596.2764983,-0.9126664996147156,-1.7969555854797363,0.006783008575453664,0
1688552596.2869725,-0.91343092918396,-1.7987080812454224,-0.06295442581181021,0
1688552596.2971478,-0.9124435782432556,-1.796228289604187,-0.06759166717534981,0
1688552596.3073096,-0.9127275347709656,-1.794485092163086,-0.00902414321899414,0
1688552596.3174853,-0.9125738739967346,-1.7953892946243286,-0.0553369522095295,0
1688552596.3280382,-0.9135820865631104,-1.7947890758514404,-0.013720989227309133,0
1688552596.3381789,-0.9133054614067078,-1.7942211627960205,-0.035262107849149515,0
1688552596.348352,-0.9134883880615234,-1.7933859825134275,-0.10466575622568541,0
1688552596.3584993,-0.9126999974250792,-1.7947062253952026,-0.07058382034308863,0
1688552596.3686392,-0.9136233925819396,-1.7950712442398071,-0.03410577774050694,0
1688552596.378779,-0.9133449196815492,-1.7951486110687256,-0.11866092681894713,0
1688552596.388969,-0.9118728041648864,-1.794784665107727,-0.09568929672249737,0
1688552596.3991344,-0.9129931926727296,-1.7937884330749512,-0.07140636444098902,0
1688552596.4092698,-0.9119437336921692,-1.7940553426742554,-0.10664463043222838,0
1688552596.4194565,-0.9121633768081664,-1.7941347360610962,-0.02564191818240147,0
1688552596.430825,-0.9124333262443542,-1.79279363155365,-0.029349327087430765,0
1688552596.4410102,-0.9138621091842652,-1.7933123111724854,-0.08451938629157496,0
1688552596.451257,-0.914752185344696,-1.793185114860535,-0.09772777557384416,0
1688552596.4617665,-0.9150985479354858,-1.7937417030334473,0.013899803161635305,0
1688552596.4720256,-0.915701985359192,-1.792079210281372,0.07597208023081237,0
1688552596.482355,-0.9161444902420044,-1.789271116256714,0.030612945556669047,0
1688552596.4927015,-0.9149012565612792,-1.7899973392486572,-0.02340078353884678,0
1688552596.5029542,-0.914309561252594,-1.7911643981933594,-0.07064342498719611,0
1688552596.5131688,-0.9147548675537108,-1.7933791875839231,0.06937980652089948,0
1688552596.5234435,-0.9154927134513856,-1.791314959526062,0.14432668685927297,0
1688552596.533622,-0.9175586104393004,-1.7916032075881958,0.16777515411388322,0
1688552596.5438032,-0.9172549843788148,-1.7906785011291504,0.09572505950936261,0
1688552596.5539873,-0.9172387719154358,-1.7894885540008545,-0.10255575180060816,0
1688552596.5643213,-0.9182007312774658,-1.7905293703079224,-0.03836154937748404,0
1688552596.5745292,-0.9175381660461426,-1.7900956869125366,0.02640485763552647,0
1688552596.5847294,-0.9175563454627992,-1.7907862663269043,0.010991096496596242,0
1688552596.5949035,-0.9175716042518616,-1.7906296253204346,-0.03709793090824576,0
1688552596.6050937,-0.9184326529502868,-1.789824366569519,-0.04247426986698599,0
1688552596.6154265,-0.9183651804924012,-1.7887017726898191,-0.013685226440443898,0
1688552596.6256607,-0.9173890352249146,-1.7891465425491333,-0.007700920104980469,0
1688552596.6359851,-0.9172956943511964,-1.7885268926620483,0.03533363342286577,0
1688552596.6462479,-0.91729074716568,-1.788648247718811,0.0209331512451314,0
1688552596.6564271,-0.9175899028778076,-1.7867348194122314,0.04779100418099347,0
1688552596.666643,-0.9178937673568726,-1.786173939704895,0.01634359359742632,0
1688552596.6770246,-0.916588544845581,-1.784993052482605,-0.09398460388193541,0
1688552596.687312,-0.916293442249298,-1.7848845720291138,-0.06835460662847481,0
1688552596.6974883,-0.915884017944336,-1.7842289209365845,-0.11986494064342423,0
1688552596.707711,-0.914961874485016,-1.784721851348877,-0.14319419860852634,0
1688552596.7178683,-0.9155248403549194,-1.785646677017212,-0.07982254028327418,0
1688552596.7280176,-0.915971577167511,-1.785444974899292,-0.06554126739509059,0
1688552596.7381887,-0.9171705842018129,-1.785688400268555,-0.04795789718632193,0
1688552596.748366,-0.9167224764823914,-1.7849817276000977,-0.1639842987061968,0
1688552596.7585144,-0.9153903722763062,-1.7847650051116943,-0.15572309494071135,0
1688552596.7687657,-0.9155347943305968,-1.785802721977234,-0.10349750518783196,0
1688552596.779079,-0.914646565914154,-1.785540223121643,-0.08883476257329903,0
1688552596.789269,-0.9137129187583924,-1.7867528200149536,-0.004351139068631937,0
1688552596.799474,-0.914110541343689,-1.784529209136963,0.041687488555922414,0
1688552596.8099785,-0.9132481217384338,-1.7829031944274902,-0.02708435058596592,0
1688552596.820637,-0.91249680519104,-1.7813951969146729,-0.1865029335023678,0
1688552596.8308482,-0.9113340377807616,-1.7795031070709229,-0.15702247619643117,0
1688552596.8410897,-0.911587655544281,-1.7790231704711914,-0.03842115402224522,0
1688552596.8513448,-0.9117366671562196,-1.779257893562317,0.047671794891400054,0
1688552596.8614933,-0.9126793146133424,-1.779510259628296,0.04509687423708897,0
1688552596.871647,-0.9133530855178832,-1.779841661453247,-0.0746250152588317,0
1688552596.88179,-0.9138733148574828,-1.780245065689087,-0.09459257125863019,0
1688552596.8920135,-0.914547324180603,-1.7803750038146973,0.03895759582520952,0
1688552596.9023333,-0.91477632522583,-1.7794487476348877,0.05296468734746895,0
1688552596.9125962,-0.9143067598342896,-1.77856707572937,-0.03790855407717686,0
1688552596.9228034,-0.9148830771446228,-1.777633786201477,-0.0542998313904377,0
1688552596.9330232,-0.9148244261741638,-1.77736234664917,-0.05084276199346505,0
1688552596.943306,-0.9160704016685486,-1.7764251232147217,-0.04560947418217154,0
1688552596.9534721,-0.9148738980293274,-1.7764616012573242,-0.00247955322265625,0
1688552596.9636514,-0.9153882265090942,-1.7767740488052368,0.02797842025759678,0
1688552596.9738355,-0.9164311289787292,-1.7764071226119995,0.0034809112548828125,0
1688552596.9839582,-0.91579931974411,-1.7760725021362305,-0.02511739730836382,0
1688552596.994111,-0.9160396456718444,-1.7750622034072876,-0.07625818252569161,0
1688552597.0042894,-0.914884388446808,-1.7737910747528076,-0.009083747863783742,0
1688552597.0144985,-0.9141886830329896,-1.7740216255187988,0.01020431518696796,0
1688552597.0247104,-0.9129862189292908,-1.7735410928726196,-0.023543834685270326,0
1688552597.0348802,-0.9143166542053224,-1.7736859321594238,0.013768672943101024,0
1688552597.0450518,-0.9143689274787904,-1.7727044820785522,0.02430677413943272,0
1688552597.0552034,-0.9145869612693788,-1.7723325490951538,0.05154609680182887,0
1688552597.0653863,-0.9134868383407592,-1.7733285427093506,0.07067918777470084,0
1688552597.0755703,-0.91398286819458,-1.773410439491272,0.06434917449956856,0
1688552597.0857203,-0.9130013585090636,-1.7736543416976929,0.07337331771859112,0
1688552597.0961847,-0.914107620716095,-1.7728583812713623,0.09138584136971417,0
1688552597.1065426,-0.9131292700767516,-1.771939039230347,0.040543079376263336,0
1688552597.11677,-0.9133234024047852,-1.7714072465896606,0.0034213066101216327,0
1688552597.126947,-0.9126310348510742,-1.7717678546905518,-0.013411045074477101,0
1688552597.1371,-0.9140413999557496,-1.770545244216919,0.012278556823730469,0
1688552597.1473033,-0.9126916527748108,-1.7712130546569824,-0.0007510185241699219,0
1688552597.1577017,-0.9129049181938172,-1.770815134048462,-0.03172159194949131,0
1688552597.1682093,-0.9134563207626344,-1.7714732885360718,-0.048553943634075836,0
1688552597.178396,-0.914204239845276,-1.772060513496399,-0.09305477142342511,0
1688552597.18865,-0.9125216603279114,-1.7728211879730225,-0.02187490463259678,0
1688552597.1988182,-0.9124086499214172,-1.7743000984191897,-0.028526782989516164,0
1688552597.2090075,-0.9125816226005554,-1.7730305194854736,-0.05649328231815787,0
1688552597.2192147,-0.9111967086791992,-1.7721682786941528,-0.01176595687866211,0
1688552597.2297146,-0.9127420783042908,-1.771105170249939,0.021338462829604055,0
1688552597.2398932,-0.9126211404800416,-1.7716341018676758,-0.06753206253060284,0
1688552597.250115,-0.9124722480773926,-1.7724723815917969,-0.06902217864995919,0
1688552597.2604437,-0.9120997786521912,-1.771471619606018,-0.009274482727079203,0
1688552597.2708478,-0.9127824306488036,-1.770720601081848,-0.05568265914868675,0
1688552597.281086,-0.9128140211105348,-1.7716203927993774,0.030052661897286725,0
1688552597.2912986,-0.9127970337867736,-1.7736449241638184,0.0732183456421609,0
1688552597.3017223,-0.9121700525283812,-1.7739547491073608,-0.05333423614504795,0
1688552597.3118722,-0.911976993083954,-1.774723768234253,-0.0251889228821085,0
1688552597.3220398,-0.9114144444465636,-1.7751824855804443,0.12316703796396666,0
1688552597.3321838,-0.9110208749771118,-1.7753041982650757,0.0594258308411213,0
1688552597.3423648,-0.9108448028564452,-1.775105595588684,0.008237361907987406,0
1688552597.3525846,-0.9099780917167664,-1.775836706161499,-0.02810955047610264,0
1688552597.362766,-0.910368800163269,-1.775595784187317,-0.01437664031983843,0
1688552597.3729246,-0.9112144708633424,-1.7749847173690796,0.015306472778334523,0
1688552597.3830898,-0.9107904434204102,-1.773850679397583,-0.026667118072538187,0
1688552597.3932445,-0.911072075366974,-1.7745628356933594,-0.013649463653578664,0
1688552597.403415,-0.9120448231697084,-1.7760354280471802,-0.05378723144535513,0
1688552597.4135642,-0.9118541479110718,-1.776167869567871,-0.09740591049202862,0
1688552597.4238644,-0.911832332611084,-1.7745425701141355,-0.06906986236579371,0
1688552597.4341931,-0.9097787141799928,-1.7741461992263794,-0.033164024353055765,0
1688552597.44436,-0.90892893075943,-1.7739180326461792,-0.026929378509535695,0
1688552597.4547257,-0.9083165526390076,-1.7752177715301514,-0.039660930633587554,0
1688552597.4650457,-0.9078957438468932,-1.7749401330947876,0.03550052642825108,0
1688552597.4753802,-0.907208263874054,-1.7737118005752563,0.06452798843390894,0
1688552597.485544,-0.9071835875511168,-1.7740203142166138,-0.04210472106937857,0
1688552597.4957407,-0.9060171246528624,-1.7719156742095947,-0.0810146331787962,0
1688552597.5059316,-0.9050780534744264,-1.7697491645812988,-0.033211708068847656,0
1688552597.516349,-0.9053716659545898,-1.7680566310882568,0.005054473876967336,0
1688552597.5266035,-0.9050257205963136,-1.768128752708435,-0.09396076202099835,0
1688552597.5368114,-0.9040973782539368,-1.7699180841445925,-0.025606155391713514,0
1688552597.5471923,-0.9046685695648192,-1.7705012559890747,0.04019737243658028,0
1688552597.557655,-0.9030141234397888,-1.7712584733963013,0.021219253540053273,0
1688552597.5680156,-0.902961254119873,-1.7707066535949707,0.08548498153692208,0
1688552597.578202,-0.9025320410728456,-1.770167589187622,0.04490613937385035,0
1688552597.5883667,-0.901682436466217,-1.769031047821045,-0.08447170257575465,0
1688552597.59859,-0.9015597701072692,-1.7685672044754028,-0.11042356491101657,0
1688552597.608777,-0.9006313681602478,-1.7682565450668335,-0.009834766387953664,0
1688552597.6189616,-0.9015352129936218,-1.7684533596038818,0.01418590545655718,0
1688552597.629139,-0.9008029103279114,-1.7669694423675537,0.015366077423109914,0
1688552597.6392903,-0.9017300009727478,-1.7678372859954834,0.026059150695829203,0
1688552597.6494555,-0.9036315679550172,-1.76721453666687,0.015473365783705617,0
1688552597.6596441,-0.9035463333129884,-1.7656883001327517,-0.012958049774184133,0
1688552597.6699677,-0.9036385416984558,-1.7665979862213137,-0.01889467239381304,0
1688552597.6802657,-0.904133677482605,-1.766487956047058,-0.008428096771254445,0
1688552597.6904304,-0.9045108556747437,-1.7662827968597412,-0.028634071350126078,0
1688552597.7005744,-0.9053011536598206,-1.767447829246521,0.0641584396362731,0
1688552597.7107763,-0.9046543836593628,-1.7659766674041748,0.05741119384771309,0
1688552597.721123,-0.9056642651557922,-1.7658895254135132,0.026082992553781992,0
1688552597.731263,-0.9066845178604126,-1.7660927772521973,-0.032973289489788726,0
1688552597.741455,-0.9068199992179872,-1.7651811838150024,-0.03035068511968575,0
1688552597.75162,-0.9073266983032228,-1.767277717590332,0.02326965332034092,0
1688552597.7618115,-0.907684862613678,-1.7661617994308472,0.05832910537725411,0
1688552597.771989,-0.9072075486183168,-1.7655065059661863,0.0711441040039773,0
1688552597.7821352,-0.9069352746009828,-1.7661738395690918,-0.0388264656064905,0
1688552597.792285,-0.906493067741394,-1.766432285308838,0.021517276764853932,16753
1688552597.8026173,-0.905569851398468,-1.7677267789840698,0.06824731826787911,17424
1688552597.812775,-0.9053421020507812,-1.7664482593536377,0.06073713302617989,18092
1688552597.8229485,-0.90522563457489,-1.7662845849990845,0.04782676696781607,18763
1688552597.8331532,-0.9054200053215028,-1.7666140794754028,-0.25303363800071565,19433
1688552597.84337,-0.904936909675598,-1.767676591873169,-0.282621383667248,20104
1688552597.8536038,-0.9089755415916444,-1.7663183212280271,0.35694837570221694,20104
1688552597.8638647,-0.9056083559989928,-1.7680705785751345,0.26825666427636463,20774
1688552597.8740869,-0.9076449871063232,-1.7637122869491575,-0.48407316207929796,20774
1688552597.8842728,-0.90690279006958,-1.7625682353973389,-0.11817216873178893,20774
1688552597.894434,-0.9113621115684508,-1.764122486114502,0.2176284790041052,21445
1688552597.9046788,-0.908275544643402,-1.7623120546340942,-0.22869110107446033,21445
1688552597.9149473,-0.9016278386116028,-1.7680689096450806,-0.030696392059354594,22113
1688552597.925128,-0.9070361852645874,-1.7602026462554932,0.1526951789857378,22113
1688552597.9353096,-0.9142943620681764,-1.757805585861206,0.015425682067871094,22784
1688552597.9454923,-0.9056704640388488,-1.7631739377975464,-0.0053524971007874456,22572
1688552597.9558609,-0.9050323963165284,-1.7710678577423096,-0.09282827377326441,22784
1688552597.9661326,-0.9090980887413024,-1.7683378458023071,-0.2584695816042597,22564
1688552597.976348,-0.906388223171234,-1.76746928691864,-0.6797552108770759,22784
1688552597.9865475,-0.8941142559051514,-1.776599645614624,-0.9409785270699444,22576
1688552597.9969542,-0.8893808126449585,-1.7802271842956543,-0.8602261543281742,22784
1688552598.0073912,-0.8981638550758362,-1.7721796035766602,-1.701211929322838,22784
1688552598.0175502,-0.8996759057044983,-1.767971754074097,-1.992201805116565,22576
1688552598.0277097,-0.8850902915000916,-1.7824161052703855,-1.5741825103774119,22576
1688552598.0378966,-0.8892656564712524,-1.7790602445602417,-1.5942096710070075,22784
1688552598.048059,-0.880260169506073,-1.782981038093567,-0.6799697875729294,22784
1688552598.0583153,-0.8896649479866028,-1.7729356288909912,-0.05899667739872427,22784
1688552598.0685294,-0.8956032991409302,-1.7640703916549685,0.29842853546171,22569
1688552598.0787477,-0.9081153869628906,-1.7472991943359375,-0.19836425781268474,22784
1688552792.8830616,-0.903614342212677,-1.805625438690185,-0.03013610839846491,0
1688552792.8945863,-0.9036774039268494,-1.8045696020126345,0.07407665252691231,0
1688552792.9064202,-0.9045224785804749,-1.8039380311965945,0.07481575012212716,0
1688552792.9195669,-0.9024478793144226,-1.8025387525558472,-0.014650821685805226,0
1688552792.9298456,-0.9013687372207642,-1.802273154258728,0.04038810729984732,0
1688552792.939989,-0.9018939733505248,-1.804124116897583,-0.04434585571293326,0
1688552792.950199,-0.9024816155433656,-1.8050729036331177,-0.11454820632944518,0
1688552792.9608693,-0.902460277080536,-1.8045557737350464,-0.06419420242315255,0
1688552792.9710715,-0.9028743505477904,-1.803678035736084,-0.09932518005381041,0
1688552792.9815145,-0.90272855758667,-1.804364562034607,-0.14028549194350148,0
1688552792.9917514,-0.9033501148223876,-1.804756760597229,-0.1177549362183612,0
1688552793.0019495,-0.903896689414978,-1.8049955368041992,-0.10275840759284449,0
1688552793.012377,-0.9045398235321044,-1.806490898132324,-0.15416145324721242,0
1688552793.0225556,-0.9047788977622986,-1.807517170906067,-0.05557537078863106,0
1688552793.0326982,-0.904921293258667,-1.8077735900878904,0.013017654418973734,0
1688552793.0429053,-0.9048472046852112,-1.808822512626648,-0.06585121154793683,0
1688552793.0531182,-0.9036523699760436,-1.8090357780456543,0.019049644470214844,0
1688552793.0640981,-0.9047278761863708,-1.809116005897522,-0.03281831741333008,0
1688552793.0743077,-0.9046361446380616,-1.8091723918914795,-0.20028352737445232,0
1688552793.0844781,-0.9051668643951416,-1.8101810216903689,-0.10594129562385035,0
1688552793.0946496,-0.9058319330215454,-1.8107539415359497,0.03458261489871006,0
1688552793.104817,-0.9058963060379028,-1.8116158246994016,0.010836124420151805,0
1688552793.1149654,-0.905215620994568,-1.812871336936951,-0.1161694526673358,0
1688552793.1252306,-0.9056113362312316,-1.8120098114013672,-0.13109445571912204,0
1688552793.135427,-0.9057121872901917,-1.8119724988937376,-0.07940530776882326,0
1688552793.1455984,-0.9052063226699828,-1.81224262714386,0.004041194917761004,0
1688552793.155781,-0.9046480059623718,-1.8128623962402344,0.05416870117190342,0
1688552793.166027,-0.9054326415061952,-1.811032056808472,0.07699728012090645,0
1688552793.1762424,-0.9053996205329896,-1.8100184202194212,0.03563165664678536,0
1688552793.1868107,-0.9052743315696716,-1.809103012084961,-0.06537437438969107,0
1688552793.19698,-0.9064542651176452,-1.8084139823913572,-0.05090236663824044,0
1688552793.2076359,-0.9055224657058716,-1.806580901145935,-0.026929378509564117,0
1688552793.2178123,-0.9055594801902772,-1.807450294494629,0.03083944320681553,0
1688552793.2279773,-0.9053072929382324,-1.8076419830322263,-0.018167495727553273,0
1688552793.2385607,-0.905906617641449,-1.8089194297790527,-0.05856752395635567,0
1688552793.2487392,-0.9062002301216124,-1.8072774410247805,-0.06492137908942652,0
1688552793.2589767,-0.9065966606140136,-1.8076376914978027,-0.08279085159310284,0
1688552793.2692149,-0.9064683318138124,-1.806675910949707,-0.00883340835571289,0
1688552793.2793708,-0.907582938671112,-1.8047493696212769,0.04985332489017935,0
1688552793.2895176,-0.9083985090255736,-1.8067257404327397,-0.0043392181396484375,0
1688552793.2998207,-0.9090290069580078,-1.8076379299163816,-0.0019431114196635235,0
1688552793.3099654,-0.909798502922058,-1.8056029081344604,0.05507469177250357,0
1688552793.3207762,-0.91019207239151,-1.8058704137802124,-0.0031113624573038123,0
1688552793.3309698,-0.911909282207489,-1.8056386709213257,0.025284290313749125,0
1688552793.3411942,-0.9123522639274596,-1.8070425987243648,0.055503845214929015,0
1688552793.3514996,-0.913681149482727,-1.807361364364624,-0.0558257102966877,0
1688552793.362448,-0.912818193435669,-1.8064547777175903,-0.0411748886109109,0
1688552793.372687,-0.9127113819122314,-1.8064032793045044,0.051355361938519195,0
1688552793.383094,-0.9126026630401612,-1.806597590446472,0.07836818695078307,0
1688552793.3932922,-0.9139081239700316,-1.8046950101852417,-0.0058054923984229845,0
1688552793.4036787,-0.9139997959136964,-1.80512273311615,-0.14761686324976608,0
1688552793.413847,-0.915093183517456,-1.8056892156600952,-0.055110454559368804,0
1688552793.4240198,-0.9133951663970948,-1.8055154085159304,0.045502185821561625,0
1688552793.4342563,-0.9133265018463136,-1.8067868947982788,0.04178285598756304,0
1688552793.4445026,-0.9134931564331056,-1.8069069385528564,-0.026512145996136383,0
1688552793.4546702,-0.913323700428009,-1.8065519332885744,-0.10577440261849347,0
1688552793.4648585,-0.91277676820755,-1.8068209886550903,-0.08134841918949576,0
1688552793.4750335,-0.9133528470993042,-1.806753754615784,-0.04221200942996006,0
1688552793.4852176,-0.912764847278595,-1.8070005178451536,-0.037372112274212554,0
1688552793.4959362,-0.9131420850753784,-1.806995749473572,0.02926588058474522,0
1688552793.5061269,-0.912152111530304,-1.8076735734939573,0.0888109207154173,0
1688552793.5163462,-0.9134600758552552,-1.8061747550964355,0.009524822235107422,0
1688552793.5271213,-0.9137229323387146,-1.805016040802002,-0.04146099090580435,0
1688552793.537311,-0.9140828847885132,-1.8041523694992063,-0.05699396133427115,0
1688552793.5477107,-0.915158987045288,-1.80416476726532,-0.12054443359386369,0
1688552793.557916,-0.9146324396133424,-1.802384614944458,-0.07547140121467066,0
1688552793.568062,-0.9148591160774232,-1.802741289138794,0.03020763397219639,0
1688552793.5782611,-0.9156492948532104,-1.8030264377593996,0.0401735305786417,0
1688552793.5885127,-0.9161924719810486,-1.803562879562378,0.05160570144659005,0
1688552793.5990999,-0.9140653610229492,-1.8026607036590576,0.07110834121711207,0
1688552793.6093662,-0.9142856001853944,-1.8024982213974,0.013768672943129445,0
1688552793.6200116,-0.9133681654930116,-1.8036024570465088,-0.05896091461187325,0
1688552793.6302466,-0.9129355549812316,-1.8013200759887695,-0.0692963600159402,0
1688552793.6404235,-0.913846790790558,-1.7999523878097534,-0.043213367462200836,0
1688552793.6506252,-0.9135254621505736,-1.798930525779724,-0.0053048133854076696,0
1688552793.661008,-0.91385817527771,-1.798960566520691,0.0017523765560838456,0
1688552793.6714852,-0.9125844836235046,-1.7971135377883911,-0.020503997802777008,0
1688552793.6823802,-0.9126664996147156,-1.7969555854797363,0.006783008575453664,0
1688552793.6925797,-0.91343092918396,-1.7987080812454224,-0.06295442581181021,0
1688552793.7031088,-0.9124435782432556,-1.796228289604187,-0.06759166717534981,0
1688552793.713281,-0.9127275347709656,-1.794485092163086,-0.00902414321899414,0
1688552793.7234762,-0.9125738739967346,-1.7953892946243286,-0.0553369522095295,0
1688552793.7336478,-0.9135820865631104,-1.7947890758514404,-0.013720989227309133,0
1688552793.7438333,-0.9133054614067078,-1.7942211627960205,-0.035262107849149515,0
1688552793.7544968,-0.9134883880615234,-1.7933859825134275,-0.10466575622568541,0
1688552793.7646842,-0.9126999974250792,-1.7947062253952026,-0.07058382034308863,0
1688552793.7748556,-0.9136233925819396,-1.7950712442398071,-0.03410577774050694,0
1688552793.7850509,-0.9133449196815492,-1.7951486110687256,-0.11866092681894713,0
1688552793.7957578,-0.9118728041648864,-1.794784665107727,-0.09568929672249737,0
1688552793.8059435,-0.9129931926727296,-1.7937884330749512,-0.07140636444098902,0
1688552793.816076,-0.9119437336921692,-1.7940553426742554,-0.10664463043222838,0
1688552793.826261,-0.9121633768081664,-1.7941347360610962,-0.02564191818240147,0
1688552793.8365798,-0.9124333262443542,-1.79279363155365,-0.029349327087430765,0
1688552793.8468096,-0.9138621091842652,-1.7933123111724854,-0.08451938629157496,0
1688552793.857474,-0.914752185344696,-1.793185114860535,-0.09772777557384416,0
1688552793.8676383,-0.9150985479354858,-1.7937417030334473,0.013899803161635305,0
1688552793.8785408,-0.915701985359192,-1.792079210281372,0.07597208023081237,0
1688552793.8888636,-0.9161444902420044,-1.789271116256714,0.030612945556669047,0
1688552793.899115,-0.9149012565612792,-1.7899973392486572,-0.02340078353884678,0
1688552793.9093535,-0.914309561252594,-1.7911643981933594,-0.07064342498719611,0
1688552793.9196656,-0.9147548675537108,-1.7933791875839231,0.06937980652089948,0
1688552793.9299219,-0.9154927134513856,-1.791314959526062,0.14432668685927297,0
1688552793.9401157,-0.9175586104393004,-1.7916032075881958,0.16777515411388322,0
1688552793.9503407,-0.9172549843788148,-1.7906785011291504,0.09572505950936261,0
1688552793.960539,-0.9172387719154358,-1.7894885540008545,-0.10255575180060816,0
1688552793.970736,-0.9182007312774658,-1.7905293703079224,-0.03836154937748404,0
1688552793.9809399,-0.9175381660461426,-1.7900956869125366,0.02640485763552647,0
1688552793.991325,-0.9175563454627992,-1.7907862663269043,0.010991096496596242,0
1688552794.0015037,-0.9175716042518616,-1.7906296253204346,-0.03709793090824576,0
1688552794.011746,-0.9184326529502868,-1.789824366569519,-0.04247426986698599,0
1688552794.0219545,-0.9183651804924012,-1.7887017726898191,-0.013685226440443898,0
1688552794.0321376,-0.9173890352249146,-1.7891465425491333,-0.007700920104980469,0
1688552794.042318,-0.9172956943511964,-1.7885268926620483,0.03533363342286577,0
1688552794.0525436,-0.91729074716568,-1.788648247718811,0.0209331512451314,0
1688552794.062827,-0.9175899028778076,-1.7867348194122314,0.04779100418099347,0
1688552794.0730267,-0.9178937673568726,-1.786173939704895,0.01634359359742632,0
1688552794.0831919,-0.916588544845581,-1.784993052482605,-0.09398460388193541,0
1688552794.0933664,-0.916293442249298,-1.7848845720291138,-0.06835460662847481,0
1688552794.1035488,-0.915884017944336,-1.7842289209365845,-0.11986494064342423,0
1688552794.1137252,-0.914961874485016,-1.784721851348877,-0.14319419860852634,0
1688552794.1239128,-0.9155248403549194,-1.785646677017212,-0.07982254028327418,0
1688552794.1341012,-0.915971577167511,-1.785444974899292,-0.06554126739509059,0
1688552794.1444159,-0.9171705842018129,-1.785688400268555,-0.04795789718632193,0
1688552794.1548212,-0.9167224764823914,-1.7849817276000977,-0.1639842987061968,0
1688552794.164984,-0.9153903722763062,-1.7847650051116943,-0.15572309494071135,0
1688552794.1751518,-0.9155347943305968,-1.785802721977234,-0.10349750518783196,0
1688552794.1853137,-0.914646565914154,-1.785540223121643,-0.08883476257329903,0
1688552794.1954844,-0.9137129187583924,-1.7867528200149536,-0.004351139068631937,0
1688552794.205647,-0.914110541343689,-1.784529209136963,0.041687488555922414,0
1688552794.2159176,-0.9132481217384338,-1.7829031944274902,-0.02708435058596592,0
1688552794.2261636,-0.91249680519104,-1.7813951969146729,-0.1865029335023678,0
1688552794.2365592,-0.9113340377807616,-1.7795031070709229,-0.15702247619643117,0
1688552794.2467306,-0.911587655544281,-1.7790231704711914,-0.03842115402224522,0
1688552794.2569149,-0.9117366671562196,-1.779257893562317,0.047671794891400054,0
1688552794.2670481,-0.9126793146133424,-1.779510259628296,0.04509687423708897,0
1688552794.277301,-0.9133530855178832,-1.779841661453247,-0.0746250152588317,0
1688552794.2875662,-0.9138733148574828,-1.780245065689087,-0.09459257125863019,0
1688552794.2979267,-0.914547324180603,-1.7803750038146973,0.03895759582520952,0
1688552794.3085048,-0.91477632522583,-1.7794487476348877,0.05296468734746895,0
1688552794.3187218,-0.9143067598342896,-1.77856707572937,-0.03790855407717686,0
1688552794.328925,-0.9148830771446228,-1.777633786201477,-0.0542998313904377,0
1688552794.3391142,-0.9148244261741638,-1.77736234664917,-0.05084276199346505,0
1688552794.3493457,-0.9160704016685486,-1.7764251232147217,-0.04560947418217154,0
1688552794.359527,-0.9148738980293274,-1.7764616012573242,-0.00247955322265625,0
1688552794.369671,-0.9153882265090942,-1.7767740488052368,0.02797842025759678,0
1688552794.3798652,-0.9164311289787292,-1.7764071226119995,0.0034809112548828125,0
1688552794.390476,-0.91579931974411,-1.7760725021362305,-0.02511739730836382,0
1688552794.400633,-0.9160396456718444,-1.7750622034072876,-0.07625818252569161,0
1688552794.4107864,-0.914884388446808,-1.7737910747528076,-0.009083747863783742,0
1688552794.4209378,-0.9141886830329896,-1.7740216255187988,0.01020431518696796,0
1688552794.4311235,-0.9129862189292908,-1.7735410928726196,-0.023543834685270326,0
1688552794.441467,-0.9143166542053224,-1.7736859321594238,0.013768672943101024,0
1688552794.4517705,-0.9143689274787904,-1.7727044820785522,0.02430677413943272,0
1688552794.4619703,-0.9145869612693788,-1.7723325490951538,0.05154609680182887,0
1688552794.4721308,-0.9134868383407592,-1.7733285427093506,0.07067918777470084,0
1688552794.482318,-0.91398286819458,-1.773410439491272,0.06434917449956856,0
1688552794.492496,-0.9130013585090636,-1.7736543416976929,0.07337331771859112,0
1688552794.5028422,-0.914107620716095,-1.7728583812713623,0.09138584136971417,0
1688552794.513033,-0.9131292700767516,-1.771939039230347,0.040543079376263336,0
1688552794.523385,-0.9133234024047852,-1.7714072465896606,0.0034213066101216327,0
1688552794.5336444,-0.9126310348510742,-1.7717678546905518,-0.013411045074477101,0
1688552794.5439498,-0.9140413999557496,-1.770545244216919,0.012278556823730469,0
1688552794.554198,-0.9126916527748108,-1.7712130546569824,-0.0007510185241699219,0
1688552794.564638,-0.9129049181938172,-1.770815134048462,-0.03172159194949131,0
1688552794.5748236,-0.9134563207626344,-1.7714732885360718,-0.048553943634075836,0
1688552794.5850122,-0.914204239845276,-1.772060513496399,-0.09305477142342511,0
1688552794.5952241,-0.9125216603279114,-1.7728211879730225,-0.02187490463259678,0
1688552794.6053772,-0.9124086499214172,-1.7743000984191897,-0.028526782989516164,0
1688552794.6155336,-0.9125816226005554,-1.7730305194854736,-0.05649328231815787,0
1688552794.6257749,-0.9111967086791992,-1.7721682786941528,-0.01176595687866211,0
1688552794.6359816,-0.9127420783042908,-1.771105170249939,0.021338462829604055,0
1688552794.6465385,-0.9126211404800416,-1.7716341018676758,-0.06753206253060284,0
1688552794.6567693,-0.9124722480773926,-1.7724723815917969,-0.06902217864995919,0
1688552794.6669638,-0.9120997786521912,-1.771471619606018,-0.009274482727079203,0
1688552794.6771586,-0.9127824306488036,-1.770720601081848,-0.05568265914868675,0
1688552794.6873474,-0.9128140211105348,-1.7716203927993774,0.030052661897286725,0
1688552794.6975832,-0.9127970337867736,-1.7736449241638184,0.0732183456421609,0
1688552794.7077525,-0.9121700525283812,-1.7739547491073608,-0.05333423614504795,0
1688552794.7179723,-0.911976993083954,-1.774723768234253,-0.0251889228821085,0
1688552794.728284,-0.9114144444465636,-1.7751824855804443,0.12316703796396666,0
1688552794.7385757,-0.9110208749771118,-1.7753041982650757,0.0594258308411213,0
1688552794.7487679,-0.9108448028564452,-1.775105595588684,0.008237361907987406,0
1688552794.759029,-0.9099780917167664,-1.775836706161499,-0.02810955047610264,0
1688552794.7691991,-0.910368800163269,-1.775595784187317,-0.01437664031983843,0
1688552794.7794068,-0.9112144708633424,-1.7749847173690796,0.015306472778334523,0
1688552794.789614,-0.9107904434204102,-1.773850679397583,-0.026667118072538187,0
1688552794.7999992,-0.911072075366974,-1.7745628356933594,-0.013649463653578664,0
1688552794.8102639,-0.9120448231697084,-1.7760354280471802,-0.05378723144535513,0
1688552794.820487,-0.9118541479110718,-1.776167869567871,-0.09740591049202862,0
1688552794.8307788,-0.911832332611084,-1.7745425701141355,-0.06906986236579371,0
1688552794.8409584,-0.9097787141799928,-1.7741461992263794,-0.033164024353055765,0
1688552794.8511267,-0.90892893075943,-1.7739180326461792,-0.026929378509535695,0
1688552794.86138,-0.9083165526390076,-1.7752177715301514,-0.039660930633587554,0
1688552794.8717155,-0.9078957438468932,-1.7749401330947876,0.03550052642825108,0
1688552794.8818944,-0.907208263874054,-1.7737118005752563,0.06452798843390894,0
1688552794.8922646,-0.9071835875511168,-1.7740203142166138,-0.04210472106937857,0
1688552794.9025917,-0.9060171246528624,-1.7719156742095947,-0.0810146331787962,0
1688552794.9127913,-0.9050780534744264,-1.7697491645812988,-0.033211708068847656,0
1688552794.9229639,-0.9053716659545898,-1.7680566310882568,0.005054473876967336,0
1688552794.933156,-0.9050257205963136,-1.768128752708435,-0.09396076202099835,0
1688552794.9433255,-0.9040973782539368,-1.7699180841445925,-0.025606155391713514,0
1688552794.9535644,-0.9046685695648192,-1.7705012559890747,0.04019737243658028,0
1688552794.9638228,-0.9030141234397888,-1.7712584733963013,0.021219253540053273,0
1688552794.9739943,-0.902961254119873,-1.7707066535949707,0.08548498153692208,0
1688552794.984143,-0.9025320410728456,-1.770167589187622,0.04490613937385035,0
1688552794.9943082,-0.901682436466217,-1.769031047821045,-0.08447170257575465,0
1688552795.0044918,-0.9015597701072692,-1.7685672044754028,-0.11042356491101657,0
1688552795.0146685,-0.9006313681602478,-1.7682565450668335,-0.009834766387953664,0
1688552795.0248132,-0.9015352129936218,-1.7684533596038818,0.01418590545655718,0
1688552795.0349486,-0.9008029103279114,-1.7669694423675537,0.015366077423109914,0
1688552795.0452785,-0.9017300009727478,-1.7678372859954834,0.026059150695829203,0
1688552795.055466,-0.9036315679550172,-1.76721453666687,0.015473365783705617,0
1688552795.0656264,-0.9035463333129884,-1.7656883001327517,-0.012958049774184133,0
1688552795.076004,-0.9036385416984558,-1.7665979862213137,-0.01889467239381304,0
1688552795.0862834,-0.904133677482605,-1.766487956047058,-0.008428096771254445,0
1688552795.0964618,-0.9045108556747437,-1.7662827968597412,-0.028634071350126078,0
1688552795.106647,-0.9053011536598206,-1.767447829246521,0.0641584396362731,0
1688552795.1170616,-0.9046543836593628,-1.7659766674041748,0.05741119384771309,0
1688552795.1275482,-0.9056642651557922,-1.7658895254135132,0.026082992553781992,0
1688552795.1376884,-0.9066845178604126,-1.7660927772521973,-0.032973289489788726,0
1688552795.1483426,-0.9068199992179872,-1.7651811838150024,-0.03035068511968575,0
1688552795.1585548,-0.9073266983032228,-1.767277717590332,0.02326965332034092,0
1688552795.1688662,-0.907684862613678,-1.7661617994308472,0.05832910537725411,0
1688552795.1792269,-0.9072075486183168,-1.7655065059661863,0.0711441040039773,0
1688552795.1894164,-0.9069352746009828,-1.7661738395690918,-0.0388264656064905,0
1688552795.1997695,-0.906493067741394,-1.766432285308838,0.021517276764853932,16753
1688552795.2099516,-0.905569851398468,-1.7677267789840698,0.06824731826787911,17424
1688552795.2201016,-0.9053421020507812,-1.7664482593536377,0.06073713302617989,18092
1688552795.2302406,-0.90522563457489,-1.7662845849990845,0.04782676696781607,18763
1688552795.2403958,-0.9054200053215028,-1.7666140794754028,-0.25303363800071565,19433
1688552795.2508905,-0.904936909675598,-1.767676591873169,-0.282621383667248,20104
1688552795.2613525,-0.9089755415916444,-1.7663183212280271,0.35694837570221694,20104
1688552795.2715607,-0.9056083559989928,-1.7680705785751345,0.26825666427636463,20774
1688552795.2817254,-0.9076449871063232,-1.7637122869491575,-0.48407316207929796,20774
1688552795.291943,-0.90690279006958,-1.7625682353973389,-0.11817216873178893,20774
1688552795.3025808,-0.9113621115684508,-1.764122486114502,0.2176284790041052,21445
1688552795.312961,-0.908275544643402,-1.7623120546340942,-0.22869110107446033,21445
1688552795.3232586,-0.9016278386116028,-1.7680689096450806,-0.030696392059354594,22113
1688552795.3334239,-0.9070361852645874,-1.7602026462554932,0.1526951789857378,22113
1688552795.3436046,-0.9142943620681764,-1.757805585861206,0.015425682067871094,22784
1688552795.353785,-0.9056704640388488,-1.7631739377975464,-0.0053524971007874456,22572
1688552795.363957,-0.9050323963165284,-1.7710678577423096,-0.09282827377326441,22784
1688552795.3741338,-0.9090980887413024,-1.7683378458023071,-0.2584695816042597,22564
1688552795.3843594,-0.906388223171234,-1.76746928691864,-0.6797552108770759,22784
1688552795.39487,-0.8941142559051514,-1.776599645614624,-0.9409785270699444,22576
1688552795.4051085,-0.8893808126449585,-1.7802271842956543,-0.8602261543281742,22784
1688552795.415328,-0.8981638550758362,-1.7721796035766602,-1.701211929322838,22784
1688552795.4255316,-0.8996759057044983,-1.767971754074097,-1.992201805116565,22576
1688552795.4357018,-0.8850902915000916,-1.7824161052703855,-1.5741825103774119,22576
1688552795.4458447,-0.8892656564712524,-1.7790602445602417,-1.5942096710070075,22784
1688552795.4560091,-0.880260169506073,-1.782981038093567,-0.6799697875729294,22784
1688552795.4661973,-0.8896649479866028,-1.7729356288909912,-0.05899667739872427,22784
1688552795.4763823,-0.8956032991409302,-1.7640703916549685,0.29842853546171,22569
1688552795.4865992,-0.9081153869628906,-1.7472991943359375,-0.19836425781268474,22784
1688552795.4968743,-0.9038053154945374,-1.7559391260147097,-0.8187055587776086,22784
1688552795.5073972,-0.8867813348770142,-1.7758123874664309,0.02524852752688389,23454
1688552795.5177448,-0.872466504573822,-1.7982078790664673,-0.896596908570146,24795
1688552795.5282056,-0.8704282641410828,-1.7947025299072266,-0.5254507064824168,26804
1688552795.5388043,-0.8694930076599121,-1.7987850904464722,0.17356872558609382,26804
1688552795.5492682,-0.8827298879623413,-1.7836977243423462,-0.4708170890812369,27475
1688552795.559419,-0.9231732487678528,-1.74403977394104,0.6567120552068957,27475
1688552795.5698285,-0.9374496340751648,-1.7232435941696167,0.3522872924808098,28145
1688552795.5800123,-0.9474412202835084,-1.707184672355652,-0.4997014999394196,28145
1688552795.5902007,-0.9588544368743896,-1.6883784532546997,0.27030706405663807,28145
1688552795.6003315,-0.9420336484909058,-1.7123504877090454,0.777041912079568,28145
1688552795.6105068,-0.8984763622283936,-1.7562719583511353,0.6181478500371611,28816
1688552795.6207473,-0.8701601028442383,-1.7878293991088867,0.9993910789498841,29484
1688552795.6309862,-0.8836081624031067,-1.7714104652404783,1.5940785408034515,29484
1688552795.641269,-0.906088411808014,-1.7458436489105225,2.3225307464620926,30155
1688552795.651475,-0.9507676362991332,-1.701550841331482,2.65417098999265,30155
1688552795.6616685,-0.9648083448410034,-1.683810114860535,2.13416814804269,30825
1688552795.6721113,-0.9245470762252808,-1.7259254455566406,1.2626171112071773,30825
1688552795.6823301,-0.9011155366897584,-1.7532745599746704,0.36447048187288544,30825
1688552795.692475,-0.8457374572753906,-1.795832633972168,0.522708892822763,30825
1688552795.7026627,-0.8362200856208801,-1.8052364587783811,2.0126938819439033,30825
1688552795.7132165,-0.8094248175621033,-1.7582976818084717,2.9688954353003396,30825
1688552795.7236545,-0.7702199816703796,-1.700112223625183,3.5647511482270886,30825
1688552795.7339041,-0.7316904664039612,-1.5705387592315674,4.506492614750201,30825
1688552795.7441065,-0.7079077959060669,-1.4417370557785034,7.11854100228004,30825
1688552795.7543461,-0.6565981507301331,-1.1944609880447388,7.757329940802947,30825
1688552795.7647007,-0.612546980381012,-0.985085666179657,7.433265447623327,30825
1688552795.7749145,-0.4350265264511108,-0.6999840140342712,6.348145008092928,30825
1688552795.7851202,-0.2636276185512543,-0.5218310356140137,3.3680319786102473,30825
1688552795.7954512,0.0206186939030885,-0.2866905629634857,1.9398272037523867,30825
1688552795.8057358,0.2234234362840652,-0.1413457095623016,1.185131072999127,30825
1688552795.815959,0.5250576734542847,0.0914027094841003,0.9167373180397647,30825
1688552795.8261702,0.694987952709198,0.2775115966796875,0.5892455577855742,30825
1688552795.836537,0.889350950717926,0.595234751701355,0.4033088684085726,30825
1688552795.8468132,0.9790248870849608,0.795476496219635,-0.7211387157446865,30825
1688552795.8571367,0.9976702332496644,1.0091198682785034,-1.396977901460005,30825
1688552795.867438,0.9317967891693116,1.0922772884368896,-1.0891199111948282,31496
1688552795.8776362,0.8153501152992249,1.107733130455017,-1.185595989228375,31496
1688552795.8879855,0.5582800507545471,1.0416202545166016,-1.631295681001248,31496
1688552795.8981345,0.3866805136203766,0.9664689302444458,-2.7054488658929614,30825
1688552795.9082656,0.2075373381376266,0.8039437532424927,-3.3883094787628494,31496
1688552795.918409,0.1596096605062484,0.6736231446266174,-3.9448618888890934,31496
1688552795.928573,0.1907734721899032,0.5128265023231506,-3.7258446216617074,31496
1688552795.9387233,0.2992601990699768,0.4623509645462036,-3.2921552658110897,31496
1688552795.9488888,0.5132874846458435,0.4604105055332184,-3.308063745501684,31496
1688552795.9590683,0.6499606966972351,0.5231572985649109,-3.0303061008081755,32166
1688552795.969246,0.8420546054840088,0.7448464632034302,-2.4157106875926075,31496
1688552795.9794753,0.9453614354133606,0.9727076292037964,-1.7988681793229375,31496
1688552795.9896412,1.064441800117493,1.3792122602462769,-1.3639926910412896,31496
1688552795.9997747,1.0957114696502686,1.6404110193252563,-0.6111145019536792,31496
1688552796.009954,0.9990620017051696,1.8892970085144043,-0.32132863998440087,31496
1688552796.0201566,0.8521630764007568,1.9194003343582156,0.27582645416285345,31496
1688552796.0303233,0.5441544651985168,1.7170460224151611,0.8325695991523787,31496
1688552796.040552,0.3179837465286255,1.431119680404663,2.16000676155285,31496
1688552796.0506923,-0.0155544821172952,0.8235995769500732,3.4453630447418817,31496
1688552796.0609787,-0.234387457370758,0.3226635456085205,5.157053470616276,31496
1688552796.071237,-0.6043735146522522,-0.496006578207016,5.619847774510717,31496
1688552796.0814502,-0.8877100348472595,-1.0368125438690186,5.699300765996398,31496
1688552796.0917752,-1.3636631965637207,-1.8416794538497925,5.859076976781452,31496
1688552796.1022022,-1.752171277999878,-2.382890462875366,5.7919383049064095,31496
1688552796.1123788,-2.471327781677246,-3.198275089263916,5.851316452031696,31496
1688552796.1225822,-3.0275745391845703,-3.7217745780944815,6.717348098760979,31496
1688552796.1327865,-3.945326328277588,-4.484100341796875,7.184350490576591,31496
1688552796.1431296,-4.601705074310303,-4.966805934906006,7.141363620764551,31496
1688552796.1535816,-5.58838415145874,-5.625824928283691,6.941473484045623,31496
1688552796.1637998,-6.2088165283203125,-6.009418964385986,6.435924768453724,32166
1688552796.1739745,-7.070268630981445,-6.522441387176514,6.065624952321812,32166
1688552796.1841183,-7.582405090332031,-6.812981605529785,5.491060018544424,32166
1688552796.1943836,-8.209019660949707,-7.185159683227539,4.410868883136935,32166
1688552796.2046516,-8.520461082458496,-7.403104782104492,2.301269769670675,32166
1688552796.2149484,-8.837343215942383,-7.712411880493164,1.1223733425230051,32166
1688552796.2251258,-8.975808143615723,-7.894418239593506,-0.9950101375750009,32166
1688552796.2352757,-9.071593284606934,-8.08741569519043,-2.5081753730796734,32166
1688552796.245448,-9.04580783843994,-8.144936561584473,-4.768854379658279,32166
1688552796.2556233,-8.876463890075684,-8.089488983154297,-6.680774688726778,32166
1688552796.2657793,-8.660189628601074,-7.93238639831543,-9.757357835778528,32166
1688552796.275989,-8.15776538848877,-7.500966548919678,-11.42652630807008,32166
1688552796.2862382,-7.697452545166016,-7.07131814956665,-12.842196226131662,32166
1688552796.2965353,-6.865896701812744,-6.267694473266602,-13.092660903942559,32835
1688552796.3067772,-6.255639553070068,-5.660083293914795,-12.141495943080514,32166
1688552796.3169746,-5.35135555267334,-4.755926609039307,-10.630506277094042,32835
1688552796.3271902,-4.808478355407715,-4.205728530883789,-7.729214429862381,32835
1688552796.3374517,-4.163953304290772,-3.5344953536987305,-5.603313446050009,32835
1688552796.3476164,-3.858451128005981,-3.211513996124268,-2.740800380709274,32835
1688552796.357816,-3.5900425910949707,-2.9094479084014893,-1.5972375869765472,32835
1688552796.3679993,-3.523733139038086,-2.8137152194976807,-0.9409666061409894,32835
1688552796.3782973,-3.5465588569641118,-2.761251211166382,-0.7862567901618576,32835
1688552796.3885388,-3.600005865097046,-2.760363817214966,-0.9062290191658633,32835
1688552796.3986933,-3.642925500869751,-2.757861852645874,-1.1969804763804746,32835
1688552796.4088995,-3.607630014419556,-2.7372477054595947,-1.506900787354894,32835
1688552796.419117,-3.4291224479675293,-2.638923406600952,-1.72159671783605,32835
1688552796.4294863,-3.227330207824707,-2.5215039253234863,-2.2194504737874183,33505
1688552796.4396818,-2.834441661834717,-2.278004646301269,-2.3757457733175897,33505
1688552796.4499335,-2.543288469314575,-2.0758442878723145,-2.484786510469803,34176
1688552796.4604886,-2.1087121963500977,-1.739554762840271,-2.4100184440634678,34176
1688552796.470694,-1.846909999847412,-1.5074619054794312,-2.140688896148646,34176
1688552796.4808762,-1.5479590892791748,-1.201372504234314,-1.8756985664029457,34176
1688552796.4910374,-1.4125319719314575,-1.0330215692520142,-1.3853311538708653,34846
1688552796.5012996,-1.3202459812164309,-0.8487856388092041,-1.210582256318233,34846
1688552796.5115244,-1.3145840167999268,-0.7694715857505798,-0.9069681167610923,35517
1688552796.5218704,-1.369707703590393,-0.7048729062080383,-0.8582711219795414,35517
1688552796.5320914,-1.4253627061843872,-0.6834486126899719,-1.0468244552621826,35517
1688552796.5422728,-1.5016616582870483,-0.661282479763031,-1.075339317322758,36185
1688552796.5524693,-1.5357911586761477,-0.6614522933959961,-1.2013792991648984,36185
1688552796.5627675,-1.5176775455474854,-0.6486115455627441,-1.2233257293712256,36185
1688552796.5734372,-1.460882306098938,-0.623988687992096,-1.1315703392039183,36185
1688552796.5837898,-1.3277266025543213,-0.5532087087631226,-1.2428283691417619,36185
1688552796.5941525,-1.2149122953414917,-0.4768331050872803,-1.6286849975601,36185
1688552796.6043231,-1.0506168603897097,-0.3363634943962097,-2.0378828048724387,36185
1688552796.6144822,-0.95878928899765,-0.2240111529827118,-2.4411082267783115,36185
1688552796.6246629,-0.8545330762863159,-0.0649404674768447,-2.1747708320637713,36185
1688552796.6349828,-0.8076783418655396,-0.0022004030179232,-1.9455432891863182,36185
1688552796.645222,-0.7652390599250793,0.0294123701751232,-2.096998691560742,36185
1688552796.6556282,-0.7498503923416138,-0.0033507840707898,-1.6128182411208485,36185
1688552796.665801,-0.7537033557891846,-0.168905958533287,-1.2016892433177162,36185
1688552796.6760116,-0.7643230557441711,-0.3578000962734222,-0.8960723876961509,36185
1688552796.6861897,-0.7832437753677368,-0.7663978338241577,-0.8055090904243372,36185
1688552796.6964436,-0.786376416683197,-1.1012743711471558,-0.8416414260871932,36856
1688552796.7066178,-0.7512499094009399,-1.656496286392212,-0.8961915969857017,36856
1688552796.7168295,-0.6971232891082764,-2.040743112564087,-1.1419773101817157,36185
1688552796.7270432,-0.5818409323692322,-2.6006710529327397,-1.120615005489185,36185
1688552796.7373147,-0.5057993531227112,-2.946461677551269,-1.1566162109340326,36185
1688552796.7475276,-0.4178718030452728,-3.3827462196350098,-1.1085033416758279,36185
1688552796.7577097,-0.3868309259414673,-3.627603769302368,-1.0405302047738871,36856
1688552796.7678454,-0.3732306361198425,-3.909147500991821,-1.3088345527660863,36856
1688552796.777973,-0.3777318000793457,-4.037078857421875,-1.3125777244579808,36185
1688552796.7881114,-0.3802798092365265,-4.096729278564453,-1.7243027687088386,36185
1688552796.798261,-0.3898760676383972,-4.090610980987549,-1.7591595649735154,36856
1688552796.8084145,-0.386270672082901,-3.99738359451294,-1.9927501678484703,36185
1688552796.8185837,-0.3712389767169952,-3.689118623733521,-1.9989848136920045,36856
1688552796.8287857,-0.3543999195098877,-3.4004414081573486,-1.6255497932448861,36185
1688552796.838983,-0.3313658535480499,-2.9276199340820312,-1.4283537864698133,36856
1688552796.8491683,-0.3147552609443664,-2.5946640968322754,-1.1441946029673602,36856
1688552796.859363,-0.2836392223834991,-2.1536638736724854,-0.8111953735358668,36856
1688552796.8695357,-0.2600299417972564,-1.9120781421661377,-0.5370020866398875,36856
1688552796.8797424,-0.237421840429306,-1.6542608737945557,-0.4983544349675242,36856
1688552796.889984,-0.2258088141679763,-1.548060655593872,-0.3249645233157423,36856
1688552796.9002233,-0.2076187878847122,-1.4867839813232422,-0.3573417663577345,36856
1688552796.9103982,-0.1949256658554077,-1.4814858436584473,-0.6000876426702177,36856
1688552796.9205647,-0.1776379197835922,-1.5076240301132202,-0.4757165908818024,36856
1688552796.9307456,-0.1730854511260986,-1.5251007080078125,-0.32950639724759867,36856
1688552796.9412904,-0.1728225499391555,-1.5237020254135132,-0.47808885574383453,36856
1688552796.9514823,-0.1701503843069076,-1.486979603767395,-0.6542086601263293,36856
1688552796.9617715,-0.166964441537857,-1.3834526538848877,-0.578224658966576,36856
1688552796.9719841,-0.1646792590618133,-1.279242992401123,-0.23390054702781526,36856
1688552796.9821105,-0.1528667509555816,-1.0980322360992432,-0.14166831970098315,36185
1688552796.9922647,-0.1406092643737793,-0.97191059589386,-0.1205086708054921,36856
1688552797.0024784,-0.11784278601408,-0.7892962098121643,-0.205302238464526,36185
1688552797.0292785,-0.1029652208089828,-0.7000029683113098,-0.39962530136145347,36185
1688552797.0394647,-0.0828253105282783,-0.5995551347732544,-0.4196166992191479,36856
1688552797.0496254,-0.0664712712168693,-0.566786527633667,-0.32718181610135844,36185
1688552797.0598125,-0.0505245961248874,-0.5513849258422852,-0.330626964569376,36185
1688552797.0700874,-0.0445699281990528,-0.5562306642532349,-0.32634735107450297,36185
1688552797.0803065,-0.0461692735552787,-0.5838066935539246,-0.2531290054323847,36185
1688552797.0904458,-0.0514383800327777,-0.6094536781311035,-0.28061866760279486,36185
1688552797.1008606,-0.0593787543475627,-0.675273597240448,-0.2758502960207352,36185
1688552797.1110115,-0.0747971311211586,-0.7911285161972046,-0.14897584915172501,36185
1688552797.1211698,-0.101233571767807,-1.106694579124451,-0.14100074768080617,35517
1688552797.1313863,-0.1131815612316131,-1.41399085521698,-0.18240213394184934,35517
1688552797.141572,-0.1215540841221809,-2.0428054332733154,-0.3225803375246983,35517
1688552797.151765,-0.1236491501331329,-2.562077760696411,-0.47153234481854156,34846
1688552797.1619556,-0.1111820936203002,-3.437245607376098,-0.2550125122072586,34846
1688552797.172148,-0.0980347543954849,-4.045575141906738,-0.16870498657240773,34846
1688552797.1824906,-0.0749401301145553,-4.925389289855957,-0.30572414398224623,34846
1688552797.192627,-0.0602057874202728,-5.45632791519165,-0.2888441085818272,33505
1688552797.2030528,-0.0486511960625648,-6.136238098144531,-0.310850143432873,31496
1688552797.2133512,-0.0447244681417942,-6.488612174987793,-0.5031943321232575,30825
1688552797.2235296,-0.0466784797608852,-6.891225337982178,-0.4467010498050854,30825
1688552797.2336988,-0.0522920787334442,-7.082820415496826,-0.3082990646365147,30825
1688552797.243872,-0.0523808002471923,-7.289407253265381,-0.41489601135293697,29484
1688552797.2540822,-0.0502248518168926,-7.394108295440674,-0.43988227843769323,29484
1688552797.264418,-0.0526246987283229,-7.52323055267334,-0.45163631438754237,29484
1688552797.274584,-0.0451974421739578,-7.573470592498779,-0.42775869369546626,29484
1688552797.2847562,-0.0392997413873672,-7.567807674407959,-0.4082560539249016,29484
1688552797.2950602,-0.0404031537473201,-7.457839488983154,-0.5028486251835886,29484
1688552797.3053544,-0.0395259484648704,-7.086591720581055,-0.4402279853825064,29484
1688552797.3155558,-0.0385004058480262,-6.704505443572998,-0.40377378463779223,29250
1688552797.32576,-0.0304608754813671,-5.994170188903809,-0.4260540008548901,29484
1688552797.3359687,-0.0245351493358612,-5.469123363494873,-0.42172670364419673,29484
1688552797.346791,-0.0238733477890491,-4.674207210540772,-0.3015756607058506,29484
1688552797.3569703,-0.0212721712887287,-4.186217784881592,-0.07344484329229317,29484
1688552797.367174,-0.0257824789732694,-3.564924955368042,0.03509521484380684,29484
1688552797.3774848,-0.0281794536858797,-3.24562406539917,0.3661632537844923,29484
1688552797.3876643,-0.0355809852480888,-2.930077314376831,0.48184394836468414,29484
1688552797.3978457,-0.041596695780754,-2.81375789642334,0.33775568008454115,29484
1688552797.4080136,-0.0610543340444564,-2.770334005355835,0.0990033149720091,29484
1688552797.4182367,-0.071723386645317,-2.799964427947998,-0.2439022064210974,30155
1688552797.4288013,-0.089998222887516,-2.925309181213379,-0.3865599632266594,30155
1688552797.4390664,-0.1035760417580604,-3.0629570484161377,-0.49052238464403786,30155
1688552797.449276,-0.1445153504610061,-3.347785234451294,-0.9189486503609601,29484
1688552797.4594982,-0.2020997554063797,-3.5961661338806152,-1.567876338960133,29484
1688552797.4700584,-0.3991457223892212,-4.094501972198486,-1.4111876487744723,29484
1688552797.480333,-0.6347334980964661,-4.528958320617676,-0.6512880325323351,29484
1688552797.490499,-1.1577669382095337,-5.358548641204834,0.23339986801170198,29484
1688552797.5008278,-1.6087757349014282,-6.026706218719482,1.6745090484634488,29484
1688552797.5110111,-2.401875734329224,-7.147193431854248,2.4486303329231873,29484
1688552797.5212002,-2.974855422973633,-7.927478790283203,2.9462814330879894,29484
1688552797.531374,-3.829022169113159,-9.06331729888916,2.998101711275922,29484
1688552797.5415535,-4.353300094604492,-9.757452964782717,2.9158115386989323,29484
1688552797.551903,-5.015689849853516,-10.64176082611084,2.4456977844260166,29484
1688552797.5621028,-5.355792999267578,-11.108019828796388,0.8992075920113223,29484
1688552797.5724723,-5.713894367218018,-11.614792823791504,-0.8480072021491765,29484
1688552797.5826666,-5.841703414916992,-11.812799453735352,-4.857707023625039,29484
1688552797.592937,-5.813091278076172,-11.835843086242676,-7.718884944922792,29484
1688552797.6032147,-5.616989612579346,-11.600824356079102,-10.783100128183634,29484
1688552797.6133945,-5.080685615539551,-10.85710334777832,-12.201333045970557,29484
1688552797.6236267,-4.5962653160095215,-10.124488830566406,-13.766455650342095,29484
1688552797.6339054,-3.77028226852417,-8.786773681640625,-14.004707336438514,29484
1688552797.6444798,-3.2235395908355717,-7.835315227508545,-10.442686080942138,29484
1688552797.654911,-2.7251670360565186,-6.900808334350586,-10.903835296640779,29484
1688552797.6650913,-2.1472318172454834,-5.654008388519287,-8.642196655281282,29484
1688552797.6752753,-1.9004360437393188,-4.983395099639893,-5.2656054496812885,29484
1688552797.6854699,-1.729096293449402,-4.286201000213623,-3.4425735473664076,29484
1688552797.6956453,-1.7390025854110718,-4.027050971984863,-1.2479662895214574,29484
1688552797.705954,-1.883011102676392,-3.90234899520874,-0.2159953117372595,29484
