Time,Roll,Pitch,Yawrate,Thrust
1690984106.6584935,-1.8842375,-5.2919383,4.278909,36177.297
1690984106.6808138,-2.7186294,0.64176744,2.5642564,28181.342
1690984106.702866,-3.0847783,0.56884795,0.66232866,33615.387
1690984106.7276175,-2.6416342,-2.0416353,1.1331356,30344.52
1690984106.7504463,-0.42600885,-1.3512772,-3.7882042,27322.482
1690984106.7729583,-3.3365083,-4.17568,2.3133304,30335.553
1690984106.7962594,-1.4834186,-2.3714707,4.0818396,31511.016
1690984106.820259,-1.6167123,-3.1353197,-0.28030443,34197.83
1690984106.842761,0.38401458,0.32518333,2.381822,27974.672
1690984106.8729286,0.29719982,-0.2547728,-0.0976089,34081.59
1690984106.8994663,-0.26796374,-2.4993057,-0.9511544,31598.95
1690984106.922082,-1.6400282,-1.0715371,2.1041543,28402.08
1690984106.9457648,-2.5663488,0.021286497,0.67544013,36415.473
1690984106.9707327,-2.1661153,-5.3958673,1.3878107,31221.12
1690984106.9939387,-3.5507488,-2.1100132,-0.9523006,31694.3
1690984107.0189204,-2.4574683,-5.2456527,2.0305264,35038.938
1690984107.04186,-2.4788954,-0.113107726,0.49163154,35599.855
1690984107.0639415,-2.2499046,-4.1150975,3.3360186,35562.18
1690984107.0876958,0.25867978,-0.13823396,-0.14092158,35908.58
1690984107.1105008,-0.46879724,-1.7899361,4.006743,28040.695
1690984107.1359947,-3.333733,-4.824179,-4.2997813,36871.64
1690984107.1592,-0.041449446,-0.11260428,-3.7274554,29049.209
1690984107.182187,-0.8633271,-1.9964877,-1.4280216,28331.621
1690984107.2118618,-0.14620742,-1.3001304,-2.4609258,31949.344
1690984107.236397,0.21849431,0.52249414,-3.5254173,33702.492
1690984107.2589269,-2.5724137,-4.070131,-2.2430012,35095.137
1690984107.281578,0.29020655,-2.0941527,-0.6253255,30836.73
1690984107.3042495,-2.7739873,-2.0575044,-4.2387333,27421.998
1690984107.327858,-1.0555514,0.5622088,3.4163682,36156.254
1690984107.3507378,-0.53250206,-1.866428,-4.1026998,35292.586
1690984107.3740916,0.24472782,-0.8421525,2.6927888,32349.463
1690984107.3965063,-0.8552943,0.35663995,0.30373743,29873.445
1690984107.419612,-0.36115873,-3.6955547,3.0644982,32517.902
1690984107.4428782,0.59749717,0.27744567,0.565696,30611.553
1690984107.465818,-2.6857278,-4.754036,0.56169695,36725.836
1690984107.4887795,0.6286298,-5.2597427,-1.2734547,36592.656
1690984107.5113893,-1.5607493,-0.8178439,-4.175896,28338.254
1690984107.5332623,-0.8888,-0.8167262,3.1040308,27772.037
1690984107.5556967,-0.04283595,0.34212604,0.092654996,30337.5
1690984107.5778382,0.25474116,-3.6045105,-3.4654224,35079.566
1690984107.6013303,0.5667228,-5.2546844,2.3180106,27688.56
1690984107.6236975,-3.0082192,-3.1192229,-4.071839,34790.73
1690984107.6457927,-0.9706541,-0.048541766,4.149296,32971.344
1690984107.6681223,-2.7511876,-4.4598093,-1.7318226,29510.975
1690984107.691613,-3.286664,-4.779736,2.803595,34507.082
1690984107.713782,-1.0109713,-1.6704944,-0.33221614,28408.242
1690984107.736467,0.62442636,-2.8440537,-2.1757972,35791.33
1690984107.7623293,-3.106312,-1.8645434,-3.0602176,35056.188
1690984107.785065,0.84030235,-3.9423232,3.7665756,32784.527
1690984107.8089533,-2.8050892,-5.0725055,-4.447036,34551.75
1690984107.8319757,-0.6243067,-0.28887823,-0.2752561,31785.49
1690984107.8548963,-3.3047504,-1.3227813,4.3576837,29881.49
1690984107.878156,-3.5950835,-2.3453562,0.3411665,36320.19
1690984107.901006,-0.63784593,-0.54876643,-2.0005033,35194.58
1690984107.9246042,0.712149,-5.20771,-0.49169296,32170.0
1690984107.9472516,-3.7456143,-3.2916207,-2.9809551,34762.715
1690984107.969545,-3.5064085,-5.1381936,1.1911085,28757.186
1690984107.9924405,-3.6670063,-0.833322,-4.1797566,32282.203
1690984108.015029,-3.1531146,-4.382266,-3.9540164,27516.197
1690984108.0374599,-1.5107522,-4.8467097,-3.7026217,28285.945
1690984108.0598705,-0.97674847,0.2850935,-3.8837287,33108.64
1690984108.082834,-0.19918706,-1.4085361,1.6853027,32254.701
1690984108.1052074,-0.13587178,-2.3986416,3.6696827,34755.543
1690984108.1280355,0.3371041,-0.87097394,3.6598911,35299.07
1690984108.1508214,-2.9100678,-1.676836,-3.9167218,29471.414
1690984108.1748366,-3.7448602,-1.8001875,-1.7281773,30883.38
1690984108.1984103,0.4540903,-3.6607447,-4.3803077,31662.242
1690984108.221768,0.4177813,-0.7492351,0.17085885,32137.78
1690984108.2458978,0.33059075,-2.8712218,-3.890538,27177.135
1690984108.2684982,0.960695,-5.0228205,-2.9864883,29062.355
1690984108.2936978,-0.021557614,-2.775266,0.012325095,35958.074
1690984108.3163524,-3.2800071,0.27687228,-0.3967759,32319.838
1690984108.3386266,-2.3048916,-4.6770463,-0.18925323,36257.586
1690984108.3609717,-0.7138575,-3.9892247,-2.347346,34556.258
1690984108.3830485,-2.3977265,-5.2114987,1.1333859,30150.232
1690984108.4058094,-0.45002258,-0.418575,2.9907954,33243.523
1690984108.4282553,-1.2257246,-0.74927855,-1.866367,31407.588
1690984108.450932,0.8096749,0.5324685,3.7546425,31253.635
1690984108.473768,-2.740661,-4.6140385,4.302878,35813.297
1690984108.4976156,-0.47333673,-4.4097605,-1.4173402,30943.611
1690984108.5206249,-2.681002,-0.26136276,-0.50753814,32462.484
1690984108.543008,-1.6264213,-1.2768427,-2.2901366,34384.746
1690984108.5657554,-0.0332533,-4.3657165,1.609414,31484.244
1690984108.5893576,0.33717537,-0.30280137,-0.72734034,28205.695
1690984108.6115944,-0.95267105,-1.7616037,-3.1002996,32209.098
1690984108.635604,-2.4461622,-3.4096103,-3.6729774,36667.21
1690984108.6582398,-3.2217207,-4.780436,3.411738,36806.242
1690984108.680709,-2.369825,-3.5794492,3.0110052,36642.844
1690984108.703018,-0.9915542,-2.231285,2.6232507,34926.22
1690984108.7254188,-1.0587888,-1.8063567,1.2930857,34301.043
1690984108.7482827,-3.525127,-3.5207145,1.9672142,32286.908
1690984108.7708285,-1.0441917,-0.04921166,4.206849,33257.97
1690984108.793508,-3.4763007,-4.600083,-2.9339082,34894.3
1690984108.8163798,-0.9510581,-0.40581885,0.4245416,29836.162
1690984108.8387074,0.2955482,-0.026146803,-2.470419,31627.818
1690984108.8609693,-1.0930132,-4.595886,1.719367,27630.902
1690984108.8836007,-0.07847232,-2.0086968,-2.6482525,27216.014
1690984108.906685,-2.9143314,-4.390852,4.527448,35154.41
1690984108.9291322,0.8853616,-5.004847,-3.0208242,29603.094
1690984108.9532037,-1.718372,-0.34569916,-2.0363662,36385.27
1690984108.9789777,-1.7745395,-2.7526557,0.56330216,31607.268
1690984109.0013657,-0.12407624,-1.6446811,-1.3980614,34121.707
1690984109.0244424,0.35818857,-1.7403997,3.7361524,33370.16
1690984109.0473154,0.77618384,0.17694004,-0.65868366,36796.75
1690984109.070083,0.1611516,0.0070636733,1.6233059,32412.033
1690984109.092197,0.17858462,-3.784356,1.9490695,30324.781
1690984109.11535,-1.4699618,-4.5950737,2.7567399,29694.428
1690984109.139475,-3.348124,-1.3847964,1.605351,32835.195
1690984109.162129,0.12824486,-1.5181426,3.8355293,36341.504
1690984109.1846786,-0.22270317,-1.0609949,3.0573723,30129.53
1690984109.208232,-2.2965875,-3.5977256,1.5259246,30199.43
1690984109.2307832,-0.25267306,-3.6522808,-2.7798278,27674.281
1690984109.2549148,-2.4345176,-0.54587376,3.5192971,28275.395
1690984109.2773292,-1.3152993,-5.200494,-2.440967,32512.715
1690984109.3011804,-3.013249,-4.5497284,0.33259746,29907.184
1690984109.3240674,-2.6502929,-1.8768659,-2.3569188,35191.07
1690984109.3469563,-3.043067,-3.0654974,-2.3837512,34760.5
1690984109.3696113,0.55340594,0.026601234,-1.7395029,32853.32
1690984109.3919334,-1.6944221,-3.6860547,2.5534282,28431.938
1690984109.414842,-0.40007225,-1.0787799,2.122719,34846.52
1690984109.4375873,-3.5217512,-0.13835244,3.628068,27795.375
1690984109.4598057,-3.2053564,-4.1169763,3.9511592,32134.438
1690984109.4824595,-1.8920012,-1.6528618,-1.3990245,31634.104
1690984109.5058763,-0.41400275,-0.2469289,-3.874541,33124.81
1690984109.5290413,-1.8118001,-3.115301,0.73482895,28777.607
1690984109.551669,-3.3776047,-2.517497,-3.733895,28910.865
1690984109.5748143,-1.7920363,-2.0323787,2.4183939,36390.723
1690984109.600096,-2.7461283,-1.3656931,1.9512413,33654.84
1690984109.6234102,-0.21071775,-0.004479951,-3.3565478,30033.246
1690984109.64738,-1.3958626,0.15703283,-3.5502145,35127.883
1690984109.6704276,-3.6540916,-4.3836727,1.8105714,33321.3
1690984109.693036,0.820905,-2.4892519,3.4677358,36316.633
1690984109.7165196,-1.8120204,-3.854459,-4.5242624,31677.148
1690984109.7390766,0.4422956,-3.7376273,1.5267524,34903.863
1690984109.761074,-3.3019037,-3.979514,1.6701454,28800.385
1690984109.7837577,-2.8675334,0.12684825,0.9595416,34671.973
1690984109.8070161,-1.4594346,0.07539503,2.1955361,30617.639
1690984109.8294432,-2.4123816,-4.448601,1.1077167,33092.215
1690984109.8520043,-1.0738988,-2.3901732,-3.1918087,31325.16
1690984109.8749545,0.09278045,-1.2666978,-0.8382199,31300.76
1690984109.8988373,-2.8377805,-2.3648126,1.1499577,28019.238
1690984109.9209805,-0.41239968,-3.7417393,-3.1464932,34760.473
1690984109.9436333,-0.9257295,-4.7927856,0.9168381,34226.184
1690984109.9669116,-2.377463,-5.4553103,-3.5273576,32992.883
1690984109.9897377,-0.2239631,-2.1275294,-1.0084902,27347.39
1690984110.0118978,-3.550041,0.2645203,0.6461155,28657.14
1690984110.0346107,0.55065167,-1.8402954,-1.8509743,32882.434
1690984110.0580387,-1.14597,-5.346376,-1.5383121,27657.867
1690984110.0804765,-1.7343485,-1.4078261,-1.6438068,36859.164
1690984110.1028259,-0.51233417,-5.5357776,-2.5630486,36066.94
1690984110.1259418,0.19075736,-3.773696,-0.8640232,32794.195
1690984110.14955,0.036391005,-0.32474887,-3.1244838,29766.145
1690984110.1731977,0.57056034,-3.3667438,3.8129287,28674.7
1690984110.1963685,-1.8158913,-2.0114598,4.418228,36025.605
1690984110.2198942,0.2105108,-2.6433117,1.7989821,30111.334
1690984110.242122,-3.2383046,-3.729907,-1.7581304,32115.773
1690984110.2664678,-2.915463,-0.36537462,-0.26338378,29418.016
1690984110.2888854,-1.0841122,-2.5593708,-0.8775029,35070.285
1690984110.3109257,0.25321767,-5.161364,-2.9866104,28911.578
1690984110.3337033,-0.12030488,-1.6630853,0.6091947,30621.22
1690984110.3574429,0.4087956,-4.918788,-2.4194677,36603.258
1690984110.3801713,0.2871582,0.05371736,-0.64850956,28678.32
1690984110.4025352,0.5418813,-2.0636263,-4.057243,35845.348
1690984110.425519,-2.1363032,-0.573128,-3.0496714,31439.646
1690984110.4490488,0.06904628,-2.1083915,2.2272785,30546.824
1690984110.4723816,-1.8725326,-2.0490224,3.859114,34940.76
1690984110.4951947,-3.494821,-1.4886827,1.8019425,32116.688
1690984110.5192392,-2.7215757,-4.763038,2.9245763,31198.322
1690984110.5429435,-3.3267019,-5.2797146,3.8911178,28023.434
1690984110.5659451,-1.4521244,0.02255519,0.38816166,29162.145
1690984110.5890527,-2.711342,-3.647641,2.13001,31701.451
1690984110.6123211,-3.2421231,-5.0671916,-0.87361836,29653.117
1690984110.6344478,-0.44466957,-1.4543035,-2.6300175,29747.506
1690984110.657379,-1.1481493,-1.1367627,0.75216216,35449.27
1690984110.679686,0.8023825,-3.3174973,-0.8101805,30533.25
1690984110.7028332,-2.9506414,-3.4189465,1.1503981,27784.826
1690984110.725408,0.48858893,-4.706399,-4.07242,35257.16
1690984110.7483466,-1.3890424,-3.093775,1.5540723,32223.326
1690984110.770894,-0.56639856,-4.5096207,0.9706792,29123.164
1690984110.7940826,-3.692817,-1.3249292,3.1203518,33803.074
1690984110.8179877,-3.2026687,-4.1434884,4.085935,28922.266
1690984110.8412147,-1.7251183,-5.533221,3.2171085,28071.855
1690984110.8636427,-0.58099574,-3.1359375,1.2537508,33036.996
1690984110.8860407,0.0920468,-2.5440629,-3.793564,27554.445
1690984110.908233,-1.667368,-1.8117762,4.1659055,34565.055
1690984110.931073,-0.3773961,-2.130898,3.6895888,29483.037
1690984110.953483,-3.458289,-3.495336,1.4433777,35799.914
1690984110.9763541,-3.455056,-3.503786,-2.499429,32930.945
1690984110.999137,0.6897011,-4.712888,2.1631877,35167.598
1690984111.022518,-1.2317005,-2.0929592,-0.2238104,30193.354
1690984111.0450706,-0.5884393,-3.9917622,-1.2490262,35167.715
1690984111.0675752,-1.0469047,-5.267568,-2.2574058,27717.008
1690984111.0902994,-1.4520593,-2.3059752,2.9306798,27753.734
1690984111.1128385,0.6133319,-1.8515216,0.39314926,27437.393
1690984111.1355002,-0.11956654,-0.73581594,-3.4099808,34993.598
1690984111.1577964,-1.5459675,-3.5351171,-3.2924237,30569.549
1690984111.1800644,0.73281187,-2.8411107,-2.2932515,27426.69
1690984111.203933,-1.2949723,0.6333391,3.8457577,32750.904
1690984111.226581,-1.0253464,-2.8033435,-3.397225,35409.125
1690984111.2501037,-0.7060537,-1.8132931,4.250852,27800.467
1690984111.2750423,-2.4665923,-2.506186,-0.9529111,28473.459
1690984111.2985396,-1.3596141,-0.34239972,0.58601445,36291.797
1690984111.3206093,-0.5724886,-3.131171,-3.466565,34005.8
1690984111.343872,-2.215861,0.5172052,-1.8245499,36352.793
1690984111.3666337,-2.4612815,-1.568565,4.2535033,36112.51
1690984111.389967,-0.42992872,-5.1424026,2.0952768,28390.574
1690984111.4123945,-1.8361386,-0.78396225,4.2180657,35754.066
1690984111.4360476,0.8504771,-4.3409667,-0.06375802,27234.04
1690984111.4590912,-2.021164,0.4108985,-0.59515953,30986.998
1690984111.4812741,-2.6981754,-1.2564651,-4.3758264,29122.13
1690984111.5037138,-0.123512276,-3.4028482,0.47347653,29683.984
1690984111.5265484,-2.1572146,-2.6137075,-1.8485489,35399.758
1690984111.5514119,0.3974208,-3.7473075,0.8601999,27295.041
1690984111.5749204,-0.8923319,0.2788575,0.35677037,36166.543
1690984111.5984204,-3.3474984,-3.1532562,-1.7612703,34895.34
1690984111.6212084,0.53960216,-1.3822014,-3.2179117,28009.74
1690984111.644549,0.8060116,-2.6146915,0.27860484,29004.773
1690984111.6678865,-1.351957,-4.474959,-3.3760476,31225.9
1690984111.690814,0.8747236,-2.464134,1.5153146,31014.799
1690984111.7140596,-3.5033853,-4.94156,-3.4466913,36765.95
1690984111.7372189,0.32357502,-4.421072,-3.607677,35493.742
1690984111.7602077,0.5439294,-5.3567853,-2.9369504,32091.248
1690984111.7833474,-0.29370406,-5.2524343,2.0109472,31747.857
1690984111.807025,-1.0000476,-2.2254033,-3.050795,36262.316
1690984111.8297029,-3.0869555,-2.1726573,1.7695845,30516.39
1690984111.8536117,-0.74469894,-2.515071,2.2130747,36392.81
1690984111.8766131,-0.95160913,-0.18981892,0.16320045,29424.309
1690984111.89981,-3.1329353,-4.288529,-3.8821318,31079.555
1690984111.9234107,-3.703336,-0.54462767,1.9630555,28515.123
1690984111.9466388,-0.22889793,-2.3425083,4.3960977,32348.455
1690984111.9699914,0.2963221,0.54374117,-1.0101948,35739.453
1690984111.9926796,-3.4581165,-2.635859,-1.5477529,36363.98
1690984112.0163827,-0.6993179,-1.944257,2.4251394,35346.617
1690984112.0390399,-2.5555482,-0.2920689,-2.107708,35862.65
1690984112.0617373,-0.34762785,-3.897796,0.08416298,31984.133
1690984112.084476,0.72307944,-1.6500336,4.1196046,35496.207
1690984112.1072652,-0.58557785,-1.612348,-4.473064,30293.342
1690984112.1298542,-1.766027,-5.0444765,2.6765265,28058.61
1690984112.152627,-3.4015079,-2.0567381,-4.124353,35892.81
1690984112.1754727,-2.9063065,-3.2403355,3.7441907,28901.502
1690984112.198596,0.18258853,0.35167286,2.944864,32616.543
1690984112.2213957,-0.35746133,-2.946424,4.4409113,34341.656
1690984112.2452168,-0.08362578,-4.9765143,-0.76977795,35701.426
1690984112.268437,-1.2397858,-4.255567,1.3310778,30436.375
1690984112.2926624,-2.5310793,-3.8962157,4.413207,31441.656
1690984112.3160892,-0.23819284,-4.872673,-0.56217194,36406.66
1690984112.3399694,-1.0025537,-0.9327502,-3.0345404,36125.81
1690984112.3630607,-2.8125916,0.023795892,1.520273,35390.883
1690984112.3864884,-0.53859496,-0.9643103,-4.5133767,36026.848
1690984112.40959,-0.36280116,-5.4045177,-3.8340786,32273.504
1690984112.4333284,-3.3453355,-5.381618,3.4575891,30313.176
1690984112.4582882,-1.3645252,-4.2280912,-4.036269,27887.201
1690984112.481902,-0.5322275,-0.8303129,-2.1280625,35236.082
1690984112.5054796,-1.6974381,-3.2166662,-0.63702273,27260.682
1690984112.5284288,0.2044095,-0.7776643,-0.10329869,36830.43
1690984112.5515423,-0.71417075,-4.851054,3.6656828,36405.76
1690984112.575934,-3.2413793,-3.9091191,-2.7397745,28087.959
1690984112.5988667,0.9172302,0.089055635,1.3913696,30272.44
1690984112.622328,0.10775778,-4.698768,3.4688048,30835.082
1690984112.6449995,-2.9725885,-1.3275727,-0.3264946,36230.55
1690984112.668257,-2.9613771,-5.1546135,4.2793818,29206.102
1690984112.6908193,-0.8166143,-0.7443391,-1.4629334,35578.125
1690984112.7140224,-1.7842696,-0.039349113,-3.8347204,35017.637
1690984112.7367203,-0.20362535,-0.06499521,2.8022842,28125.748
1690984112.7597787,-2.399284,0.32464126,2.5728958,30717.29
1690984112.7823548,-3.0211399,-1.5015707,4.2319937,34922.69
1690984112.8053367,0.6508512,-5.307752,2.775709,35915.06
1690984112.828112,-0.84438676,-1.3094409,-4.304552,36413.082
1690984112.8501997,-3.289677,-2.779278,-1.5103943,30618.67
1690984112.872523,-2.9205008,-5.4432225,1.4978287,33555.86
1690984112.8972385,-2.0700285,-2.9502249,2.3734262,33558.13
1690984112.9201574,-3.1058636,-5.281072,-4.51001,34109.285
1690984112.9426577,0.76198936,-2.4599998,-2.889705,33711.75
1690984112.96616,0.92814404,-0.7179703,3.6210208,29406.64
1690984112.9895391,-0.13120846,-3.2425137,-4.387107,29100.734
1690984113.0128024,-2.3773046,-2.4672372,-2.513345,27505.268
1690984113.0359154,-0.66875285,0.4466768,-0.15725218,36017.44
1690984113.0601463,0.7022887,-1.396442,-2.3634872,29385.463
1690984113.0828576,0.20238435,-0.21612911,4.484734,36679.957
1690984113.1066258,-1.0325129,-2.6714544,-3.5557537,29903.578
1690984113.129471,-3.119511,-4.369396,-3.269412,27350.16
1690984113.151701,-1.4659015,-0.4534124,1.3983967,31707.117
1690984113.174945,0.2989849,-0.48606253,4.1149955,34588.746
1690984113.197881,-1.7247427,-3.0962653,-1.6294366,33114.72
1690984113.2200973,-2.2863128,-5.257734,-0.5696299,34972.23
1690984113.243304,-2.6340258,-4.7863436,2.5583925,34734.19
1690984113.2670999,-0.39789984,-2.1522026,2.2889102,27858.793
1690984113.2897115,-3.3314922,-0.6927069,0.41660312,27325.695
1690984113.31242,-2.8652468,-2.3540044,-2.5561924,36959.453
1690984113.3348255,-2.4761932,-5.4961286,3.8851626,35263.777
1690984113.3586652,-2.2594023,-1.3602347,-4.368412,28540.127
1690984113.3817928,0.0061349464,0.5532529,-1.9361174,29426.234
1690984113.4056048,-2.026959,-3.0335038,-0.79491556,35287.844
1690984113.4282057,-0.31651205,-2.679788,-3.6065352,35547.023
1690984113.4504986,-3.636996,-1.5364294,-1.7093319,29932.799
1690984113.4732444,-0.42274755,0.5051208,-3.6029124,36473.59
1690984113.4958649,0.5267342,-2.8728304,-2.0511496,27756.549
1690984113.5182145,-0.42124328,-1.6630177,3.7186987,32119.387
1690984113.5408,-0.1282366,-1.9078052,3.4897773,36217.797
1690984113.563221,0.52784705,0.49444503,2.1051946,31175.14
