Time,Roll,Pitch,Yawrate,Thrust
1691134365.1516376,0.4543884,-3.6405718,2.4200764,30214.797
1691134365.174835,0.44094664,-1.223686,3.0577307,30369.084
1691134365.1974027,-0.881197,-4.507247,-0.062191658,34436.535
1691134365.2211194,-0.08970689,-3.867385,4.310733,27815.074
1691134365.2436097,-1.765658,-1.3529127,0.14126074,33825.027
1691134365.2658155,-0.3954792,-4.77636,-1.5608014,31422.473
1691134365.288442,-2.797107,-0.12913385,-0.024118384,33031.87
1691134365.3109412,-2.8891912,-3.28869,-1.0965272,32107.438
1691134365.3336875,-3.245144,-5.013366,-0.4793392,34041.3
1691134365.3558276,-0.03310367,-0.21041207,0.93861425,34696.914
1691134365.3792572,0.30093592,-5.27187,-3.067545,32205.287
1691134365.401802,-0.5829233,-5.2366595,-2.1474378,33632.844
1691134365.425159,0.19823195,-0.37205192,-4.485781,35717.043
1691134365.4504406,0.26868942,-4.7825665,0.20798992,31538.564
1691134365.4731338,-1.6912752,-1.892502,0.32763046,27406.498
1691134365.4955945,0.8398109,-3.834523,3.504882,29957.586
1691134365.5218332,-1.2546412,-0.9642246,4.3800826,35356.227
1691134365.5446584,-0.24971364,-4.9855857,-1.1916984,29285.535
1691134365.5672145,-1.0745366,0.027715048,1.4674033,28490.635
1691134365.589468,-1.2223152,-3.9229584,-1.0525051,33974.562
1691134365.612448,-0.8053955,-0.95397913,0.9024219,31523.08
1691134365.6350331,-2.8615735,-2.136809,-0.22273016,28226.559
1691134365.6574187,0.545582,-2.7756138,-3.902048,32213.783
1691134365.6800988,-1.1226169,-4.858096,0.8847921,36857.426
1691134365.7027998,0.7429858,-4.3913884,-1.682175,35558.09
1691134365.7257495,0.5051546,-1.9436142,1.8123909,36395.434
1691134365.7481205,-3.5978518,-5.2912216,3.102709,29064.674
1691134365.7708166,-2.524358,-5.519617,2.6113422,36769.344
1691134365.7958372,0.60973066,0.13557646,1.6271527,35212.01
1691134365.8193893,-2.3426604,-3.905966,4.4605737,28547.873
1691134365.8422003,-1.3172346,-0.12913628,1.978247,35664.848
1691134365.8652947,-0.34714937,-3.5715122,3.4706807,33415.113
1691134365.8882532,0.18263818,-4.244122,0.1266954,28932.266
1691134365.9108133,-2.065133,-1.9240623,-1.7000417,34074.03
1691134365.9344556,-2.891842,-2.7705646,-0.36907837,34112.133
1691134365.9569829,-1.6067314,-4.3481784,0.7784586,35463.406
1691134365.9805706,-2.7806118,-1.9796554,0.36557797,29076.299
1691134366.0040154,0.079217784,-2.618495,-3.6155188,31522.041
1691134366.0268495,0.57382244,-1.9539796,2.7230828,28691.523
1691134366.049483,-1.7823406,-0.6998604,4.2035723,28919.484
1691134366.0721796,-3.2811925,-3.4240172,-1.5050123,27956.21
1691134366.094506,-2.4333224,-3.8286152,-3.6161253,28082.965
1691134366.1204891,-0.65903395,-4.0800457,-2.9278662,36177.38
1691134366.1440837,-3.5273328,0.2017289,-1.2170181,28877.812
1691134366.166833,-0.85008717,0.21423425,-4.4839396,36514.75
1691134366.189909,-3.65042,-3.0379684,2.17638,28369.45
1691134366.2126923,-3.341301,-4.439604,-1.2756798,33156.695
1691134366.235013,-0.6865057,-4.4304447,-0.52801955,28526.555
1691134366.2587214,-0.68906873,-3.2499177,-0.18390825,35287.395
1691134366.2811527,-2.1892016,-0.17380922,-1.9948143,33036.69
1691134366.3038487,-0.558368,0.56130695,4.1469703,31614.293
1691134366.3266397,0.23067316,-4.1887655,-4.4498544,28327.672
1691134366.3490806,-0.5817645,-5.3748765,3.7475247,29329.016
1691134366.3715513,-1.3574733,-0.30365825,-0.9442202,32098.002
1691134366.3950558,-3.5339313,-4.3917894,-0.65079665,34117.914
1691134366.4179065,-3.455339,-5.3791494,-1.096918,35569.85
1691134366.4404066,0.29446152,-4.48711,-1.6663805,28529.766
1691134366.463091,0.6834508,-0.81053853,-0.51139677,27614.02
1691134366.48527,-2.1250174,-4.0604043,-1.145597,33081.2
1691134366.507939,-1.564732,-3.9920444,-0.073204234,31519.283
1691134366.530393,-1.5143477,-3.9677455,2.5309622,34915.6
1691134366.5529797,-2.4966917,-0.74310976,-2.245805,36894.03
1691134366.5755033,0.025871456,-0.973057,3.992279,35906.027
1691134366.598139,-2.4359517,-0.9667509,-0.2160893,34109.21
1691134366.6210282,-1.8728149,-4.533194,1.5157393,36882.105
1691134366.6437266,-1.6902072,-4.952741,3.8832364,34670.805
1691134366.6664488,-1.7554288,-2.3648703,-2.92783,33077.285
1691134366.689038,-2.7166061,-5.3954983,-4.305452,31962.049
1691134366.7122653,-3.3141623,-0.013517167,3.015598,32552.576
1691134366.735545,-3.7733858,-1.0164331,-1.22481,27757.914
1691134366.7580497,-1.9114144,-0.6935022,-1.4039158,36002.266
1691134366.7807813,-2.8435752,-1.9322816,3.0351567,36202.23
1691134366.8033907,-1.1452682,0.5286031,0.17905329,34716.586
1691134366.827049,0.58145976,-3.892635,2.600148,33627.062
1691134366.8501322,0.68451446,0.1972296,-4.396943,30835.018
1691134366.8733084,-1.1851336,-2.3430088,1.7485056,36007.97
1691134366.8984435,-1.6055771,-5.13836,-0.55644274,34956.28
1691134366.922002,-2.6621668,-4.970773,-2.6079364,36681.316
1691134366.9447432,-0.69202507,-5.2849207,-4.041049,36371.08
1691134366.9693942,-1.8868608,-4.6894236,3.0907788,35772.086
1691134366.9921494,-1.9724182,-4.4898057,-1.4600637,27915.375
1691134367.015379,-1.7441244,-2.1873646,-2.1707249,34820.465
1691134367.0391142,-1.9286441,-4.294682,4.034152,31766.01
1691134367.0615325,-0.14878002,-3.9616268,-3.1524005,34696.684
1691134367.0845015,-0.053133044,-0.9138906,0.4397877,28423.062
1691134367.1067982,-2.7853203,-0.89004743,4.0374107,36439.176
1691134367.1292007,-0.39615723,-0.7872781,-2.8860612,31334.61
1691134367.1520226,-0.54678726,-0.88178927,-0.33227488,33094.965
1691134367.1745138,-0.4654121,0.6072698,-4.545476,31580.78
1691134367.19709,-0.68510914,-0.7337305,-4.105585,34688.34
1691134367.2197976,-3.0583355,-5.473716,-4.312031,34724.914
1691134367.2422664,-2.768472,-5.169381,3.0143101,27732.305
1691134367.2645187,-2.789751,-0.992188,2.3328748,27410.14
1691134367.288522,-2.9897237,-5.329484,2.6587772,28293.4
1691134367.3106737,-3.1281354,0.021603158,-1.1016803,33531.9
1691134367.3327835,-1.4991517,-3.6504838,-1.841206,34013.055
1691134367.355288,-0.9961148,-3.3847313,0.5405704,29910.455
1691134367.3780844,-0.59747124,-3.5415437,1.3259654,28001.885
1691134367.4013615,-3.0613356,-2.0832195,-0.0012158989,35976.14
1691134367.4236586,-0.023441514,-5.466193,-3.9292884,34535.285
1691134367.4497232,-0.56446576,-3.1449363,-2.6448991,27928.018
1691134367.4722302,-1.1762934,-4.388835,-1.2794875,28796.45
1691134367.4957755,0.659647,-2.200073,-4.1942506,35243.414
1691134367.5192127,-1.6894178,-3.925647,2.615876,31608.414
1691134367.541763,-3.1032898,-4.740265,3.712611,29685.117
1691134367.5638041,0.15651475,-5.053949,-0.5978526,31008.113
1691134367.587714,0.59220374,-4.3251686,-2.024259,28142.168
1691134367.609757,-2.8957167,-0.6926651,1.0807412,28644.512
1691134367.6322796,-1.982274,-3.274397,1.7694188,32539.027
1691134367.6551857,-3.33695,-2.6932797,-1.6654677,30214.871
1691134367.677878,0.20585161,-3.961327,3.2801788,30605.428
1691134367.70118,0.6467332,-3.6327598,1.4282746,32528.518
1691134367.7238498,-3.7342663,-1.9985075,0.04345472,33884.5
1691134367.7467806,-0.8109186,-2.6921585,2.774927,31259.63
1691134367.7698462,-2.3126628,-0.9349392,1.086176,32598.553
1691134367.7947567,-1.265969,-1.0417864,-3.9290788,27878.281
1691134367.818047,0.5542362,-3.3788764,-2.2259486,35995.027
1691134367.840828,-3.088495,-0.68378186,0.9582698,36688.996
1691134367.8639338,-3.4051824,-4.87822,-2.3087382,33345.01
1691134367.8865402,-3.713122,-5.46899,-3.617988,29964.713
1691134367.90893,-2.053937,-5.4218316,-4.1835513,31632.877
1691134367.9312253,-0.46271947,-1.8807812,0.33985117,29950.332
1691134367.9536018,-1.0251331,-0.56191576,0.989172,29284.152
1691134367.9764585,-1.6385102,-1.5064667,-2.9805574,28436.045
1691134367.9991877,-3.7079098,-4.999465,-0.796586,30417.816
1691134368.022078,0.82286096,-3.098707,-1.513723,28934.57
1691134368.0468163,-0.24763681,-1.6623999,-4.125772,33474.383
1691134368.0693896,-2.3268337,-5.1111517,-1.9054896,29409.418
1691134368.0918076,-0.14217335,-4.503416,2.8964128,29759.936
1691134368.11373,-1.8073292,-0.18140607,-2.437967,35993.664
1691134368.1384802,-3.0141928,-4.569865,2.4865263,33398.734
1691134368.1611738,-2.5381987,-2.9614537,-2.1754043,31862.832
1691134368.1834645,-2.8544507,0.119465806,-4.22404,30049.793
1691134368.208145,-1.177914,-4.721131,0.587691,33278.316
1691134368.2306767,-2.8664615,0.5395417,-2.3357258,34037.547
1691134368.253781,-3.5382147,-4.851121,-0.32203922,30021.81
1691134368.2780328,-1.8452243,0.41406325,0.15723221,34614.273
1691134368.3006163,0.8141186,-1.9995987,4.2060456,28559.889
1691134368.322737,-2.5493116,-0.2740023,-4.569022,35495.605
1691134368.345307,-1.6951138,-0.57927215,-0.7552214,33780.113
1691134368.367703,-3.1787176,-5.563989,1.9966074,31343.963
1691134368.3898573,-3.1236048,-4.329244,1.8755914,33271.22
1691134368.4129922,0.45839888,-0.30427402,-3.0430229,31583.53
1691134368.4353583,-0.20537584,-4.359546,-2.3813066,33256.848
1691134368.4574983,-3.6675627,-3.6469388,2.7955332,34299.95
1691134368.4803703,-0.46556053,-5.2784014,-1.4912953,36380.605
1691134368.5028489,-1.2708889,-1.4602145,-3.4989886,32166.15
1691134368.5261521,0.92288476,-1.9476748,3.4182587,33450.61
1691134368.5502179,-1.7601078,-0.11414131,-3.035877,29895.895
1691134368.572872,-3.2441528,-1.6209031,-3.6319277,35248.64
1691134368.5953639,0.48045024,-3.7163844,-2.32082,32404.613
1691134368.618732,-2.7988107,-1.6674489,1.6583772,31539.861
1691134368.6410882,-3.3270006,0.074617095,3.7680154,36448.387
1691134368.6635618,-2.684015,-3.6291306,-3.40792,35042.38
1691134368.6861675,-0.9640533,-4.587819,3.0617554,28000.576
1691134368.709102,-2.9892304,-1.9285924,-0.90385884,32745.91
1691134368.731701,-0.9002151,-3.1675076,-3.8532288,31191.914
1691134368.7551754,-2.7372262,-3.6039937,-0.56349134,35485.023
1691134368.777725,0.36077285,-0.39863735,2.4449067,29446.643
1691134368.800027,-2.5241125,-0.53374475,-3.6858892,29504.928
1691134368.8226864,0.7362191,0.5824442,-3.6121144,28874.969
1691134368.8461025,-3.7440004,0.6178853,0.7904363,29206.535
1691134368.868859,-3.4835682,-0.66180485,1.8080165,33965.19
1691134368.8925533,-2.4850276,-2.0377405,1.2602882,29550.615
1691134368.9147801,-3.2814314,-3.7132895,-3.3825529,28019.186
1691134368.9379387,-3.5133498,-0.6712666,1.3999853,27222.887
1691134368.9605768,-1.4316207,0.64634156,-3.1441333,36331.895
1691134368.9829893,-0.58333415,-0.32230365,-2.9349759,32258.32
1691134369.0055962,-3.1920936,-4.448741,-2.291856,34445.11
1691134369.0283995,0.28725818,-3.8135142,-4.2255087,34852.973
1691134369.0507474,0.94756263,-4.572877,-2.9111788,36671.24
1691134369.0735147,-0.8734389,-0.90653807,1.7311103,28333.373
1691134369.0974996,-2.8344889,-0.29315883,4.031313,36574.008
1691134369.1214516,0.05276437,-2.2021446,4.117759,33831.09
1691134369.145517,-1.266298,-2.7315354,0.40411854,35958.375
1691134369.16921,0.102220856,-0.5722875,0.09679623,34711.34
1691134369.192224,-0.8543783,-1.1537197,2.5442212,30949.053
1691134369.2145264,-0.8381784,-1.1801425,-1.3720524,32362.527
1691134369.2373886,-0.4911863,-2.3148057,0.098616205,29250.838
1691134369.2600548,-0.2291462,-2.460085,2.7012095,35168.465
1691134369.2820816,-1.2331245,-2.3148553,2.5051994,32376.82
1691134369.3046165,-2.4515898,-0.058683652,3.1463025,32483.107
1691134369.3268588,0.8723201,-2.023813,-3.4043984,27754.121
1691134369.3490698,-3.0416703,-4.4691224,-3.4751248,27495.275
1691134369.3718312,-2.4660542,-3.8035784,-1.1064252,34488.254
1691134369.394651,0.086992055,-4.5648103,2.8042989,31237.863
1691134369.417096,-1.7336255,-4.1913056,3.4774456,35311.285
1691134369.4397418,-1.4515148,-4.171982,-2.3832576,31449.65
1691134369.463101,-2.2226615,0.48736244,1.9822334,31948.38
1691134369.4856784,-2.675024,-5.317365,4.1216416,32205.105
1691134369.5090294,0.50503314,-1.9740207,3.9641366,33043.617
1691134369.5320501,-1.9526023,-2.8594816,1.1884722,30949.162
1691134369.5549588,-3.481134,-0.935069,-1.9276147,32185.234
1691134369.578293,-1.606159,-4.9503365,-2.8324175,33395.8
1691134369.6013322,-1.7476134,-4.923198,3.5083697,32305.068
1691134369.6234248,-3.3564255,-3.949223,4.468675,30086.61
1691134369.646875,-1.8535016,-2.1761158,-3.8338387,28418.836
1691134369.6691344,0.16489466,-1.2984054,0.2737816,27545.314
1691134369.6917005,-1.5910733,-1.2999699,-0.48629078,29441.418
1691134369.7162914,0.59858286,-4.6704826,-0.32312924,29252.055
1691134369.741713,-2.6424837,-0.6264573,-2.5048144,30723.016
1691134369.7643597,-0.20128815,-0.39387253,1.5817817,27488.93
1691134369.7871377,-0.41094193,-5.366502,-2.8115826,30783.092
1691134369.8094847,-3.3807373,-0.023589078,4.406169,32373.512
1691134369.8319273,0.12261279,-3.7923064,-2.3719203,34917.0
1691134369.8559873,0.86140174,-0.73760056,4.2588253,29458.955
1691134369.8797228,-1.0139338,-1.5740135,1.4897597,30055.688
1691134369.9027789,-0.5987397,-1.886196,3.6125367,31445.678
1691134369.927155,0.5243943,-0.075300366,-0.69181067,29708.998
1691134369.9499702,-3.760985,-1.4056325,4.3971996,35019.71
1691134369.9723105,0.04118631,-5.3267984,2.161113,34089.855
1691134369.9946551,0.07987064,0.15592162,0.33877188,36256.64
1691134370.0169106,-0.93237966,-3.3738267,1.0692649,28945.605
1691134370.0408847,-1.5683707,-4.6571984,0.57940763,29549.545
1691134370.0633695,-1.4808792,-0.9538301,-4.176379,27627.076
1691134370.0868263,-2.052219,-4.5867457,4.142892,35624.004
1691134370.1099987,-0.23717017,-2.1388535,-3.707868,36564.56
1691134370.132461,0.116073966,-2.63043,0.4214168,30017.973
1691134370.1551943,0.7418624,-4.8096867,-0.8773847,31192.504
1691134370.1778326,-3.1599426,-4.3377023,-1.0701085,31147.36
1691134370.201125,0.36037374,-2.2289617,1.911842,35842.555
1691134370.223869,-0.7655614,0.5851391,-1.8166053,29965.213
1691134370.246489,-1.4984068,-4.3388023,3.9832876,27654.404
1691134370.2691863,0.53224933,-4.166616,3.9505,28507.186
1691134370.291659,0.117629305,-2.6852932,2.2321746,35944.63
1691134370.3140016,-1.1594554,-0.47318435,-3.243755,31763.166
1691134370.3365505,0.6841575,0.45726857,0.7628137,28462.748
1691134370.3589332,-3.023664,-3.6870587,-0.084810026,36052.16
1691134370.3823514,-0.4150365,-4.2961097,3.721726,33666.8
1691134370.4052103,0.6870741,-3.0047877,4.2451024,28291.959
1691134370.4287093,-3.3034315,-2.3867197,-1.2401395,30417.895
1691134370.45156,0.6493361,-4.7070456,3.8528717,31005.201
1691134370.4739764,-3.3904002,-4.9915757,0.25043848,30229.158
1691134370.4968328,-0.7196731,-1.838865,1.1480899,34441.38
1691134370.5193338,-3.6778705,-1.3606044,-1.2791575,30386.436
1691134370.5429397,0.122745916,-1.5221583,3.645513,35753.688
1691134370.5659842,0.665156,0.058564104,-2.727556,35779.45
1691134370.5887158,0.57557,-0.8642037,-3.7584095,27461.113
1691134370.6112201,-2.3276846,0.34605023,4.083753,30248.309
1691134370.6342514,0.8613731,-1.8678703,3.2826376,31741.273
1691134370.6570137,0.7442662,-1.654986,-1.8877754,32819.215
1691134370.680212,-3.1504714,-1.7061604,2.9499469,34238.94
1691134370.703315,-3.2348092,-3.4426148,-2.605381,35333.82
