Time,Roll,Pitch,Yawrate,Thrust
1690889448.5448902,0.21594845,-2.602052,-2.7377737,29602.637
1690889448.5666249,-2.0261695,0.17490928,-0.51157296,28074.96
1690889448.5890105,0.09449124,0.30209383,-0.28519726,36558.285
1690889448.610983,0.53029233,-0.45484215,-3.651641,34462.793
1690889448.6329017,-2.4664485,-0.38740537,0.21993743,31216.95
1690889448.6552656,0.6258952,-4.804381,1.2757114,30491.781
1690889448.6782525,0.69849,-4.2127504,1.0159624,34232.97
1690889448.700257,0.6740353,-4.028267,3.1260233,31461.525
1690889448.7230766,-2.3810425,-5.4804473,-2.408686,32644.22
1690889448.7453978,0.59689766,-4.817905,-2.1791544,36037.652
1690889448.767858,-3.3243504,-2.1089199,3.2832062,28153.389
1690889448.7901323,-1.4821948,-1.8285377,-3.1378014,32093.281
1690889448.8123658,-2.4819033,-3.6875963,-0.73761433,34094.367
1690889448.8344462,0.40394226,0.42496067,-1.6750907,27809.59
1690889448.856607,-2.7948914,-0.16327547,3.9429758,30714.717
1690889448.878853,-2.978532,-0.19995464,-2.3630815,34950.64
1690889448.9011467,-0.09929978,-3.4591596,-2.0308387,32103.646
1690889448.9232173,-3.580575,-4.768884,-1.2521875,29055.732
1690889448.9454937,0.3159538,-0.9029774,0.103617705,36174.746
1690889448.967295,-0.41893837,-1.4644608,-3.323595,34990.03
1690889448.9890285,-1.9346071,-0.4435984,1.0600115,33877.004
1690889449.0114052,-3.006687,-3.4688494,2.0735552,33808.715
1690889449.0336225,-1.9799111,-2.870309,2.4535275,32951.99
1690889449.0561416,-0.7811665,-1.081754,3.893259,36824.598
1690889449.0785472,-2.0136,-2.4027715,-2.0339615,28805.438
1690889449.1022644,0.051441018,0.2688843,2.4428384,28548.277
1690889449.1248353,-0.5624432,-1.342824,1.9127297,35844.56
1690889449.1468496,-2.7159646,-1.2979589,2.1943247,29085.771
1690889449.1689198,-2.8953197,-1.4147745,-4.476165,28821.809
1690889449.1920557,-3.0607302,-3.0907953,-0.6889764,36164.44
1690889449.213956,0.33794087,-0.1363297,-3.3503766,33776.477
1690889449.236724,-3.2829618,-3.657674,1.442094,28445.73
1690889449.258814,-0.4421036,-1.2017877,3.5545974,30080.365
1690889449.2807906,-2.4825838,-3.6018174,-2.3449328,33543.613
1690889449.3035128,-1.6366473,-0.42122248,-0.46887153,35270.2
1690889449.3262591,0.49191082,-3.405588,-4.1699095,31360.25
1690889449.3482218,-0.8714775,0.22107445,1.1394223,35643.824
1690889449.3706977,-1.7271616,-0.05236781,-1.1708462,31530.932
1690889449.3949597,-0.35447666,-0.22969697,-2.4948294,36475.652
1690889449.4174447,-1.6847566,-0.9990709,1.9300185,35344.816
1690889449.43917,-2.1417007,-5.263461,0.11665106,33202.156
1690889449.4615135,-1.2652113,-2.5522678,3.803805,30195.195
1690889449.4849195,-2.3929453,-1.3532592,-4.130763,36359.676
1690889449.5073578,-0.09599936,-1.0600489,-3.9144068,27332.602
1690889449.5292356,-3.2998989,-1.423018,2.1864512,28310.506
1690889449.551296,-0.32709923,-1.41175,-4.1276793,32649.705
1690889449.5744965,-0.2934747,-0.23274451,1.5596687,34936.72
1690889449.5967033,0.2986573,0.4165122,1.1518068,35946.246
1690889449.6192565,0.14948465,-4.3383207,-2.7282608,34780.973
1690889449.6414907,-3.1181185,-2.399417,2.4070365,27836.773
1690889449.6642566,-0.029168032,-2.8137615,-1.3629062,31049.168
1690889449.6867964,-0.7140167,-1.2394041,-3.358238,27576.256
1690889449.7099292,-2.0652854,-0.9776479,4.311753,29526.824
1690889449.7320158,-1.1309435,-1.3682673,1.1319426,27396.889
1690889449.753889,-2.619729,-0.6030401,3.208305,35524.207
1690889449.7775254,-2.526043,-2.0876374,2.488069,34487.84
1690889449.7994194,-0.75816935,-4.833891,0.5743396,35967.223
1690889449.8209453,-0.9904999,-2.8074841,1.8591741,32102.383
1690889449.8445234,-2.2187839,-3.3348773,1.8503605,34042.355
1690889449.8666348,-2.6354501,0.3610816,-4.0916257,34083.297
1690889449.8886802,-1.3736943,-4.563214,0.7491434,35755.73
1690889449.910835,-3.1914418,-3.646688,2.2743244,28310.506
1690889449.932636,-1.2947342,-2.9778602,3.9903471,36788.266
1690889449.9547584,-2.6949086,-1.166139,1.8216537,29814.648
1690889449.9778225,-1.5157074,0.43815812,-3.710929,33504.215
1690889450.000044,-0.6853528,-1.0973585,1.800291,35540.41
1690889450.0221958,-1.7912943,-2.2285028,1.9533381,35761.38
1690889450.0447807,-3.376534,-0.92684937,2.8756428,32211.611
1690889450.0671625,0.19132133,-2.1012347,-2.766434,33202.785
1690889450.0885172,-0.18977338,-3.187129,-0.7029029,36749.11
1690889450.111001,-2.3502707,-2.4504206,-3.8433602,29909.064
1690889450.1355534,0.23840107,-3.6217253,2.0075004,34125.445
1690889450.1581988,-2.659301,-4.3056636,-2.5064714,31364.92
1690889450.1805472,-0.9479364,-4.819553,0.047948107,28907.129
1690889450.2124655,-0.13822776,-4.299771,-2.366129,32901.625
1690889450.2360055,-1.1851573,-2.2032874,-3.5113413,31014.143
1690889450.2580936,-1.9698799,-0.42922014,-4.42446,34592.32
1690889450.2809217,0.3771617,-4.2600517,-1.4772086,29003.623
1690889450.3057737,-1.3900254,-5.3342824,2.6975105,29449.947
1690889450.3277938,-2.5301726,-4.4511743,0.3557352,35794.926
1690889450.3499694,-0.5442557,0.33522874,-3.669439,31002.71
1690889450.3721626,-3.3020139,-1.1364497,-0.9587987,36548.17
1690889450.3943276,-0.48831755,-1.7414205,4.3624935,36043.9
1690889450.4164448,0.088361494,-2.6512923,-2.6481984,31068.295
1690889450.4384255,0.13028096,-0.8946524,1.4137201,27561.596
1690889450.4611106,-3.478585,-4.2097626,1.7890832,36661.277
1690889450.4829519,-1.7086492,-5.4825363,2.3716884,35724.83
1690889450.5048325,-0.8836438,-2.0444276,-2.511531,29404.383
1690889450.5277424,0.045349382,-1.2004458,-0.31470615,27519.219
1690889450.5494702,-3.4567335,-1.713912,-4.506618,27693.656
1690889450.5712047,0.5599226,-3.7609572,3.9664128,27621.818
1690889450.5939615,-3.3282225,-1.5186703,-4.105495,27608.93
1690889450.6159306,0.708856,-4.1440716,-1.4109778,27670.408
1690889450.637983,-2.5526977,-0.99259615,-3.977277,36186.71
1690889450.661388,-2.7167096,-2.721597,-4.212556,29631.893
1690889450.6834054,-2.76916,-0.5081511,3.3074195,36843.285
1690889450.7053337,0.020762095,-4.1379733,-4.0441065,28953.832
1690889450.7280102,-1.799616,-3.3478038,3.844811,27577.54
1690889450.7499325,-3.4573576,-5.395115,-0.20981662,33205.0
1690889450.7719226,0.25816303,-1.0311309,-2.4977942,32256.375
1690889450.7943747,-2.684382,-4.518483,-2.979528,27801.537
1690889450.8163083,-1.4409201,-0.024832206,2.6673884,36505.242
1690889450.8381922,0.19896503,-1.9675936,-0.23002775,34049.36
1690889450.861579,0.29539344,-4.757007,4.3955445,36042.46
1690889450.883528,-0.16691554,-1.7304134,-3.829115,32059.686
1690889450.9054732,0.22729096,-0.97263443,-0.523674,32102.418
1690889450.9275563,-2.8106802,-5.525098,2.439251,36571.688
1690889450.9499967,-0.48172462,-2.5426483,-1.488795,36045.086
1690889450.974086,-0.16722646,-4.738825,-1.9587519,36592.926
1690889450.9960904,-0.77537924,-4.3561144,3.065154,29393.088
1690889451.0177755,-0.259036,-4.5641365,1.7033199,35725.637
1690889451.0398552,0.7718285,-0.2335721,3.1805687,28262.854
1690889451.0625613,0.07597056,-4.8107467,3.168396,29145.152
1690889451.0846264,-0.59419113,0.23667717,-2.1370296,36678.4
1690889451.1068969,-0.61410034,-1.6106565,0.346078,34800.008
1690889451.1289225,0.75634396,-1.5021497,-2.8561046,27886.031
1690889451.15193,-2.9902802,-0.08805689,3.210329,29369.61
1690889451.1739957,-1.8561673,-2.315036,3.1861591,32058.03
1690889451.1958508,-3.6197333,-1.5620707,-1.6635462,34670.992
1690889451.2177415,-0.02198446,-2.5972304,-1.00753,31794.186
1690889451.2395277,-3.0754478,0.25274527,1.30225,36055.56
1690889451.261712,0.7725543,-2.949782,2.435065,34066.8
1690889451.283876,0.35494804,-0.23775454,1.5990267,30028.463
1690889451.3056536,0.35513067,0.10328928,-0.67711866,33680.926
1690889451.3288848,0.38066822,0.4461263,1.7849859,27494.701
1690889451.3506331,-2.4892974,0.14316472,-0.7756055,30610.703
1690889451.3729112,-3.7911055,-1.3191328,1.5671947,28116.889
1690889451.3952496,-3.3792167,-4.642808,3.035018,31977.236
1690889451.4170506,-3.7720156,-2.3906498,0.81333876,34669.758
1690889451.4388454,0.33761615,-1.6427355,-1.0124513,29892.986
1690889451.4617915,-1.3621227,-0.5475039,0.4436124,32889.324
1690889451.4835148,-3.3412054,-1.4418592,3.335678,35132.2
1690889451.5052977,-2.1181023,-5.122057,-3.0959818,35963.812
1690889451.527225,0.51096135,-2.7783372,-4.3790836,35127.367
1690889451.5489967,0.08293665,-3.042797,2.3829496,31452.957
1690889451.5715585,0.32617307,-2.5858364,-4.649038,34706.062
1690889451.5938137,0.18698145,-5.385235,-0.26999563,34510.78
1690889451.6165442,-1.3987756,-5.521889,-1.3153293,29039.543
1690889451.6383927,-0.4355319,0.028571354,2.121249,30856.873
1690889451.6606858,0.7713894,-4.3451214,-2.2373135,28633.488
1690889451.6826868,-1.0719383,-4.3289857,-4.002412,31786.533
1690889451.705641,-1.5701805,-4.536799,-1.0946343,32929.953
1690889451.7278073,-1.8632213,-4.056734,-4.518458,33854.8
1690889451.7500262,-2.1503623,-3.303447,-4.2963023,30626.768
1690889451.773483,-2.4881124,-0.3016635,-3.267145,36460.418
1690889451.7960513,-0.5918248,-3.035329,1.2346163,34808.434
1690889451.8180108,-3.1326385,-3.8041046,-2.8157144,31927.453
1690889451.8402305,-1.0288123,-0.36258647,4.02022,28430.041
1690889451.862232,-1.4434252,-0.9160991,-2.6274269,35604.188
1690889451.884774,0.012486871,-4.730941,-1.4586562,33892.465
1690889451.9066997,-0.6527007,-1.4317167,-2.791693,34790.926
1690889451.9288716,-2.4287603,-2.8700738,3.2050347,33804.277
1690889451.9510772,-1.2313892,-0.61043656,-4.30163,31908.39
1690889451.9732003,0.030740725,0.46020433,0.563515,27969.336
1690889451.996054,-3.695031,-4.8637285,-1.1583432,35928.66
1690889452.0179641,-1.9455245,-3.9822836,-4.049873,35374.79
1690889452.0405047,-2.444558,-3.178163,0.29463515,33009.9
1690889452.0623088,-0.497467,-2.301078,-0.39292186,31931.248
1690889452.0842822,0.9432431,-2.0151048,1.1682816,34774.598
1690889452.1073153,-0.43932775,-0.7429261,-4.5043764,36803.46
1690889452.1294167,-2.1231518,-1.492522,-1.8965707,35473.58
1690889452.1515028,0.76469314,0.25458777,1.5777559,34684.457
1690889452.1734602,-0.597157,-4.3783355,-2.3911555,31116.87
1690889452.1958916,0.15780169,0.4218997,-1.2571841,35326.855
1690889452.217884,0.8813711,-5.43165,2.2943642,28330.98
1690889452.2404182,-1.6896441,-3.4150333,0.34443307,31740.53
1690889452.2631,0.8449059,-0.39544967,-2.9245808,34486.89
1690889452.2851262,-0.9572127,-2.8275743,-3.797344,32703.062
1690889452.3079755,-1.4969274,-0.53392595,2.8488624,32592.244
1690889452.3303404,0.03780809,-3.691865,4.238824,36131.516
1690889452.3526306,-0.6251822,-4.817942,2.1004975,27967.09
1690889452.3749921,0.013650068,-4.622995,3.4665785,30859.818
1690889452.3968968,-0.5759897,-0.48528406,1.1227734,36057.723
1690889452.4198844,0.07588948,-1.6920806,-3.3004377,29158.865
1690889452.4417062,0.67979413,-5.419233,3.2309668,29421.865
1690889452.4640882,-3.4678392,-3.9746928,-0.9095997,31393.152
1690889452.4859526,-0.9502245,-5.3359313,-3.928807,34442.59
1690889452.5090196,-0.11766514,-2.2142491,-2.5696445,32462.428
1690889452.5312743,-0.5064944,-4.8532624,-4.156137,31213.332
1690889452.553691,-2.3549166,-4.8561926,-3.3541052,28153.033
1690889452.5760796,-0.8121085,0.10460798,-0.5212459,29136.938
1690889452.5986576,-0.5799372,-5.3781137,0.84015894,29299.346
1690889452.6205285,-1.6386973,-5.245729,-0.04503407,30551.14
1690889452.6424434,0.4160217,-3.062826,-0.71829,27952.295
1690889452.664352,-1.9415,-3.7787907,2.7347293,31369.049
1690889452.6874442,-2.1994703,-1.2615229,1.4945984,34578.203
1690889452.7097504,0.52843946,-3.5560095,3.50759,33045.64
1690889452.7317975,-0.029806668,0.27469185,3.453981,27851.143
1690889452.753733,-2.5997608,-4.0423684,2.66759,35241.508
1690889452.775932,-3.3453465,-5.108489,1.097436,33253.848
1690889452.7977393,0.23717828,-3.057356,-3.4494238,33388.652
1690889452.819828,-2.9922338,0.3104567,-1.3349063,34421.887
1690889452.8418741,0.84290636,-2.770023,-0.32860172,31002.121
1690889452.863826,-1.8863492,-1.1940143,1.5652392,36209.402
1690889452.8862514,-1.3626138,0.32163084,-4.042609,27652.13
1690889452.9083705,-0.13690554,-2.9757605,3.7163308,27939.453
1690889452.9307234,-1.0397938,0.12010398,-1.9818268,33401.82
1690889452.9537945,-0.31373414,-3.9575148,-3.8280704,35604.06
1690889452.9763284,-0.5162167,-2.7361245,-3.9501863,31044.615
1690889452.9981718,-0.20672281,-5.1068163,3.944478,33799.965
1690889453.0200722,-1.6180928,-4.195517,-3.1835046,32163.717
1690889453.0420225,-0.8070575,-0.5638504,-2.8289027,32246.076
1690889453.065088,0.5809473,-1.7557144,-1.0813254,36428.176
1690889453.086994,-0.98138976,-0.13387181,-1.2267777,29158.54
1690889453.1104543,-0.76606816,-3.183772,-3.009796,36643.996
1690889453.1324515,0.8136632,-4.1572623,2.3363504,27344.303
1690889453.1553082,-3.3085442,-4.7952294,-2.0716207,34475.45
1690889453.1772788,-0.99768686,-1.3509264,-1.5281624,29489.084
1690889453.1992953,-1.5626316,-1.4706692,-0.68607736,32377.902
1690889453.221657,-0.9295278,-4.994291,-1.56306,30351.049
1690889453.244811,0.8447755,-3.0083334,-3.7854488,27247.436
1690889453.2667012,0.1277432,-0.8091146,1.7927736,28521.51
1690889453.2886672,-1.9366139,-3.7657654,-4.437467,33736.867
1690889453.3103528,-2.9010625,-0.18058483,3.4819613,31240.857
1690889453.33284,0.6257776,-5.2570434,-4.0079846,30213.92
1690889453.3553421,-1.3981072,-3.3821838,-3.503855,33201.72
1690889453.3769999,0.3102735,-3.2426696,-0.78205884,34678.64
1690889453.398796,-0.47660983,0.03439756,-2.649674,27790.629
1690889453.4207754,0.92451507,0.41472924,2.8720417,28604.81
1690889453.4432826,-1.8034432,-3.7384129,-2.273522,29556.07
1690889453.4654813,-2.4308908,-5.1972904,1.2955029,28599.453
1690889453.487526,0.2493981,-4.480287,-0.7416722,33447.258
1690889453.509689,-3.4531157,-2.6948361,0.70621467,29554.914
1690889453.532418,-2.4120858,-0.21271676,3.8818834,27273.637
1690889453.5542386,0.7773624,-0.15018773,-0.98777705,36495.89
1690889453.576354,-0.5927969,-3.5827274,-3.1872523,33540.066
1690889453.5986648,-0.3843726,-4.8855643,2.8277028,33385.48
1690889453.6207483,-3.4315038,-2.3721616,-0.45928958,36282.074
1690889453.6429744,0.27468747,0.5371598,-1.9584031,28139.441
1690889453.6645858,-0.23968993,-4.1564703,-2.4078543,32704.053
1690889453.6865256,0.6717382,-3.9350193,-3.2026265,35356.004
1690889453.7083745,-1.5247551,-0.73148686,2.2533665,29834.514
1690889453.7305663,-3.1983185,-2.8221064,1.3046223,35126.17
1690889453.7527237,-0.7621854,-4.0975695,4.063258,29597.639
1690889453.7745824,-1.9994175,-0.68407834,3.2046165,29102.21
1690889453.7962801,-0.6842433,-2.3036332,-3.7506392,33498.066
1690889453.818239,0.28841397,-1.2883068,-3.1694274,32803.457
1690889453.8407485,-3.243625,-3.2915978,-3.2413025,28087.674
1690889453.8634675,-3.6434815,-1.6330217,0.97296816,32697.408
1690889453.8858852,-1.5332683,-1.0340968,-3.8600795,27659.06
1690889453.9080427,-1.1987449,-0.6147362,-3.566241,29693.973
1690889453.9303117,-3.565858,-2.6590755,1.7487736,34117.656
1690889453.9528842,-2.417738,-0.86593217,-0.14023697,29948.377
1690889453.975169,-2.2534223,-0.069473974,1.3525862,32071.629
1690889453.9988782,-0.7498032,0.30814135,2.5597413,31426.502
1690889454.0206864,0.79427713,-0.39598596,1.4261235,33664.363
1690889454.0425358,-2.1891043,-1.3396072,-1.0905702,36698.113
1690889454.0644536,-0.30118206,-1.0988594,1.6646507,34020.184
1690889454.0863454,-0.9808475,-5.164522,-2.6818423,28447.201
1690889454.1086216,-0.11558254,-2.2842088,-0.07247159,35613.72
1690889454.1309292,-3.0568316,-0.66361004,-3.695572,32337.355
1690889454.1534197,0.55003256,-4.8508234,0.6114011,27679.584
1690889454.175509,-2.4358299,-5.4323864,-0.049085416,35303.81
1690889454.1975906,-3.3583488,-0.06726426,-2.969486,29991.592
1690889454.2200525,0.1355903,-4.212578,2.2876766,28116.285
1690889454.2420683,0.5100002,-1.6318668,2.3643086,33976.668
1690889454.2661085,0.5264244,-4.943411,-1.9401822,29417.83
1690889454.2880569,-3.4666772,0.12582643,3.0354383,31366.156
1690889454.3103004,-0.30628905,-5.020991,4.056816,35653.992
1690889454.332157,-2.53361,-1.6262672,-4.5114293,35273.605
1690889454.3541365,0.61136436,-4.873405,2.4837375,34776.008
1690889454.3772762,-1.8593175,-3.1433532,4.4842997,28550.344
1690889454.400904,0.43288037,0.39728737,-2.4583347,28202.326
1690889454.423306,-2.6645734,0.5324636,-1.8618572,32179.436
1690889454.4451606,-1.2410786,0.35665023,0.86339766,29519.031
1690889454.467608,0.8663929,-1.9611067,4.338677,32226.236
1690889454.4896493,-3.657809,-2.1222234,-1.8521777,27822.414
1690889454.511736,0.5427157,-0.10852036,0.7051985,27437.432
1690889454.5355353,-3.622959,-2.5157073,-2.5223007,32192.113
1690889454.5581973,0.51540905,-0.836118,2.176998,35717.94
1690889454.58048,-3.7045712,-0.9565444,2.2413433,31656.902
1690889454.6027417,-1.7761579,-3.93689,3.383932,33191.746
1690889454.6247272,-1.5194098,-4.130111,0.09869006,27940.785
1690889454.6463706,-1.4011488,-0.54966456,-3.916092,36375.684
1690889454.6689093,-2.2607524,-3.0492496,-3.6402133,35055.727
1690889454.691295,-0.24421634,0.18506086,0.3769132,30678.514
1690889454.7136483,-2.7766488,-2.4695768,0.7851762,27905.701
1690889454.7357392,-1.3896344,-0.07535149,-0.95509374,32752.896
1690889454.7582269,-2.8847442,-1.7484221,2.543112,29798.479
1690889454.7803946,-1.6680901,-4.115598,0.36887142,35940.113
1690889454.8035042,-3.397245,-0.85866356,-2.3259342,29688.285
1690889454.8252974,-3.0347602,-0.008537751,0.46436644,28609.426
1690889454.8489802,-0.22141454,-0.1381942,-3.8419323,27532.701
1690889454.8711898,-2.5342276,-5.1421027,3.8160625,34343.83
1690889454.8932445,-0.45402643,0.022541754,3.7481039,32504.578
1690889454.916291,-0.46057954,0.6231618,2.5899582,31402.963
1690889454.9386103,0.03255237,-4.350856,1.2930367,35009.824
1690889454.96093,-0.93143415,-2.4721887,0.34111857,29903.502
1690889454.9825802,-2.8081725,-5.422303,-1.7266688,31966.56
1690889455.0045178,-1.6850343,-2.9907289,3.387678,32248.396
1690889455.0269415,-1.9140292,-1.2330941,-3.1097429,34366.49
1690889455.048624,0.6038992,-2.5824618,4.2774906,31364.115
1690889455.0702891,-1.552061,-0.3583516,-3.9949799,32161.344
1690889455.0921123,-2.1824033,-4.7074957,-3.2857246,27943.58
1690889455.1141827,-3.2006502,-1.7108145,-0.39504728,31892.568
1690889455.1364558,-1.5870832,-2.9439816,-2.9425082,34993.973
1690889455.1581523,-1.3822864,-5.4145465,0.26530012,29668.432
1690889455.1817513,0.3081104,-0.7443479,-3.2575588,35670.2
1690889455.2039304,-2.9152606,-2.0846457,-0.830384,36414.03
1690889455.2256432,-0.645317,-2.8815863,-0.93961686,34604.996
1690889455.249117,-0.33308575,-0.13263036,1.554764,31898.959
1690889455.2714038,-1.7379836,-2.746427,1.5062284,33440.293
1690889455.2930064,-2.5935977,-0.39135268,2.0096762,27733.352
1690889455.31522,-1.321639,-4.885853,1.2448913,29681.227
1690889455.3368573,-3.717391,-1.0146917,1.7313985,29889.01
1690889455.3587942,0.823988,0.43695757,3.1097622,32124.312
1690889455.3809478,0.34034565,-1.8480687,-3.248611,29123.506
1690889455.4032092,-2.975503,-1.9313486,0.14913271,31358.234
1690889455.425235,0.8014015,-5.286573,-4.317944,33073.977
1690889455.447934,0.6576356,-2.7771378,3.1384096,35241.156
1690889455.4701226,-2.873726,-5.223488,-2.773136,32451.09
1690889455.4920166,-2.4521108,-2.6170683,-2.1590478,36454.016
1690889455.5146499,-1.4150807,-0.8532561,-2.7473423,27896.734
1690889455.5373082,0.5521885,-0.14276329,2.9996543,29153.248
1690889455.5591671,-1.4218752,-2.4146771,0.6916205,32767.342
1690889455.5815568,0.28127578,-5.024986,0.25147456,32741.123
1690889455.6039367,-1.0375329,-4.322273,3.2547383,28124.594
1690889455.6264136,0.23711285,0.38763717,4.283987,36441.777
1690889455.6487806,-2.567218,-2.3874662,-1.6900314,32277.014
1690889455.6706376,-1.360387,0.10735846,-1.9195528,28501.281
1690889455.6925902,-0.8674369,-5.0056148,1.695621,34951.32
1690889455.714744,-0.93937725,-1.8544782,-0.17803907,27934.246
1690889455.7368674,0.8280737,-2.5221515,-2.7863994,32773.9
1690889455.7585707,0.027230369,-3.3320134,-2.997834,35729.24
1690889455.7810233,-0.98555726,-4.9155483,1.7081233,34556.17
1690889455.8034823,-3.562239,-2.4366102,-1.2082175,27743.508
1690889455.8259726,0.8361327,-3.8361025,-1.4983023,28830.723
1690889455.84839,-2.0061693,-3.1289208,-0.84646034,34100.8
1690889455.8703861,0.37654725,-5.3686323,1.4678576,35953.14
1690889455.8927085,0.8733489,-3.669266,3.018464,27304.557
1690889455.9151123,-0.09055234,-0.7235444,2.5263362,28447.713
1690889455.9376097,-1.019957,-2.525289,-3.2009351,29974.736
1690889455.9617116,-3.6434515,-5.4565206,1.5053512,30018.623
1690889455.9838984,0.085768126,-1.7188281,3.914965,30001.162
1690889456.00609,-2.8778126,-3.789967,-0.11280193,32024.463
1690889456.0281813,-1.2697092,-4.955446,0.99976414,29682.654
1690889456.050545,-0.0035560844,-2.0085185,2.5129094,29818.342
1690889456.0723727,-3.0126112,-1.4017482,-2.3990445,28774.615
1690889456.094439,-0.4131467,-2.1096807,0.36861068,33770.434
1690889456.1162243,-1.7748876,-2.9588606,3.4918873,27702.91
1690889456.139137,-2.4319773,-2.4706733,-0.2693923,34141.164
1690889456.162232,-1.0508188,-2.6297815,-0.5959842,31059.584
1690889456.183936,-3.0432758,-3.8129342,3.251093,36837.89
1690889456.2062638,-2.7566924,-4.1535063,-3.8469875,29653.924
1690889456.2284563,-0.58683354,-0.84845805,-1.6187012,29159.604
1690889456.2508006,-1.595993,-2.0651314,3.0663135,30629.83
1690889456.272643,-1.1215365,-2.4153526,1.7703345,34268.562
1690889456.294534,0.08998624,-5.1957893,2.7753415,31211.55
1690889456.3169634,-3.7484503,-2.335516,-3.0119994,35647.754
1690889456.3387172,-2.408138,-4.394484,0.10392475,35236.344
1690889456.3612297,-2.6362174,-4.5094395,0.11095447,28686.428
1690889456.38302,-0.428079,-3.909094,0.15859291,28036.111
1690889456.4049006,0.48910967,-5.3184404,-3.6248534,35789.83
1690889456.4269493,0.16967475,-3.0624812,-2.0375059,34840.84
1690889456.4492245,-3.3603585,-2.9756336,-2.8368201,29161.783
1690889456.4714956,-3.356591,-3.7586064,-3.3127613,28164.041
1690889456.493941,-2.2289138,-3.2699459,1.4362572,32960.43
1690889456.5158696,-2.9436917,-3.8994737,-0.9645144,36346.18
1690889456.538538,-0.009647435,-2.5941238,0.81209236,31508.236
1690889456.5605352,-1.8014876,-4.0240655,-2.0284255,32035.105
1690889456.5832572,-1.7480048,-5.316228,2.177359,34598.5
1690889456.604749,-1.0233768,-4.122836,3.4200299,36421.645
1690889456.6263871,-1.0730414,-4.18897,-1.8870788,34359.227
1690889456.6483161,-3.2136981,-3.9166389,2.0221162,33243.973
1690889456.6702151,-1.3381857,-2.9050803,-3.779004,33786.414
1690889456.6923132,0.8566107,0.26574662,-1.1621953,28080.799
1690889456.7142618,-0.29877472,-1.7136817,-3.3097324,34050.67
1690889456.7364151,-0.10393749,-3.5882554,0.28468773,27578.648
1690889456.7584958,-2.1356304,-1.3794076,-0.8130934,36936.723
1690889456.7807229,-3.721019,-2.8958535,-1.769335,33954.96
1690889456.8028705,-0.2075344,-1.3034922,1.1213647,32810.77
1690889456.8251681,0.17699116,-4.2315984,3.6432402,32045.082
1690889456.848334,-2.4958334,-4.511058,-3.2991226,31583.42
1690889456.8704576,-1.5784866,-2.4721947,-0.31819633,32478.414
1690889456.892112,-0.9637838,-1.6994064,0.37169847,35438.848
1690889456.9140549,-0.9957981,-4.9982543,4.09151,31257.514
1690889456.9365706,-3.1437938,0.08068159,0.886692,35866.83
1690889456.9591208,-3.164956,-1.10724,0.6395882,34675.926
1690889456.981337,0.06612762,0.08971395,2.4492002,31741.715
1690889457.0035481,-3.370511,-1.5794833,3.3197517,32514.688
1690889457.0256245,-3.6432312,-2.5106456,-2.875309,27463.29
1690889457.0475922,-1.7801759,-1.8549013,-4.312863,36214.754
1690889457.0701456,0.09780475,-4.792133,4.272614,31452.865
1690889457.0924013,0.8725349,-0.19098069,-1.2116636,29762.193
1690889457.1147413,-2.9500732,-4.1968703,-1.897774,32394.047
1690889457.137084,-1.9373139,-3.3729098,2.6377745,35878.652
1690889457.1597307,-1.4326143,0.4076065,-2.123394,34778.105
1690889457.1817377,-3.5432754,-1.1905693,-2.374411,36714.625
1690889457.203739,-2.395995,0.19647835,-4.1692986,27576.162
1690889457.2277374,-0.7436503,-3.8164978,3.9244263,35716.832
1690889457.2500515,-0.22810724,0.39577982,2.3487122,35496.656
1690889457.2720032,-0.115993604,-5.089702,-1.4900836,34789.348
1690889457.2941177,-3.4276347,-4.9453897,4.304633,36785.465
1690889457.316457,-1.7012998,-1.2849399,3.1721325,35387.688
1690889457.3382294,-3.348292,0.23563091,-3.1052852,33501.98
1690889457.3599713,-0.21341239,-1.9721414,3.6054296,33574.99
1690889457.3824396,-3.6834638,-4.8902526,-4.2893524,30387.93
1690889457.4042997,-3.2486322,-0.53465426,2.244415,30756.252
1690889457.4268856,-0.5281354,-1.3994825,4.1184683,30134.258
1690889457.4494119,-1.3748764,-1.0770949,0.23640044,30515.25
1690889457.472161,-1.081899,0.0038244869,-2.7901678,36048.684
1690889457.494261,-2.2593632,-0.01686682,1.3172754,29065.068
1690889457.5163798,-3.095535,-0.14332272,-3.1321611,34463.633
1690889457.5379493,-1.4806447,-3.7679312,2.6561403,35827.82
1690889457.5604846,-3.5932808,-4.349442,1.4642732,30331.889
1690889457.583005,-2.62406,-3.0442774,-0.19150224,29349.518
1690889457.604883,-1.278022,-1.4539402,-3.7356577,36276.66
1690889457.6270657,-0.074535266,-5.0979514,-0.39955655,29258.807
1690889457.6492727,-2.5681765,-3.045895,0.9839337,35476.504
1690889457.6713924,-0.75113773,-0.040324844,-2.5980427,29596.805
1690889457.693637,0.4529736,0.09132842,1.739447,28045.26
1690889457.7155209,-0.8185606,-4.139339,3.4505394,32199.494
1690889457.7379177,0.20054781,-3.5855706,-0.5816563,33187.26
1690889457.7602444,-0.4893099,-2.9406114,-3.0495236,29977.201
1690889457.7826958,-0.18030155,0.27852908,0.53311443,35756.703
1690889457.8054662,-1.8670583,-3.5844467,2.2639043,34325.254
1690889457.827858,-0.86064374,-0.10276319,0.87049085,33491.887
1690889457.850042,-3.1072104,-3.3761208,-0.5602798,34549.84
1690889457.8730438,-2.0408957,-2.195946,-1.5811014,30624.17
1690889457.8957894,0.71739733,-4.9403405,0.9233351,33824.48
1690889457.9173985,-0.70877755,-1.7783912,-3.1923435,29292.398
1690889457.9396863,-2.2451112,-4.761554,-1.1408033,35428.26
1690889457.9622545,0.49375534,-1.7456977,-0.28815874,28529.906
1690889457.9842591,0.2105364,-0.75396633,2.5968428,35273.223
1690889458.0064645,-1.5631443,0.2431354,-4.1679273,29714.854
1690889458.0286028,-3.310029,-4.232256,3.6629953,33632.406
1690889458.0504756,-1.4421954,-0.56149703,2.230197,30460.73
1690889458.0724542,-1.2644613,-2.908569,0.27737728,33478.906
1690889458.0948558,-0.8352253,-2.629319,4.2053947,28366.328
1690889458.1166582,0.5428709,-0.4803802,0.6881936,34193.426
1690889458.1396585,-0.7176968,-5.3509417,0.29210225,34412.582
1690889458.1623297,0.23975316,0.19604562,-4.4472356,29030.867
1690889458.1846635,-2.05098,-3.0584064,2.35033,28657.51
1690889458.2072015,0.09252599,-2.0709627,-3.5550666,31467.494
1690889458.228914,-2.476814,-2.8217533,-1.3948517,33213.805
1690889458.2511637,-1.2013549,-0.79112244,0.53571576,29876.77
1690889458.2732131,0.4031294,-0.73916245,4.409214,30907.383
1690889458.294795,0.15599105,-4.581293,2.7088861,36110.555
1690889458.3173997,-0.7072448,-3.525445,1.5245016,27455.436
1690889458.3392527,-3.127753,-4.4898934,1.1299275,29938.164
1690889458.3610675,0.45044312,0.07919346,1.0054921,35224.883
1690889458.3836546,-0.88077664,-2.558329,1.837169,28993.01
1690889458.4058824,0.23678556,-0.36118174,2.3648324,32689.605
1690889458.4281762,0.85281116,-3.4438245,-1.6294433,28847.988
1690889458.450499,-2.4040844,-0.049544368,3.5962794,31994.855
1690889458.4725497,-0.6040133,-2.4237008,2.0876675,29039.203
1690889458.4942894,0.32477263,-4.0980487,-4.215653,27883.955
1690889458.5165648,0.6289452,-0.11201034,-4.5116553,36226.266
1690889458.5384824,-0.7859299,-1.4043831,-1.1649504,33417.27
1690889458.5608244,0.08731237,-0.919999,3.2840006,31750.78
1690889458.5829315,-0.061104313,-1.2913386,3.4520907,28273.504
1690889458.6050823,-2.4590814,-0.7235547,-2.7226229,32773.082
1690889458.6279147,-2.9812505,-3.2656512,0.82399166,32118.137
1690889458.6500928,-1.9438435,-0.1966119,1.8660619,33130.2
1690889458.6719236,-1.0656204,-3.6587772,2.3401792,27929.857
1690889458.6939685,-0.81492364,-1.3951802,2.1397147,32727.361
1690889458.7164614,-2.766431,-2.6401165,2.5945733,33443.484
1690889458.7390287,-3.1506596,-1.3501047,0.38002443,28160.645
1690889458.7613502,-1.2644527,-2.1592727,3.6728377,30881.895
1690889458.783339,-1.7903012,-3.8699687,-2.933673,35929.69
1690889458.804986,-1.9148834,-3.6089811,-0.73167014,36754.07
1690889458.8270473,-3.3147843,-3.8881009,-1.549136,36711.465
1690889458.848574,0.8920946,-2.372609,0.9306305,29521.402
1690889458.871275,-3.3863714,-2.5430655,3.0776994,36179.695
1690889458.8930397,-2.0112226,0.21734208,-3.1783671,29423.148
1690889458.915185,-1.0380127,-1.5298433,1.1940522,33851.727
1690889458.9375727,-1.6153634,-1.1994679,0.83386195,27483.566
1690889458.9590938,-2.9217758,-1.3792659,-3.593546,35812.484
1690889458.9810824,0.7833053,-1.9562646,-3.6488183,33192.945
1690889459.002782,-2.089211,-2.3206563,2.1277494,31335.188
1690889459.0248506,0.51800096,-2.3350732,4.2816143,32226.887
1690889459.0472734,-3.408135,-1.0642394,-4.372866,28438.793
1690889459.069355,-1.2371966,-2.1085513,-0.35667732,28386.936
1690889459.0914412,-2.874833,-0.9618946,-4.584803,30611.367
1690889459.1137643,-1.4578708,-1.3794702,-3.7698178,28866.875
1690889459.1364133,-3.2938032,-5.258675,-1.5930107,36689.047
1690889459.158514,-1.1315339,-0.18037882,-1.8540342,35632.832
1690889459.1806967,-0.6803564,-0.30576122,-2.4117901,30571.188
1690889459.2027993,0.9214842,-0.96679014,-2.0794435,33817.875
1690889459.2249236,-2.5611646,-3.714201,3.6171336,36915.805
1690889459.2467568,-2.512408,0.16307157,0.3663645,29852.656
1690889459.269542,-2.2429054,-1.6956719,0.56797945,31150.438
1690889459.2929373,-1.9260759,-3.6659045,2.499483,28593.451
1690889459.3150523,-3.6937184,0.02080787,-1.9953029,29798.447
1690889459.337745,-2.262174,-5.101775,-4.4911942,29409.57
1690889459.3598628,-2.8302794,-4.801926,-4.3361993,31101.168
1690889459.3817837,0.21226996,-0.42296103,4.175258,32148.521
1690889459.4040089,-3.1161654,-4.626569,-3.7393262,30373.42
1690889459.4259753,-3.5975926,-0.59782577,-0.3544778,33803.188
1690889459.44847,-2.0092041,-2.6054976,-2.6766388,30398.012
1690889459.470193,-0.2695784,0.18423684,-1.9272672,31073.115
1690889459.4919076,0.514344,-1.6458511,-0.08459433,29505.803
1690889459.5135121,-2.196568,-4.3047276,-0.31107485,30016.385
1690889459.5352437,0.06501108,-3.5714407,2.3046916,32200.154
1690889459.5569518,0.4619707,-5.4037848,-3.4254825,29201.02
1690889459.5787241,-3.0040543,-3.111489,0.016180031,30981.352
1690889459.6007588,-2.0894299,0.52378154,1.226996,31950.508
1690889459.6225543,-2.4446452,0.019106079,-0.94667745,30227.021
1690889459.6460745,-0.2335222,-0.17550242,3.4552398,29871.139
1690889459.6681695,-2.1927884,0.31470686,1.7626327,34896.914
1690889459.6902544,0.41822433,0.030516284,-3.3624887,29520.434
1690889459.7123337,0.8725141,-0.9431021,-1.8465617,33173.63
1690889459.734539,0.605561,-0.73876274,-4.2990665,36263.805
1690889459.7574904,-3.2846596,-3.0243943,2.492529,36595.508
1690889459.780084,-1.481108,-2.943577,-2.0017028,34213.91
1690889459.8018718,-0.2842937,-5.050369,0.8936984,35634.613
1690889459.8240967,0.8610605,-3.4491518,0.38722596,29700.402
1690889459.846228,-2.2890632,-3.816206,2.6094255,28480.943
1690889459.8687751,0.6323016,-2.1815464,1.5091285,27189.547
1690889459.8905563,-1.4933281,-0.23593631,-3.9597497,30412.98
1690889459.9122834,-0.118023574,-3.3938737,2.799205,31241.701
1690889459.933767,-1.8334951,-4.840686,0.72303635,36286.97
1690889459.955555,-3.0635614,-4.2439995,3.687436,31632.805
1690889459.9782727,-3.0103872,-5.1832094,-4.4590025,34871.953
1690889460.0007162,-1.8921779,-4.2390037,3.8504763,31779.426
1690889460.0229232,-1.7265133,-1.6705393,-1.4251727,28855.01
1690889460.0449972,0.9194751,-2.150638,4.202936,29679.402
1690889460.0664666,0.7498095,-3.3285787,-1.8881006,31131.098
1690889460.0887134,-0.9565994,0.45927042,-3.7973027,32579.02
1690889460.110536,-1.6589674,-2.643563,-0.9572228,27333.205
1690889460.1322775,-3.3526142,-3.9143481,-3.1248562,34576.035
1690889460.1557927,-2.858082,-4.183543,-3.4652984,30976.957
1690889460.177948,-1.5531341,-1.4610112,-2.6206331,33350.742
1690889460.2002997,0.27158362,-1.2554119,1.4452235,30168.885
1690889460.2222064,-3.2028077,-1.3633057,-3.5624614,28343.773
1690889460.2445319,-1.2887899,-1.3676547,4.1565657,35127.63
1690889460.2664757,-2.9513745,-2.9872372,-4.3047676,33279.83
1690889460.288733,-3.3259704,-0.9874834,-1.3085176,34718.484
1690889460.3113172,-0.09029816,-0.58220214,-2.4667075,30164.041
1690889460.3333678,-1.0391026,-5.14009,-0.3093935,35630.71
1690889460.3564959,-3.4553397,-2.0938237,-4.142945,30740.559
1690889460.3787594,0.64878136,-2.3496943,-0.66038334,36206.082
1690889460.4015355,0.5278732,-4.361748,-2.7214513,36126.406
1690889460.4240189,-2.6483634,0.49862152,-1.279185,27380.785
1690889460.4462647,0.42657238,-2.021041,0.44126767,28582.502
1690889460.4692245,-1.5968575,-2.5217137,-4.1457677,34859.88
1690889460.491411,-0.30110383,-2.5584733,-0.9829647,33988.656
1690889460.513531,0.20638002,-2.2051396,-3.6475885,33039.207
1690889460.5361001,-1.1144519,-3.8271756,-1.5024443,28774.27
1690889460.5584185,0.15936115,-1.0407834,-4.036373,33167.316
1690889460.5806801,-1.8762234,-5.408764,3.5690382,32431.47
1690889460.6027167,-1.1991477,-3.8451588,0.5950148,32143.74
1690889460.6257348,0.5824044,0.43413466,-3.7482097,27799.822
1690889460.647688,-2.8277912,-1.6265552,3.3523674,35086.06
1690889460.669541,-0.42395285,-3.4699676,-4.241146,36567.223
1690889460.6913888,0.53349817,-1.1356424,2.8505867,35797.344
1690889460.714227,-2.2540994,-1.3680514,1.1353784,30195.117
1690889460.7365391,-2.8953314,-4.4842324,-1.1080128,31948.078
1690889460.7585175,-2.5333025,-4.970769,-1.5213437,35762.965
1690889460.7807176,-2.8047123,-0.07398447,-0.4748556,32964.36
1690889460.803709,-1.4726887,-1.2406431,3.136372,28224.71
1690889460.8257816,-1.3674848,-3.5342197,0.07344969,36476.91
1690889460.8478959,-2.5323863,-0.65745556,-1.0968012,33598.664
1690889460.8701785,-2.5893583,-0.9573808,3.4766068,29759.707
1690889460.8920872,-1.416817,-4.7823234,-2.5766659,35320.945
1690889460.91421,-3.1750572,-0.49135077,-4.297041,30324.148
1690889460.9365203,-0.02821449,-3.3894744,0.41606778,32985.97
1690889460.9589388,-2.806797,-2.1572025,-4.312313,36808.84
1690889460.9811263,-1.2312592,-5.146033,2.797971,32975.42
1690889461.0040584,-3.5879083,-4.621637,-4.1528454,30797.24
1690889461.0263417,-1.264833,-2.444834,3.0502837,30414.059
1690889461.048967,0.35466868,-0.4035272,3.9148512,28187.398
1690889461.0717108,0.028409211,-2.2339585,4.0361423,29573.555
1690889461.0938406,-2.6236234,0.14927942,3.4520853,35445.117
1690889461.1161733,-1.8016628,-3.6899166,-0.08509008,31857.336
1690889461.1386232,-3.3971717,-5.248465,-0.71613276,31051.617
1690889461.1608632,0.5447589,-5.1737275,-0.30093443,33380.312
1690889461.1825635,-3.550891,-4.0417514,0.19737092,33767.957
1690889461.2045429,-2.5309417,-4.8844795,4.0974402,29812.688
1690889461.2271202,-3.7667148,-1.6645408,1.4908265,27362.53
1690889461.2490213,-3.452501,-2.3416243,-2.9939559,28338.277
1690889461.2713835,0.45988977,-2.6621985,3.1646895,36897.938
1690889461.2935748,-1.0675532,-4.2792683,4.3301497,32326.875
1690889461.3155708,0.42090234,0.5932547,-3.4164953,34251.594
1690889461.3374822,-2.2294059,-2.6233618,3.2374403,36464.5
1690889461.3596232,0.23631875,-4.9991207,4.493867,27560.197
1690889461.3816874,0.0745815,-5.2210083,-1.5848548,33354.85
1690889461.4039068,-0.010692434,-3.0596154,1.2061148,35173.336
1690889461.4257014,-2.5414605,-0.5123774,-4.093234,34366.055
1690889461.448194,-0.03504859,-1.8071902,1.1849679,36775.277
1690889461.4700463,-3.633246,-0.09877649,0.27917495,31668.262
1690889461.492291,0.079903066,-3.378461,3.7258818,36277.637
1690889461.5154335,-3.640172,-1.1718359,-3.8711598,32694.852
1690889461.538455,-1.9781884,-4.906136,-2.6963997,36636.234
1690889461.5605726,0.044449322,-4.1653595,-2.8362796,28836.357
1690889461.582044,-3.0348697,-4.3388677,3.6355827,34580.695
1690889461.6046433,-1.9057273,0.10110737,-1.8168573,33916.883
1690889461.6271632,-1.7228491,-0.6881382,2.1001365,28074.328
1690889461.6493645,-2.292164,-2.8867435,-3.416734,27217.787
1690889461.6714282,-1.1385907,-2.0085948,4.397254,29940.09
1690889461.6936512,-3.0190568,-2.0807405,-1.294183,33959.79
1690889461.7164288,-0.15310068,-2.84016,-1.8202163,30095.207
1690889461.738078,-0.5483039,-3.1463363,1.9976522,35551.047
1690889461.7602208,-2.1414568,-0.89837533,-1.3557739,30416.582
1690889461.7828724,0.6187681,-3.7251806,1.8887647,35742.523
1690889461.8044944,0.27689394,0.44212207,-2.9821687,36221.34
1690889461.8261988,-2.8169453,-2.4503014,-3.5115774,35320.97
1690889461.847841,-2.1068275,-4.8567357,-3.935429,34261.895
1690889461.8702445,-1.5071269,-5.420456,3.8339403,35899.227
1690889461.8923209,-1.3331654,-1.7207112,-2.2730782,34030.11
1690889461.9147265,-0.6216658,0.21371196,-1.2777587,34713.176
1690889461.9370258,0.32797292,-4.970735,-3.778568,33069.758
1690889461.959062,0.7833213,-4.292769,-2.6370397,36576.734
1690889461.9810467,-0.95928234,-5.113559,-4.390592,36599.375
1690889462.0029273,-0.48860642,-4.731544,-1.433852,36420.77
1690889462.0254915,-1.6133959,-2.2195818,-4.5935726,32414.283
1690889462.0482812,0.06517294,0.6605517,-2.5995688,36796.258
1690889462.069958,-0.15582974,-0.4153278,-0.98112106,34795.527
1690889462.0917635,0.3374389,-2.5600505,-2.1064427,33619.19
1690889462.113643,-2.1409328,-5.170007,-1.3815532,32522.855
1690889462.1354258,-0.13767418,-2.6037035,1.0092565,31411.098
1690889462.157646,-2.4299424,-0.38219512,3.1912444,29366.586
1690889462.1800208,-0.9317173,-2.3336265,-1.0106254,33409.027
1690889462.2020216,0.23620453,-1.4989134,-0.6970732,32663.61
1690889462.224716,-1.2082614,-4.1005573,3.3482773,35368.25
1690889462.247439,-0.12374398,-4.732825,0.9027763,36820.74
1690889462.2701724,-0.790138,-0.50522894,-0.60408705,33774.37
1690889462.2926347,-1.2482635,0.17337692,-4.364958,31276.715
1690889462.31462,0.620818,-3.3730826,2.4959729,28700.441
1690889462.337469,-2.8087099,-2.7312243,-2.7727706,29966.365
1690889462.360409,-0.23595108,-3.0457742,-4.0287504,30015.432
1690889462.3825634,-0.7742213,-3.186074,2.7749202,32625.37
1690889462.4062254,-3.1449287,-0.37915203,1.6380557,31198.582
1690889462.4284742,-0.6228523,-3.855975,-0.42482865,27682.273
1690889462.4506335,0.64316237,-0.057655673,1.0914032,35080.27
1690889462.4726925,0.29260522,-4.968682,3.2850583,29413.281
1690889462.4949565,-2.7963357,-0.13684396,-2.6683853,32558.91
1690889462.5166585,-3.2616508,-4.839395,2.8298976,36071.004
1690889462.538703,-3.404783,0.2820756,1.1000094,28239.902
1690889462.5609534,-2.3615737,-5.177523,-4.321166,36848.707
1690889462.583165,-3.062057,-4.5074196,1.6506053,27509.318
1690889462.605238,-3.1597314,-0.16362739,0.5578352,31827.566
1690889462.6276522,-0.12415333,-2.7232912,3.9638722,35140.484
1690889462.6499858,-3.1320271,-4.2461414,0.9373325,33783.4
1690889462.672173,-3.4023435,-2.9101143,2.051803,36205.137
1690889462.694351,-2.8776577,-1.9957128,-2.4368293,36232.324
1690889462.717717,-1.1384845,-0.461222,1.8533797,31062.148
1690889462.7400258,-1.4733351,-4.954324,1.2899694,33721.176
1690889462.761962,0.6664124,-0.72965556,-0.095887884,28593.398
1690889462.7839358,-3.1453161,-0.24843551,2.2813134,36129.473
1690889462.8056924,-1.1606106,-1.3814393,-3.9502625,33877.766
1690889462.8282895,-3.0878572,-4.8807187,2.151499,32048.305
1690889462.8502307,-3.118092,-2.5097084,-3.3570228,29646.375
1690889462.872156,0.48912972,-2.1734753,-0.47787753,36380.727
1690889462.8943505,-0.28686333,0.5686489,-3.4960933,32012.531
1690889462.916792,-3.0368717,-4.4999537,1.1204852,29864.31
1690889462.93922,0.67564726,-0.41161257,-3.1710255,29946.646
1690889462.9613345,0.7527384,-1.256685,2.673673,30628.068
1690889462.9846094,0.065342486,-5.2466946,3.097673,30488.86
1690889463.0067174,-1.6207528,-5.300235,-2.9769163,36075.984
1690889463.0287127,-2.2244868,-2.3135524,2.6263864,27962.54
1690889463.0503542,0.30986884,-2.4421153,-3.1381328,31481.406
1690889463.0725482,-2.831449,-0.9030228,3.1613312,34717.566
1690889463.0957072,0.5981169,0.23210324,-2.2754776,27549.35
1690889463.1186714,-1.426469,-5.224497,-3.4375274,30100.385
1690889463.1424673,-1.8328458,-4.595256,0.62654257,29423.047
1690889463.1652262,-1.8956056,-1.2815975,-2.1443365,31683.004
1690889463.1876218,-1.7686156,-0.9803883,0.62012386,29707.092
1690889463.20916,-3.503358,-2.567038,-3.89689,28699.193
1690889463.2315662,0.086304635,0.22806522,-4.432005,28881.494
1690889463.254218,-0.8839332,-0.4803162,4.0503316,35396.402
1690889463.2765603,-3.6378503,-0.22636224,2.1460423,27547.195
1690889463.300433,-3.2135923,-4.9500055,0.1972675,29788.666
1690889463.323411,-2.6388485,-0.121382125,0.26280853,33126.742
1690889463.345352,-1.9221576,-1.8833573,-3.660398,29509.703
1690889463.3679123,-1.8421092,-5.4668617,2.446408,28779.547
1690889463.3900478,-1.2957028,-2.6157644,-0.14361577,33364.72
1690889463.4121504,-0.6675581,-4.229816,-2.5193052,31060.877
1690889463.4341762,-1.869145,-4.6637125,-4.1337557,36053.598
1690889463.4575074,0.9116835,-2.0502365,-1.6051247,33878.535
1690889463.4798114,0.7127407,-5.2113733,0.13972853,35975.863
1690889463.5028353,-2.5399296,-1.7621688,1.6003218,29453.52
1690889463.5251203,0.40564367,-4.009166,2.135958,35846.426
1690889463.5479574,-0.4349494,-2.6661978,0.75452095,35685.656
1690889463.5717835,0.5553146,-4.108422,4.4985676,35920.0
1690889463.5949473,-1.2110085,-1.3567021,0.5365202,30227.271
1690889463.617004,-0.6150171,-2.8207524,2.9156291,27493.299
1690889463.638779,-0.45605725,-1.7428098,2.949849,33574.133
1690889463.6608095,0.07805402,0.31684157,0.2682524,27654.084
1690889463.6846282,0.14499174,-0.34213904,2.540929,28417.951
1690889463.7066665,-2.4014032,-5.257651,4.168242,29150.486
1690889463.729185,-2.817676,-4.7669005,2.4903874,33898.367
1690889463.7514532,0.29702148,0.4533748,3.9664104,31023.205
1690889463.7739186,-1.0053388,-3.4642756,2.26244,30451.336
1690889463.7959456,0.8228574,-0.6255627,4.368556,27507.94
1690889463.818745,-3.7853405,-3.7511868,-1.2428713,34006.22
1690889463.8408499,-3.2297802,-3.2003167,-3.8511417,31254.664
1690889463.8633263,-2.171753,-1.4281925,1.6867594,29649.59
1690889463.8866718,-0.3068087,-2.2102704,3.0799468,35164.9
1690889463.9093547,0.2568569,-2.4206297,1.8431565,33761.934
1690889463.9316244,-3.4093628,0.2359974,-1.5087003,33218.746
1690889463.953965,-0.93140626,-1.7134935,-3.6411486,33755.9
1690889463.9761121,-1.9059626,-1.0828929,1.8269824,30448.92
1690889463.9981596,0.31130695,0.42177543,-3.8195965,35163.285
1690889464.0198586,-2.8353865,0.24724637,0.25133798,30931.549
1690889464.0415711,-2.5337074,-0.81107575,-3.9280913,36023.895
1690889464.06415,-2.2053692,0.50486815,-2.6714108,30982.076
1690889464.0861328,-0.29778007,-0.4421739,1.9032583,33940.37
1690889464.1086311,-2.825217,-1.2712427,1.1120001,36344.535
1690889464.130444,-3.6122856,-0.7207305,-2.0922215,34803.582
1690889464.152507,0.58937985,-3.1139455,-0.4788042,33202.77
1690889464.1747677,-2.364023,-2.5747736,4.1741853,30893.367
1690889464.1972322,-0.4911131,0.31893894,-1.8891965,35167.816
1690889464.2196822,-3.757547,-4.3090153,-2.9413202,32110.43
1690889464.243381,-2.3394637,-0.6332469,1.4683844,27976.342
1690889464.2660215,-1.0727632,0.15298958,2.207251,30226.334
1690889464.287724,-3.6545515,-2.1011157,3.1479547,34886.727
1690889464.3095767,-3.0078962,-4.8395476,3.414843,33344.164
1690889464.3316026,0.9304787,0.4560286,1.229509,32105.467
1690889464.35323,-1.9231395,-2.1454785,0.323338,34194.773
1690889464.3760889,-3.5222785,-2.246286,0.7984623,33318.117
1690889464.3980215,0.81306165,-5.348041,1.0457375,33255.29
1690889464.4199011,0.8480197,-3.7843857,4.232232,28622.355
1690889464.4414256,0.12754521,-1.5894659,-0.26838526,36144.016
1690889464.4639418,-2.3065584,0.21341209,2.6644921,32965.14
1690889464.4861827,-3.5678623,-3.9923055,0.62400544,31698.525
1690889464.510135,-2.8291073,-1.1511353,1.8548923,36276.83
1690889464.5323358,-0.39919794,-0.9708607,-2.4764328,36491.703
1690889464.554608,-2.0938885,-1.5438048,-3.8399706,33119.152
1690889464.5773597,-0.21890835,-2.5880513,0.74680364,32761.658
1690889464.599423,0.782839,-2.1778986,1.7525357,34725.246
1690889464.62221,-1.4661108,-2.9645884,1.4790968,36486.9
1690889464.64404,0.08739103,-0.6568312,0.13999683,31360.672
1690889464.6662226,-1.872836,0.0027214955,-3.892471,34371.98
1690889464.6891394,0.5548856,-1.3843871,2.6625803,34811.12
1690889464.711634,-3.033031,-1.9991357,-0.37158862,30673.518
1690889464.733754,-0.17596935,-1.6286718,2.7034929,32816.05
1690889464.755738,-2.0557947,-2.2676556,-0.91350067,32578.672
1690889464.7783093,0.22196043,-4.4735637,-2.013905,27626.309
1690889464.8008413,-0.67055094,-4.8374867,1.1162729,28129.693
1690889464.823353,-2.3187182,-4.381045,-2.4318423,35442.926
1690889464.8456686,-2.2232332,-5.498609,-1.8640456,29934.855
1690889464.8694322,0.613695,-1.7813687,-1.3361646,32274.492
1690889464.8922312,-0.26677492,0.63071704,0.3264615,29865.643
1690889464.915302,-2.6680923,0.2884213,0.6285545,30712.984
1690889464.938074,-2.866353,-3.1513183,3.8779595,29278.438
1690889464.9602916,0.581962,-4.059045,1.777607,35841.17
1690889464.9833837,-3.1513913,-5.1495533,0.93239605,34699.914
1690889465.005467,-3.4189265,-3.0808241,2.7414083,36377.008
1690889465.028216,-1.8914889,0.29746485,-2.4935207,30037.125
1690889465.0503502,-2.4572523,-4.9239798,-1.6537784,34829.83
1690889465.0728345,0.5323145,-0.879656,1.5440975,31034.375
1690889465.0960748,-1.8464013,-4.4322777,2.9737923,29096.37
1690889465.1187828,-1.4558647,-1.973056,-0.024056667,33352.562
1690889465.1412942,-1.6603864,-1.6492001,-0.056668427,28646.438
1690889465.163363,-0.34033895,-0.20177585,3.1377811,35351.734
1690889465.185915,-2.4852922,-2.3533902,3.113185,28383.44
1690889465.2082353,-1.703617,-1.1179062,-3.3076236,28879.357
1690889465.2320251,0.118121296,-3.5043077,-0.045081995,27797.688
1690889465.2540047,-3.2461991,-5.02908,-2.2927306,31062.898
1690889465.2757618,-1.2994515,-3.9694734,-3.2079556,30752.383
1690889465.2997375,-0.9756768,-3.7693372,-3.76433,33724.96
1690889465.3220088,0.63788646,-1.2193593,4.170708,34713.844
1690889465.343923,-1.4962435,-4.508273,1.5754054,35976.844
1690889465.3659148,-2.444309,-2.7586143,-3.8586144,27610.201
1690889465.3880594,-1.4623278,-1.4093987,-0.7735806,34336.715
1690889465.409826,-3.5038946,-0.08220624,-0.2013678,28009.46
1690889465.4321876,-1.2474335,-0.4604551,-3.7561786,36081.53
1690889465.4539347,-3.5166242,-4.665174,-4.10519,31170.37
1690889465.475877,0.62505317,-4.2486467,3.4018676,27471.154
1690889465.499376,-3.0360017,-5.1450615,3.7105885,31257.557
1690889465.5215728,-1.0950361,0.1588587,-3.6849518,32462.785
1690889465.5437758,0.2322086,-3.4641163,-3.8579478,36333.55
1690889465.5687675,-0.28493568,-4.0125422,-1.9628413,30355.986
1690889465.5910342,0.82204604,-0.09227834,-0.86521614,28911.76
1690889465.6130998,0.09709002,-4.1855807,2.6742651,29738.969
1690889465.635412,-2.4725158,-2.5091505,3.9564722,27396.93
1690889465.6576426,-1.8634566,-1.3167038,4.0260324,35674.312
1690889465.6798308,-3.4496856,-3.0454676,3.1546876,27613.973
1690889465.7025952,-0.00047669944,0.04094423,2.8676717,35658.848
1690889465.7257807,-3.1108792,-0.86256385,2.6647632,28435.277
1690889465.7482882,-3.7817833,-3.1696494,3.3687131,36068.523
1690889465.771051,-0.99104905,0.51310426,0.9172188,33344.883
1690889465.793383,0.092368536,-3.8948896,2.9624949,33594.367
1690889465.8182735,0.321945,-0.609105,-4.1641407,29133.146
1690889465.8404999,-1.5387433,-2.7018218,0.28657192,28848.264
1690889465.8629603,-1.0733856,-3.3663423,-0.7729255,29980.146
1690889465.885609,-1.1815145,-0.014432626,-4.3421216,27888.443
1690889465.9082222,-2.3234417,-2.9828668,-0.26380605,31874.375
1690889465.9307704,-0.14704277,-4.7060685,-3.651264,34533.516
1690889465.952332,-3.6766748,-4.862569,0.4861243,30619.59
1690889465.9742863,0.33453193,-1.7170476,0.2429572,33786.23
1690889465.9976227,0.3678732,-0.86057997,0.8490856,36061.31
1690889466.0203304,-3.3497078,-1.3330985,1.7864232,32234.473
1690889466.0432026,-1.0602865,-1.9178871,-3.2656465,32355.508
1690889466.0655048,-0.23484549,-1.9183582,1.5417268,27265.324
1690889466.087275,-3.2639732,-1.3517078,3.3400524,33626.312
1690889466.1091216,-0.8598665,-3.9771023,3.4904413,31213.072
1690889466.1311193,-0.89172226,-2.2191238,-0.3996273,31112.398
1690889466.1536314,0.34687224,-0.70569015,1.0780958,33664.19
1690889466.1768034,-1.6732781,-0.8533014,3.1221657,33838.637
1690889466.1985204,-3.2318563,-3.9154181,0.6640372,27986.12
1690889466.2210753,0.5707865,0.29374835,3.5190082,31135.125
1690889466.2434142,-1.5551316,-2.386941,1.3481296,28656.412
1690889466.2659461,-0.69477123,-4.6082478,-2.0983686,34502.723
1690889466.2879033,-2.746395,-1.3665221,0.21364082,35467.91
1690889466.3101637,0.82695687,-1.7192904,1.5105526,34719.98
1690889466.3319552,-3.130169,-1.9705937,-4.2705274,32149.44
1690889466.353718,0.6511473,-2.2015388,0.25065863,36767.227
1690889466.375912,-2.8621273,0.608231,2.1835618,32243.646
1690889466.3983185,-2.4750166,-3.849255,3.6420405,36545.49
1690889466.4203587,0.50579435,-3.3285298,-0.04365557,34626.125
1690889466.442305,-0.27756104,-1.4785632,-2.471719,31167.646
1690889466.464274,-2.9961917,-4.8951435,3.0644631,35355.723
1690889466.4862106,-0.09558375,-2.4150152,2.2867167,36087.004
1690889466.5080812,0.7598446,-2.1711316,3.7126195,28109.572
1690889466.5310233,-1.2917857,-2.2532637,-4.0124464,30582.566
1690889466.553407,-2.7683074,-4.0315466,-3.979332,36293.406
1690889466.5768464,-0.123557225,0.25292385,-3.697822,30216.205
1690889466.5985973,-0.6889976,-0.78663343,0.18446189,29410.73
1690889466.620378,-0.9521462,-5.543535,-1.4395567,32945.086
1690889466.6434412,-1.1174049,-5.00744,-3.3019586,28167.234
1690889466.6656642,0.68954587,-0.23509027,1.7373418,34279.0
1690889466.6883738,0.22088315,-4.019138,-4.0358577,32202.049
1690889466.7110384,-3.31753,-0.18757747,3.618749,36219.76
1690889466.7337418,-1.2423539,-5.104009,2.706906,27711.21
1690889466.7565324,-2.1643622,-0.11702894,3.8427749,28037.469
1690889466.779098,-2.407339,-4.333093,-2.1495235,32340.607
1690889466.8016517,0.116568945,-4.3138185,-2.2101593,31406.531
1690889466.824318,0.66925937,-4.8403053,-2.137401,31708.379
1690889466.846925,-2.072294,-4.57678,0.27835187,29152.139
1690889466.8691356,-2.6855004,-4.654023,-3.737045,33628.176
1690889466.891187,-3.0175407,-1.8977839,-2.236146,27948.46
1690889466.9133897,-0.31792843,0.05528125,2.013191,32067.72
1690889466.9356656,0.009895352,-1.7293872,-0.60628116,31749.656
1690889466.9578297,-0.99359155,-2.3396285,-3.7534761,27978.7
1690889466.980129,0.42713037,-5.328433,-1.6664773,31571.912
1690889467.0032587,-0.15428792,-0.56272817,-3.4171717,32874.35
1690889467.025179,-1.8123958,-2.5148764,2.3755488,30576.96
1690889467.047374,-1.048381,-4.598747,0.68585294,29367.795
1690889467.069312,-0.7781338,-3.6187615,-3.7030473,31539.016
1690889467.091417,-1.6766517,-1.8972323,-3.7969177,30922.441
1690889467.1139953,0.050877485,-4.466169,-1.4170729,35737.07
1690889467.136221,-1.0765002,-5.3785715,3.6484659,31891.273
1690889467.157965,0.6296371,-2.2258859,-2.2914333,34577.07
1690889467.1801932,0.46690693,-3.5924685,-3.851279,29796.738
1690889467.202519,-1.0933933,-0.16425213,1.7495903,33433.49
1690889467.224387,-2.6029525,0.5897832,-2.2978373,29395.912
1690889467.2485485,-3.0640972,-0.106455445,-0.37098464,34886.742
1690889467.2703424,-1.54659,0.2182969,4.276678,31606.332
1690889467.2925851,-3.1385176,0.024863243,0.3984995,28496.549
1690889467.3142936,-2.6302648,-1.0000563,3.1986122,35412.55
1690889467.33644,-3.6493979,-4.7381654,3.664397,36114.375
1690889467.358662,-1.5638697,-1.3877261,-1.2155074,35396.11
1690889467.381227,-1.2787925,-5.485486,-4.1508775,35436.902
1690889467.4035625,-2.9903553,-2.4970615,-3.5972404,33933.457
1690889467.4264524,0.44982696,-3.260579,-0.015790436,32920.676
1690889467.4487672,0.10340809,-0.78110766,2.2096019,30853.205
1690889467.4707222,-3.12425,-5.3299623,-4.266013,36231.617
1690889467.494269,-2.1327124,-2.784602,3.0421667,33938.125
1690889467.516581,0.43483284,-0.34932557,3.9106798,32242.47
1690889467.5382924,0.5675546,-2.1642182,3.4754045,32519.746
1690889467.5605118,0.63299716,-0.8807579,1.0828605,32301.713
1690889467.5827625,-2.6992722,-2.239507,4.311132,34110.83
1690889467.6054676,-2.8465393,-4.89455,0.2914116,28513.438
1690889467.627436,-0.9530026,-1.8575062,3.8596923,27872.951
1690889467.6499155,0.5513431,-5.395236,0.27383447,34973.125
1690889467.6723151,-1.2013097,-4.3049045,0.9889298,31159.148
1690889467.694166,-2.047339,-4.8585496,4.1094465,28290.129
1690889467.7164714,-0.31489065,-1.2475665,-4.1240864,30650.535
1690889467.7383568,-2.820705,-1.3497845,-4.486315,28254.219
1690889467.7605011,-2.8129497,-0.3699135,2.1124446,30223.01
1690889467.7828367,-1.5772927,-1.9712598,0.2789549,31516.066
1690889467.8049598,-2.9778323,-1.4627645,0.5451122,28626.164
1690889467.8272371,-1.0520219,-3.3587728,0.18906538,27788.8
1690889467.8492572,-0.015982008,-4.509164,-0.45210588,30593.5
1690889467.8711863,-0.22152191,0.28680852,3.6652277,33701.855
1690889467.89343,-3.0312014,-1.7099972,-3.0068653,30484.059
1690889467.9156613,-2.7807577,-4.2384925,-2.842525,35968.434
1690889467.9373975,-0.23823956,-5.3012967,-4.5512304,35023.37
1690889467.959533,-3.2290897,-0.3237651,-0.87797207,31243.473
1690889467.9815915,-1.3148624,-3.88589,4.197279,31228.494
1690889468.0039341,0.6298542,0.53927994,-1.7394198,29861.207
1690889468.0265534,-2.5827467,-2.5021799,3.0269399,30147.36
1690889468.0484123,-3.571891,-4.4771094,1.9254643,36194.83
