Time,Roll,Pitch,Yawrate,Thrust
1691148409.082454,-0.36670506,-5.605199,2.5974376,32491.012
1691148409.104793,-1.4083169,-3.4192474,-3.746668,41674.957
1691148409.1275363,0.55887246,-0.21023853,0.19384593,31573.256
1691148409.150249,-0.76613015,-4.9470553,1.4658147,41067.312
1691148409.1726513,-2.3574746,-1.8180779,-1.5926815,42011.086
1691148409.194892,-1.7920489,-2.5770352,2.6225622,39015.32
1691148409.2172332,-2.7031846,0.39922017,-0.9288073,41035.812
1691148409.240319,-2.5305104,-1.8997934,-0.19908044,38216.117
1691148409.2632992,-2.0530276,-5.0806103,-4.02569,39312.71
1691148409.2860935,0.22911741,-0.757728,-0.21755014,34294.9
1691148409.3089106,-1.074882,-4.120358,3.280535,41931.516
1691148409.3319733,-0.24924912,-0.7592221,0.11602151,40677.555
1691148409.3551085,-2.5999799,-3.7591887,3.4051425,41387.582
1691148409.3784196,-1.998719,-2.9714637,-4.567223,35452.484
1691148409.4022703,0.74348176,-2.1866012,4.3949795,41667.977
1691148409.4246726,-3.7257075,-4.609675,3.9071088,33258.305
1691148409.4474738,-1.4403677,-4.626271,2.5816336,36391.254
1691148409.470228,-2.3069215,-1.619278,-1.8702867,34744.895
1691148409.4940748,-1.8744992,-4.8064036,3.3889802,34545.098
1691148409.5166154,0.58977526,-0.46489763,1.1449193,35802.234
1691148409.5394044,-3.4602587,-4.4451075,-2.6273599,36881.11
1691148409.561988,-1.3607506,0.58027816,2.5838838,36525.465
1691148409.5842018,-0.59840065,-3.4495687,3.2869093,39440.848
1691148409.6067858,-3.4333444,-0.19391067,-3.6094139,33008.105
1691148409.6297276,-2.7089226,-4.329307,-0.7787011,32382.746
1691148409.652534,-3.3278258,-0.15284994,-0.43741882,32424.547
1691148409.6750374,-1.5260544,-3.7494953,-2.5581098,39784.098
1691148409.6975331,-3.1074421,0.5780432,4.5073013,34594.863
1691148409.7200685,0.45188877,-3.2310452,2.5797555,41305.27
1691148409.7433214,-3.587585,-4.5684457,3.0731778,35385.895
1691148409.7659478,-0.3284905,-3.2715096,-3.5742042,39114.426
1691148409.788429,-0.8465744,-2.5101721,2.8490522,41264.91
1691148409.8107662,-1.7677597,-0.57463175,1.954286,36126.88
1691148409.8332078,-1.2378855,-0.23519178,-1.4736776,34756.4
1691148409.8557053,-0.9342732,-4.534871,-0.41743973,40302.16
1691148409.8781388,-2.4376466,-3.6188214,-2.6366568,36716.586
1691148409.9004872,-0.45107478,-0.41367078,3.871724,39342.22
1691148409.923376,-0.2935052,-1.6011295,2.0552313,35111.105
1691148409.9460428,-3.7916045,-0.87712014,-0.9784636,38045.984
1691148409.970408,0.47936884,-3.6909626,1.0461732,35485.418
1691148409.993066,-3.4463718,0.37006283,3.1917565,32414.059
1691148410.0157845,-2.9779346,-1.4982715,-1.401963,34398.56
1691148410.0383296,-0.7316179,-5.1889024,-3.5062053,37893.54
1691148410.0612202,-2.6044362,-3.527095,-0.3359797,31751.035
1691148410.084782,0.42336556,-2.0661232,2.2942965,33961.293
1691148410.1079392,0.77529144,0.47261584,-2.9192882,32229.785
1691148410.131205,-1.3414135,-2.4780223,0.19809704,35062.42
1691148410.153443,-0.9942512,-4.7675447,2.7258317,37681.957
1691148410.1759458,0.6061098,-0.96983004,-3.1592195,40815.18
1691148410.198657,-2.3544254,-1.6125964,-4.491535,37396.754
1691148410.2211773,0.22173107,-4.2575703,3.4732153,34463.492
1691148410.2441645,0.38977993,-0.40824425,-3.988657,36887.61
1691148410.2672226,-2.5807915,-4.203045,-2.477472,31962.447
1691148410.2897213,-2.0594692,-5.523352,2.0119627,37917.277
1691148410.3128483,-2.939774,-4.4623466,-3.632189,34695.38
1691148410.335386,-0.78677475,-2.0470078,3.162602,33323.133
1691148410.3581023,0.034109414,0.17647392,0.19634373,32760.422
1691148410.3806162,-0.40757003,-4.951449,0.27712727,35367.297
1691148410.4037852,-2.1212556,-4.409178,0.68815225,35458.254
1691148410.4285629,-0.32029435,-1.5717049,-2.6681962,33537.887
1691148410.4510813,-0.44225848,-4.6866612,-0.16637556,34623.22
1691148410.4739804,0.017916972,0.5177846,0.8620899,37672.906
1691148410.496563,-0.68029636,-2.586988,1.6782094,34721.816
1691148410.520613,-1.1030396,-2.2498085,3.6794987,33813.824
1691148410.5431378,-2.9606693,-5.4868817,-4.344116,32078.207
1691148410.5655954,0.766194,-0.26750267,3.7133236,40388.84
1691148410.588129,-2.850129,0.55008036,0.7578536,36053.17
1691148410.610464,-0.7999887,-0.5941982,2.6344233,36091.8
1691148410.6338618,-1.2320937,-1.4654955,2.0297751,37287.13
1691148410.656419,-2.345011,-5.2797394,-0.42174342,33911.91
1691148410.6793542,-2.9124,-3.7688143,-0.1399796,34165.81
1691148410.7020876,0.46200082,-1.6439086,0.18676879,42021.414
1691148410.7250965,0.8676019,0.5129664,-1.792487,39059.207
1691148410.7476406,-3.6993325,-2.5184455,2.6579556,38925.883
1691148410.7715268,-1.5810726,-3.993497,-0.30932173,39059.293
1691148410.7953541,0.75994647,0.46387234,0.55503243,40973.03
1691148410.8186371,-0.57009184,-3.4513106,1.9016778,33407.9
1691148410.8413954,-1.0107881,-3.691964,2.5778093,36225.945
1691148410.8636496,-3.768119,0.4375334,-3.7554243,38712.805
1691148410.8862598,-2.2385037,-3.8238935,1.2725515,32565.23
1691148410.9087877,0.5421499,-1.3558868,-3.099619,41528.258
1691148410.9315732,-3.302545,-0.06985576,-4.312904,35700.902
1691148410.9541593,0.8000364,0.013772683,-0.258593,36333.227
1691148410.9769695,0.3345234,-5.4491043,-1.5009062,36895.94
1691148410.9997618,0.078811556,-3.9460926,2.7715197,34872.074
1691148411.0227618,0.8509563,-3.6196024,2.2952147,40824.184
1691148411.0456915,-1.2716345,-4.9212604,-2.4157176,40355.273
1691148411.068282,0.57633436,-2.312171,-1.2064167,41507.93
1691148411.0926073,-0.05567421,-1.8801297,0.23095514,36579.934
1691148411.1170616,-3.5119994,-2.459197,4.058938,33660.633
1691148411.1399417,-1.9883229,0.504764,-0.79025036,35627.37
1691148411.1625235,-1.0440156,-1.5640763,0.29722968,34804.055
1691148411.185188,-2.346469,0.46277028,3.5207427,33120.004
1691148411.2084782,-2.7177303,-4.500638,-0.14270626,33084.793
1691148411.231157,-1.9476817,-1.98294,-2.9125938,35280.95
1691148411.2535105,-0.071383625,-3.4823954,-2.5534956,32686.004
1691148411.2759702,-0.19457296,-0.57281613,2.6444955,33487.547
1691148411.2983005,-0.002618472,0.48254892,0.672097,39700.363
1691148411.3212554,-0.5812665,-5.398901,1.6031481,34113.125
1691148411.3445764,-3.2243056,-2.8952074,-1.650735,41694.95
1691148411.3715332,-1.6117514,-2.6095657,-0.18938193,33922.35
1691148411.3939617,-1.2125717,-4.7454977,-1.0915569,31591.998
1691148411.4167798,-0.489989,-1.4436166,1.7013987,32306.604
1691148411.43951,0.20396572,-5.25564,-1.467604,41799.156
1691148411.4619462,-2.2152154,-0.89289117,3.8794017,42226.645
1691148411.4845881,-0.3991712,-4.508188,-1.9105042,39731.03
1691148411.5074537,-0.034685466,-1.1720306,2.565666,37596.457
1691148411.5303347,0.5991946,-2.8457298,0.83470255,40513.184
1691148411.5548077,-2.290415,-5.130414,2.8497326,36065.438
1691148411.5772204,-0.6049738,-0.035474367,1.5810999,31818.355
1691148411.5993915,-0.23777083,-4.598536,2.2757704,33495.75
1691148411.6215963,-1.6806128,0.21516651,-1.4939085,31487.867
1691148411.6458678,-0.3701336,-2.8549616,-1.0327479,38811.867
1691148411.670634,0.86221004,-4.259761,0.1536287,41375.355
1691148411.6928918,0.768109,0.2900882,-2.2616327,37514.97
1691148411.7164607,-3.4681199,-0.67477655,-3.0775042,32016.377
1691148411.7390988,-3.5253756,-4.733453,-3.8289392,41235.58
1691148411.7617176,0.029152531,-3.8202713,-3.6551707,35730.445
1691148411.7844946,-3.2997212,-3.7314875,0.7045884,36195.016
1691148411.8079455,-2.8903408,-3.446909,1.6207632,39462.49
1691148411.8305442,-2.8503933,-1.1824508,2.2146738,41421.63
1691148411.8540595,-3.7795997,-5.048252,-2.345692,37007.105
1691148411.8775566,0.2926102,0.38754985,0.12106663,32783.445
1691148411.9009287,-3.251271,-1.0410355,2.9823048,33045.47
1691148411.924094,-3.0901463,-1.4559183,1.7915653,33777.06
1691148411.9486833,-2.6939015,-3.35019,-3.0604167,33963.55
1691148411.9714422,-2.9637456,-5.2057605,3.5388503,39492.52
1691148411.9948337,-1.599747,-3.0609326,3.968456,32592.076
1691148412.0174608,-1.9677032,-5.130143,-2.858647,32916.77
1691148412.039876,0.1952032,-4.9495125,4.0327005,39566.586
1691148412.062358,-0.957515,-4.6801515,4.1824417,35550.312
1691148412.0851936,-3.1108022,0.45329773,-1.3527374,32811.367
1691148412.1086535,-0.32311717,-2.4790132,-3.1060328,42247.043
1691148412.1308928,-2.0755227,-3.9167879,-2.5924568,31652.059
1691148412.1534956,-3.6005979,-4.8380523,-0.92910194,42173.625
1691148412.1758895,-2.9574425,-3.8824017,-2.0861182,31811.34
1691148412.1986964,-3.7180004,-4.3754873,-2.754431,35063.047
1691148412.220893,-2.5866418,-1.8146349,1.5239294,35334.562
1691148412.243323,-2.7829301,-1.0530142,-3.9154308,39457.066
1691148412.2656834,-2.3581612,-0.874268,-2.282017,36128.57
1691148412.2892063,-0.43952593,-0.078253865,-4.3346205,42282.08
1691148412.3118958,-0.29173943,-3.6456692,1.6316457,37356.5
1691148412.3342226,-1.4845474,-1.048944,2.0237744,36721.746
1691148412.3565588,-0.4892265,-1.1586818,-2.078307,39528.062
1691148412.3801322,-1.1670827,-1.8731931,-0.8027597,40861.453
1691148412.4030185,-1.8953204,0.38319275,-3.0917084,39272.92
1691148412.4256978,-3.685632,-4.7153153,-0.20070411,40716.79
1691148412.449211,-1.6082565,-1.6497649,2.1986558,38481.625
1691148412.4732974,-3.1380105,-5.2827215,3.1431549,40532.86
1691148412.4960358,-2.040849,0.21307024,-3.4168413,38232.72
1691148412.5195649,-2.973008,-1.260072,-3.4771147,35542.82
1691148412.5423934,-0.54901135,-2.4494429,-4.310165,39604.27
1691148412.5652204,-1.7970124,-3.5915465,0.33567163,40012.637
1691148412.5885842,0.6973263,-5.018433,1.8678957,36554.87
1691148412.6118424,-3.2622507,-2.4741526,-3.652533,32521.219
1691148412.6351063,-1.118825,-2.4658,-0.8217864,37252.996
1691148412.6589873,0.38365573,-4.409165,-0.74073905,33002.47
1691148412.6816008,-2.8402693,-2.3605795,-4.5018473,41097.965
1691148412.7045124,-2.3893826,-3.3129566,-1.0130395,42216.176
1691148412.7275484,-0.43725473,0.45107552,-2.2864726,32522.738
1691148412.7505648,-0.18667153,-0.58851534,0.4713046,32844.47
1691148412.7730572,-1.5556713,-1.2891846,3.2032938,38999.324
1691148412.7968144,-3.1007867,-0.09303631,1.3647705,38741.79
1691148412.8201492,0.06997337,0.31834054,-2.332436,39031.395
1691148412.842457,0.8308878,-2.1785648,-3.922271,41738.8
1691148412.86518,-1.7155852,-4.5178432,-0.66353923,37065.418
1691148412.8877258,-3.0798895,-3.7603638,0.6524574,38752.76
1691148412.91057,0.04470193,-4.4231157,-3.4518113,40874.582
1691148412.9326873,0.174186,-3.1811466,-3.2721949,40179.344
1691148412.9549837,-2.97593,-5.070679,3.3003924,42247.684
1691148412.977689,-3.258171,-4.523514,0.5948926,36078.688
1691148413.000384,-3.064066,-1.2533213,3.6984046,37253.24
1691148413.0234027,-3.1245677,-0.3048204,-3.7896142,35486.82
1691148413.0464852,0.7991505,-0.39736193,2.796971,32832.2
1691148413.0689147,0.49193713,-2.7672844,1.0973132,35127.75
1691148413.0921926,-1.3400775,-5.393972,2.848638,36127.09
1691148413.1146898,0.7589854,-5.3468013,2.6036599,36952.43
1691148413.1375964,-3.3610911,-0.279393,3.988072,33894.156
1691148413.1605487,0.53288174,-3.288259,3.0745907,34613.266
1691148413.1832047,0.50632393,-0.47419238,4.0709853,34288.21
1691148413.2057853,-0.7434163,-4.2345963,-4.2863655,37043.855
1691148413.2281795,-3.3184175,-0.30469126,1.4809932,39933.6
1691148413.2506003,-3.1795611,-3.1227896,3.631325,33941.52
1691148413.272892,-3.743796,-5.5443344,-4.0529327,34726.094
1691148413.2957075,-2.8256228,-4.6423244,4.47107,36961.36
1691148413.3185027,-1.8013301,0.24797039,1.9761305,36857.387
1691148413.3412845,-0.4107868,-2.5037205,1.5891486,31909.855
1691148413.364735,-3.7360117,-4.635285,-2.9154434,41240.434
1691148413.3870864,0.24321203,-4.970211,3.955967,32316.645
1691148413.4094152,-0.5680132,-4.278486,-2.506668,37651.066
1691148413.431612,-2.5043414,-0.10602403,-2.5589952,36670.23
1691148413.4554863,-0.3843371,-2.0079124,-4.3937964,32739.82
1691148413.4784946,-0.36095816,-4.1982846,4.4415126,38316.316
1691148413.5008273,0.32938486,-0.6747543,4.126121,37682.523
1691148413.5238044,-0.5322705,-0.3281461,-2.559169,41445.977
1691148413.5466774,-0.045521487,0.12881297,-2.045368,35865.36
1691148413.5696244,-3.2688642,-2.5868523,3.7347162,33966.79
1691148413.5919125,-0.6796282,-0.6044594,-0.74007833,34844.45
1691148413.6145244,-3.0260139,0.5641962,3.4983556,40433.41
1691148413.6371057,-1.2885298,-0.7044905,-2.7737405,37462.47
