Time,Roll,Pitch,Yawrate,Thrust
1691496314.276473,-3.7709851,-0.53274924,-1.7793099,35458.176
1691496314.2987266,-3.3944435,0.4161028,3.3258777,44276.07
1691496314.3224642,-0.47070497,0.51485926,4.098389,35480.645
1691496314.3457477,0.025214616,-4.640325,-3.344749,40895.906
1691496314.368465,-0.291055,-4.000225,0.5819856,32833.906
1691496314.39133,-1.3823265,-4.781282,-3.6869767,41814.043
1691496314.414351,-2.5730193,-3.2462745,1.6740843,37774.207
1691496314.4372263,-3.145115,0.34701252,1.19433,36792.87
1691496314.460106,-1.4710066,0.09430861,-0.50605243,42764.812
1691496314.4823842,0.50441116,-0.46513948,-2.919689,33762.625
1691496314.5059042,-3.099121,-1.108326,1.9659146,37494.65
1691496314.5290945,-2.3926432,-2.898083,-2.6048977,34017.285
1691496314.551888,-1.8215911,-2.4520795,-0.5216484,35087.273
1691496314.5760102,-3.5572793,-1.9480077,3.2991743,33410.91
1691496314.5983958,-0.15989865,-2.38002,-0.2630016,42684.637
1691496314.6210198,-3.1929896,-5.203707,-1.7962434,36597.652
1691496314.6446993,0.6973776,-4.273301,-1.1288143,36164.29
1691496314.67002,-1.4928766,-0.2558465,0.1600077,33600.445
1691496314.69261,0.25755584,0.51718706,-0.10080808,41166.414
1691496314.7150877,-0.68914634,-0.16257142,-4.150547,44100.664
1691496314.7376893,-0.22199428,-4.1770287,4.1418486,44085.418
1691496314.7602804,-1.3868183,-0.13918132,3.3359559,43135.867
1691496314.782985,-1.816145,-4.1894946,-2.8691096,38581.562
1691496314.8057754,-1.978121,-4.647052,0.3306499,43677.523
1691496314.8285344,0.69856274,-2.8154178,-0.7940357,34433.93
1691496314.851756,-0.91341376,-4.452444,3.4131176,40988.77
1691496314.874688,-0.5833547,-2.5173867,0.49507192,43185.164
1691496314.8980863,-2.4752839,-5.1926465,-3.7167106,35163.86
1691496314.921911,0.15481348,-5.003809,4.1943154,43376.816
1691496314.9444642,0.8269111,-4.050206,-3.2316742,33373.918
1691496314.9669151,-1.199709,-5.397879,1.0473001,34909.33
1691496314.9901786,0.15446857,-3.114615,1.978762,35396.33
1691496315.0129032,0.8413544,-3.955541,1.1506122,38303.52
1691496315.0361233,-1.9667751,-5.2247615,0.72715086,36584.58
1691496315.0590653,-0.60441524,-2.2740338,-2.5026011,39005.996
1691496315.0814817,-2.5728035,-5.079576,-0.24759439,36353.195
1691496315.1042264,-2.1033227,0.13588677,-0.8747114,41459.34
1691496315.1268978,-1.8346392,-0.31690496,1.8403533,39626.68
1691496315.1495936,-0.075294375,-1.2917407,-0.4009852,39701.125
1691496315.1724179,-2.613155,-1.3762212,2.3796766,40295.324
1691496315.1958256,-2.7781138,-0.505401,-4.078913,37114.656
1691496315.2302737,0.2472872,-5.29421,1.2290949,35836.02
1691496315.2533455,-1.5076271,-1.7567724,-1.9619553,33618.566
1691496315.2767503,-0.0047721923,-4.9463167,-0.5731298,38248.043
1691496315.298992,-0.92006826,-0.48415363,-1.9257228,37143.223
1691496315.3213458,-3.3110988,0.22828373,1.5831604,38323.574
1691496315.34381,-1.6633539,-4.3441186,2.916553,40202.805
1691496315.366303,-1.7689569,-4.9140162,-1.2994165,42109.645
1691496315.3896694,0.17348835,-2.1007938,1.5147196,43920.258
1691496315.4126832,0.8075549,-3.170213,0.8807073,42427.426
1691496315.4364202,-2.468323,-1.9378452,-2.5111196,40218.086
1691496315.46436,-2.6162941,-0.12317889,2.4760869,42722.55
1691496315.4890375,-3.6423278,-2.2327006,-4.075279,43287.332
1691496315.5115776,-3.46182,-4.484571,4.284142,34147.516
1691496315.5344453,-3.3092437,-1.3901345,-2.1044211,34776.168
1691496315.5572734,-1.0255554,-2.2770042,-4.168773,43942.176
1691496315.5798936,-3.3965232,-3.5734973,-3.9795144,35615.195
1691496315.6029239,-0.8966962,-1.41872,1.7276573,42337.406
1691496315.6261542,-2.6374986,0.007522522,-0.41160503,33497.54
1691496315.6486702,-0.455655,-0.28644124,-3.8569047,37341.492
1691496315.6714725,-2.136014,-3.1534832,-0.61071855,39599.74
1691496315.6952903,0.03328744,-0.6719682,3.765221,43647.38
1691496315.7176847,-0.21303107,-0.29264662,-2.4627056,43918.555
1691496315.7414172,-0.45875445,-3.0161388,2.7908523,40364.234
1691496315.7642615,-1.1784153,-5.4190407,-2.0059004,42018.21
1691496315.7866995,-2.2666464,-0.52087873,-2.381301,38578.766
1691496315.8093305,0.41040456,-3.4327905,2.1685991,32924.51
1691496315.832246,-2.6511052,-4.966619,-2.2833169,36296.633
1691496315.8553746,-1.0410546,-1.4339188,-2.6439538,34804.65
1691496315.8784237,-1.6218709,-1.0685474,2.945557,37641.207
1691496315.9020772,-3.5406845,-3.557345,3.4560416,33644.504
1691496315.930228,-0.24774818,-4.232871,3.8564646,44164.785
1691496315.9529293,-1.7500801,-4.2669992,-2.5291624,39358.773
1691496315.9754672,-1.0115173,-4.282904,-3.9344223,39569.605
1691496315.997974,-1.0354639,-5.1378965,3.8214893,34214.13
1691496316.0211895,-3.157868,0.1560416,3.2566023,42173.69
1691496316.0435166,-2.4707947,-4.063622,-2.7362556,36500.223
1691496316.0658152,0.72519135,-1.2141402,-2.3450694,32814.934
1691496316.0880713,-2.6997585,-3.4047656,0.7107105,39999.555
1691496316.1101594,-2.458744,-2.2813206,-3.1437469,41240.125
1691496316.13263,-2.1268141,-1.7708732,-0.6885095,38078.35
1691496316.155278,-1.2804646,0.051139295,3.6289055,43984.855
1691496316.1795094,-0.4581368,-1.9673989,3.297568,37211.855
1691496316.2019758,-3.3297625,-0.137072,1.4908812,35316.77
1691496316.2246559,-2.018221,-3.6534085,-2.7000172,42160.434
1691496316.2471473,-3.6335018,-1.1530559,1.6740795,37597.84
1691496316.2709918,0.6428715,-4.5164375,-4.181751,40452.867
1691496316.2935698,-1.9084721,-4.9301553,-0.8163499,43702.695
1691496316.3159125,-2.0996883,-2.8138664,-2.1947315,43866.31
1691496316.338725,-0.61056125,-4.8004236,-3.775958,36443.688
1691496316.3623686,-2.2711542,-1.1620864,-4.427628,41175.875
1691496316.3847132,-1.3448917,-3.0837138,0.031033391,40005.895
1691496316.4073846,-0.3648471,-1.3001553,-2.3702054,43144.06
1691496316.4360356,-0.02580688,0.55865425,2.0702944,43562.25
1691496316.4590137,-0.5558108,-3.617472,-3.7382915,42675.8
1691496316.4816895,-1.5084306,-0.40694925,2.0035152,43215.38
1691496316.504575,0.9443184,-0.4298072,-0.11427594,41282.527
1691496316.527935,0.6817857,0.4733089,-3.0925822,34266.863
1691496316.5503843,0.7984584,-3.335537,2.9512532,35530.105
1691496316.5726597,-2.868703,-2.6113312,4.40134,43752.39
1691496316.5982227,-3.2670891,-3.098485,-2.1132226,39943.562
1691496316.6213481,-2.1983964,-4.4010086,-1.6131537,39850.707
1691496316.6457574,-3.3576307,-2.8867772,-4.5911617,38522.508
1691496316.6682682,0.11289829,-4.8878107,0.93050325,32999.965
1691496316.6919656,-2.2302444,-4.312956,3.8844185,35402.82
1691496316.7150323,0.56362534,-4.467272,-1.0161686,42514.223
1691496316.7380939,-0.6257722,-4.0556912,0.6730501,32935.93
1691496316.7611208,-1.8618487,-0.23472062,3.3963895,43413.758
1691496316.7839298,-0.5142767,-1.8417158,-0.16766588,36347.79
1691496316.8069108,-1.472779,-4.9566827,3.383929,34499.91
1691496316.8306553,0.17628881,-2.3768277,2.1397645,35973.074
1691496316.853938,-3.034566,0.30859366,2.8792393,43295.5
1691496316.876255,-3.2160332,-2.6153083,-0.40060616,42538.492
1691496316.8986175,-1.229061,-3.456116,4.069004,37092.125
1691496316.92139,0.10018576,-4.2492104,-4.2683673,41785.707
1691496316.9441264,-3.1693513,-4.064815,0.6388499,33664.305
1691496316.9666197,0.35966313,0.4022123,0.101568766,40816.086
1691496316.9889905,-0.44597834,-1.92298,2.1699831,39371.3
1691496317.0116584,0.05923492,-0.65492606,1.3354534,36058.45
1691496317.0342538,-2.9577606,-4.296408,-3.4319677,41041.03
1691496317.058051,-0.69663155,-5.1511593,0.5707896,33649.664
1691496317.0807629,-1.7247783,-0.8432515,-1.4434621,36703.73
1691496317.1040683,-2.6185806,-3.324885,1.7511404,42616.203
1691496317.1269374,0.20242703,-0.30103874,-2.569444,34795.676
1691496317.1490796,0.2618256,-0.8301382,-2.7654169,39141.39
1691496317.1793265,-0.77973676,-5.034376,1.1042199,43798.797
1691496317.2025933,-3.6186912,-1.2631404,-2.9646258,43059.59
1691496317.2265725,-3.4956994,-2.8587053,0.85328436,42497.047
1691496317.2494745,-2.237392,-5.5003,-2.8330455,39614.438
1691496317.272521,0.24651414,-1.4670542,-0.43345794,43179.336
1691496317.294788,-1.653208,-4.0632896,0.11584409,44203.926
1691496317.3175645,0.42471567,-3.927643,-3.6147919,43383.26
1691496317.3411088,-0.49135667,-5.014511,3.8716958,40980.97
1691496317.3638175,-2.7182872,-1.3377044,-4.521566,35588.117
1691496317.3862247,-2.6788542,-0.48941946,-2.8911917,35670.113
1691496317.4096928,-3.4892957,-4.204671,-2.9660096,38393.414
1691496317.433209,0.35115862,-1.4178967,2.050335,41707.695
1691496317.4558964,-3.5329225,0.21780317,-0.3933595,38694.645
1691496317.4818807,-2.2151623,-3.4285579,1.7296944,42732.29
1691496317.505758,0.6580942,-2.349541,-2.5511086,40409.84
1691496317.5279875,-3.3127065,-1.0228738,-0.27477482,38199.8
1691496317.550776,-1.8724931,0.2941654,3.6587017,41453.582
1691496317.5737007,-3.4113472,-3.7180617,4.34513,33738.38
1691496317.5970135,-1.4139346,-0.9130877,-1.3360579,43384.773
1691496317.6197457,-0.87892514,-4.7507663,-0.94761384,43234.42
1691496317.6436286,0.33537653,-4.9679832,-3.2113965,39362.35
1691496317.6661503,-3.3319418,-4.242997,-1.2857637,33492.203
1691496317.6907449,-1.5982602,-1.7434314,-1.4013405,35268.883
1691496317.7138925,-1.8487468,-4.1777096,-3.5376513,43476.11
1691496317.7373862,-3.6018054,-1.7171583,-3.2990165,40782.42
1691496317.7605052,0.32647374,-2.727257,2.812153,39714.227
1691496317.782942,-3.43411,-2.5003383,-1.2871484,41158.176
1691496317.8063014,0.5223985,-0.90906745,-2.6262553,34152.6
1691496317.8294356,0.62811923,-4.173229,1.2095261,40410.195
1691496317.8521113,-2.3980455,-4.919762,-3.891389,34310.395
1691496317.8756533,-2.169205,-2.2388473,2.402925,33680.312
1691496317.8978553,0.4084622,-4.935225,-0.9278061,34634.848
1691496317.921359,-2.3971732,-4.61024,2.05107,43195.33
1691496317.9442008,-0.05124843,-3.1376162,0.12440275,40051.414
1691496317.967163,-1.9372162,-3.014823,-1.5132282,38934.05
1691496317.9899325,0.6074445,-2.0650136,-2.6943183,32696.592
1691496318.0133495,0.45674,-2.3872137,-4.0396633,37432.895
1691496318.0366528,-1.7125112,-0.9654527,2.148677,43766.36
1691496318.0594993,-0.79034567,-4.5169287,3.5047483,35660.977
1691496318.0820947,-2.8194356,-1.882995,-3.4096966,41476.637
1691496318.1056614,-1.2473422,0.021920564,-3.1926043,37984.523
1691496318.128589,-1.3041083,-5.0693526,-3.9094317,33235.89
1691496318.1520398,-1.6462322,0.19563884,-1.6753603,42955.87
1691496318.1754255,-2.7653766,-0.01922936,4.0158134,36219.707
1691496318.2042964,-0.42980596,-2.444281,4.047492,37338.676
1691496318.2286677,-1.1403505,-4.1044097,-0.86770713,42100.516
1691496318.252186,-2.279644,-3.0303304,1.5226003,40399.656
1691496318.275059,-2.3238661,-1.4888282,-4.2423987,38827.72
1691496318.2972434,-1.8608223,-5.1455183,3.1117368,42975.496
1691496318.3201237,-3.009602,-4.869574,-3.7850246,42895.883
1691496318.3425457,-2.0940328,-3.5373847,0.81476986,42198.297
1691496318.3650115,-3.220158,-0.056882963,-1.2832719,37619.727
1691496318.38823,-0.041268237,-5.1898694,-3.3695931,36910.266
1691496318.4109607,-2.8316884,-1.9107735,0.75225264,36600.08
1691496318.433184,-2.470832,-2.286285,3.7786622,32967.168
1691496318.464212,-1.2771256,-0.20833409,-4.4273176,39948.617
1691496318.488452,0.35684943,-1.1046553,2.8129249,39981.043
1691496318.5118053,0.8451359,-4.0040264,-1.9560065,43380.45
1691496318.5343697,-2.707851,-4.184952,2.5287025,38557.32
1691496318.5572927,-2.2736816,-1.0669891,-1.9512416,42007.824
1691496318.579938,-1.0054702,-3.8010724,2.131638,43674.656
1691496318.6036112,-3.3568442,0.12972805,-2.7285013,43416.367
1691496318.6261346,-1.7334166,-2.0250225,-2.018343,44246.977
1691496318.6490362,-3.6878002,0.34263957,1.7955775,41488.41
1691496318.6734285,0.11962045,-0.6935908,-1.976387,42288.72
1691496318.698354,-0.39821702,-5.3097525,-4.1073804,33671.324
1691496318.7270305,-2.5207448,-1.5084897,-2.3566577,38592.48
1691496318.7495997,-1.7468059,-4.2322164,-1.3284098,41963.56
1691496318.7720473,-3.083265,-3.6290467,4.359516,38414.016
1691496318.7953393,-3.5329764,-2.9710822,-4.2344923,36232.574
1691496318.822036,-2.886515,-1.7800934,0.38404042,43172.58
1691496318.844792,-1.5114931,-4.8599615,-4.013836,39490.33
1691496318.8670528,-2.0092032,-5.1271305,-3.5702286,33390.17
1691496318.8897889,-2.6582937,-1.0033946,4.061275,41099.547
1691496318.912743,0.8940543,-5.40324,0.35555845,39077.715
1691496318.940671,-1.3860013,-5.320845,2.8980174,38483.242
1691496318.963299,0.11508344,0.37962756,3.7495387,35135.477
1691496318.9867873,0.42373738,-0.32472536,-0.68679714,38882.785
1691496319.0156314,-2.1706958,-2.4861894,1.0484577,39853.355
1691496319.041035,-0.29916716,-0.166688,-3.5593266,43738.387
1691496319.0652144,-0.69794244,-3.861912,-2.5529792,39641.93
1691496319.0876298,-2.0396268,-0.44244483,2.3819726,35493.26
1691496319.1100233,-0.9996138,-2.3821821,-3.0753686,43551.98
1691496319.133386,-0.9917364,-3.5240939,0.5624061,39054.67
1691496319.1560745,0.17599338,-0.2635587,1.9305319,44154.46
1691496319.1786156,0.8488354,-4.9544206,-4.276538,34235.363
1691496319.201347,0.7379995,0.58649844,0.2683614,34725.895
1691496319.2246594,0.2769689,-0.2775854,-0.07138944,34335.9
1691496319.2476466,-3.4268894,-2.8642354,-2.6869311,38564.582
1691496319.2706552,-0.07537843,-5.173241,-4.596121,37615.297
1691496319.29338,-0.1283767,-4.8139644,-3.63136,34616.324
1691496319.3162127,0.59670377,-2.2420998,0.66073775,36577.367
1691496319.340222,-1.807584,-1.2290609,-1.9403423,36834.582
1691496319.363013,-2.6238682,0.32342854,-0.56513923,43697.887
1691496319.385681,-3.3525622,-5.3998237,-2.5345604,40083.348
1691496319.4087632,-0.36673647,-5.5307393,0.49979174,34748.78
1691496319.432368,-2.2553244,-1.8276726,0.7676242,33053.61
1691496319.454884,0.016424786,-0.17817321,-3.3252587,36782.13
1691496319.4771264,0.40163776,-0.96898276,-2.9541523,38161.766
1691496319.5113425,0.60592,-1.6953611,-0.5106578,36472.13
1691496319.5349207,-0.37891454,0.10650533,1.0076755,41357.047
1691496319.5583913,0.5169607,-0.26519984,-3.5207806,44082.336
1691496319.581019,-3.1765947,-1.865208,0.23075235,41841.49
1691496319.6039984,0.19628832,0.06920813,0.14497408,42768.824
1691496319.6270237,0.56150734,0.6118938,2.874552,37515.93
1691496319.6496115,-1.3162949,-2.3347642,0.08736835,43879.04
1691496319.6723192,0.4277666,-4.947014,1.9298475,35394.64
1691496319.696535,-1.6010802,-0.5683215,2.001245,42164.176
1691496319.7191653,0.22784042,-1.1181053,-4.2422614,40485.734
1691496319.7425714,0.849162,-1.6859763,-3.0393836,36696.227
1691496319.7658072,-2.5627546,-4.893362,-3.574544,38171.973
1691496319.7900107,-3.6704283,-1.9963177,-3.5152063,34371.562
1691496319.8127568,-3.4475613,-3.0720148,2.3085136,44024.043
1691496319.8364246,-3.5824988,-5.3213215,2.0054016,38003.56
1691496319.8589804,-2.9037755,-3.348642,3.8373008,40415.25
1691496319.8814077,-2.2761831,-4.085674,2.2175093,39245.58
1691496319.9045558,-0.1858292,-1.8158969,-0.82237375,39519.797
1691496319.9268458,0.28638983,-2.0447278,4.2172117,41737.312
1691496319.9492328,0.44992438,0.35435468,0.3612934,43658.508
1691496319.971914,-2.0839913,-3.9859285,-0.9696836,38983.0
1691496319.995458,-2.254937,-0.12884144,4.323367,35974.28
1691496320.018058,-1.101664,-0.020332351,4.269879,40406.703
1691496320.0413003,0.9238255,-2.5212054,-1.7752819,35422.33
1691496320.0645657,-2.895996,-3.3860319,-2.9781654,34473.41
1691496320.0870996,-1.1898947,0.535723,-3.1659787,34081.582
1691496320.109874,-0.92450625,-2.0094767,-3.5538912,43882.55
1691496320.1322773,-0.9637861,-5.4899235,-4.34145,40706.55
1691496320.1555707,0.49353415,-1.0338182,2.217973,35008.68
1691496320.1780245,-0.29076058,0.42306837,3.0740643,40389.234
1691496320.2015097,-1.3771693,-2.0290747,4.293574,41762.258
1691496320.2245667,-2.1782537,-3.9753811,-3.2668188,42190.65
1691496320.2468693,-1.6994163,0.1896626,4.035072,43735.402
1691496320.2697723,-1.7883322,-2.650157,-2.9898868,34779.613
1691496320.2932603,-2.640833,-3.1272738,2.4885106,41951.418
1691496320.315874,-1.9551247,-1.578656,3.4384406,37389.4
1691496320.3389995,-0.627387,-1.6501933,1.7666266,42358.664
1691496320.3632681,-2.7868373,0.5867623,0.8304041,33219.99
1691496320.3859358,-1.5401778,-3.730273,2.4071503,35244.19
1691496320.4083893,-2.103471,-2.2294915,-1.363135,40270.227
1691496320.4306738,-1.8526536,0.041461483,1.9892819,36664.023
1691496320.4533167,-1.9723241,0.5526131,2.0732725,34237.773
1691496320.4772604,-0.45160574,-2.1534283,4.411026,39103.86
1691496320.5010805,-3.7748797,-4.4423823,4.429429,41424.617
1691496320.5237257,0.60680276,0.35472226,2.4139478,35143.69
1691496320.5512862,-2.3755808,-0.28831375,3.58256,42729.633
1691496320.5742419,-0.7746418,-4.839243,-1.3773254,33062.18
1691496320.5967486,-2.639374,-3.464271,1.1015902,35793.742
1691496320.6196446,-2.0174294,-2.82043,-4.20973,40658.152
1691496320.6425157,-2.3529804,-5.1796494,2.187114,33977.11
1691496320.6651976,-0.60810745,-3.477143,-0.8317258,37841.75
1691496320.687878,-3.2780933,-4.2101626,3.9503622,42410.27
1691496320.7104352,-0.08120438,-0.53030944,-2.197822,32812.117
1691496320.7326856,-1.7744364,-0.019183084,3.9233599,44256.383
1691496320.7560916,-1.1127731,-1.5714091,-1.2113907,40703.883
1691496320.7786965,-1.2251899,-5.1312866,-0.0049857707,33098.85
1691496320.8011343,-1.6225703,-0.5092903,-1.2549562,36128.945
1691496320.8237424,-1.4908333,-3.9537072,-4.5701733,36324.004
1691496320.8508692,-2.9120598,-2.9285064,-0.14518517,40368.418
1691496320.8738754,-2.890895,-2.5479214,0.9060218,40194.28
1691496320.8961337,-3.3246162,0.37494877,1.7141798,36558.53
1691496320.9192736,0.78716356,0.04858885,-1.8962097,40585.125
1691496320.9428833,-2.4139025,-2.8663454,3.4741614,43595.49
1691496320.9655826,-0.90227854,-1.89901,-2.8508403,41668.875
1691496320.9886796,0.101425335,-1.3945984,-3.8662927,44318.11
1691496321.012463,-0.32858467,-4.506882,4.1923347,33990.355
1691496321.0356066,-2.2054248,0.077220164,-3.8079352,36790.402
1691496321.0583053,-1.1971109,-4.644933,-1.4112448,38902.977
1691496321.0826259,-2.23859,-0.21995236,2.9761953,33376.516
1691496321.1053815,0.5740667,-2.0497372,-0.35297865,37337.2
1691496321.1290176,0.81415415,-5.5145345,3.9549172,34561.375
1691496321.1518521,-1.7503022,-4.77165,3.1217866,43520.76
