Time,Roll,Pitch,Yawrate,Thrust
1691136585.428434,-2.6937196,-0.29814962,0.8600806,35245.574
1691136585.4507618,-1.6628679,0.44721904,2.9458294,37230.676
1691136585.4734106,-3.0695438,0.4081568,2.5160782,43954.78
1691136585.496247,-2.9099302,-4.001394,-3.0803301,33031.48
1691136585.5185199,-0.54686546,-5.0729475,-0.15867586,40349.03
1691136585.540716,-3.2354102,-4.530513,-1.8279736,43034.766
1691136585.5650651,-2.013611,-0.40172502,4.2445755,40969.754
1691136585.5874865,-2.4606082,-0.123146795,1.5467447,33464.613
1691136585.60996,-2.6489697,-0.9581349,4.352392,39084.207
1691136585.63298,-1.4890151,-4.092074,3.489734,41624.812
1691136585.6552494,-3.192101,-3.059346,3.955832,33202.027
1691136585.6776392,-0.4075403,-5.4660573,1.2559212,34009.926
1691136585.7002418,-0.19916174,-0.28783718,3.809739,39207.496
1691136585.730554,-1.1321026,-0.33662724,-1.6222337,41689.945
1691136585.7577422,-1.8997979,-0.9704036,-1.917365,35600.246
1691136585.7813423,-0.76612043,0.5918466,3.9864273,37637.47
1691136585.804674,-1.2018567,-0.9702615,-1.1535972,41943.44
1691136585.827004,-3.2792041,-1.9097518,-2.4922931,39583.164
1691136585.8497615,-2.003349,-3.5159805,1.5594267,39508.656
1691136585.872438,0.7649679,0.2802012,-2.8732033,35586.234
1691136585.8957107,-1.762803,-4.9431877,-4.221598,39671.625
1691136585.918351,-3.3410344,-2.5233629,0.37903443,34454.18
1691136585.9408917,-3.030648,-1.7551314,-1.6015414,43883.434
1691136585.9652793,0.121029995,-1.069611,-2.988873,33561.805
1691136585.9881024,0.36877412,-4.583795,-2.3493712,42665.734
1691136586.0101848,-3.2369215,-1.7117147,-3.3575213,33092.715
1691136586.0326428,0.7551624,-3.9814525,2.4697125,43047.383
1691136586.0551834,-0.04509521,-2.314344,-1.0927646,41449.707
1691136586.0775733,0.5510042,-1.6815255,-3.4068046,44219.297
1691136586.1024363,-0.47060838,-0.023437187,3.9154768,43254.453
1691136586.1248946,0.34955093,-0.5691864,-0.10687504,37252.094
1691136586.1492646,-1.1723952,-4.178268,-2.0672061,43180.895
1691136586.1717741,-3.2535243,-4.9663706,3.4765518,36718.523
1691136586.1947072,-0.10413264,-1.9394968,-3.6938572,42106.48
1691136586.2171488,-1.5681152,-0.7762667,1.0266986,36305.17
1691136586.2395766,-3.4808998,-1.060122,-1.6972194,35494.613
1691136586.2631047,-1.035558,-2.2793398,-2.6724844,42659.492
1691136586.2857628,-2.3873196,-4.4779997,-1.0014287,36507.33
1691136586.3100233,0.7163149,-3.963633,2.3214586,35251.082
1691136586.332722,0.73891306,0.4266539,3.0117836,39880.04
1691136586.355488,-2.6684608,-0.024506776,3.5684712,37229.223
1691136586.378186,-1.5982966,-2.689703,3.5743794,37317.22
1691136586.4005597,0.44378096,-2.2492576,4.4895062,34886.66
1691136586.423774,0.1814656,-4.8025265,-2.563834,37050.973
1691136586.449219,0.4358885,0.26950997,-4.3088818,41268.992
1691136586.471716,-3.1605036,-4.116236,3.985819,33297.445
1691136586.4945242,0.4335442,-3.2764146,-2.1991403,33756.324
1691136586.5168974,-1.9499112,-3.857513,3.6238732,39973.39
1691136586.539208,0.4182841,-5.043628,-1.426102,42262.918
1691136586.5621035,-1.9693139,0.09397702,2.9241538,42212.195
1691136586.5846756,-3.6387563,-2.5079482,-0.63232875,35267.523
1691136586.607118,-1.8626118,-4.046928,-3.5899498,35903.746
1691136586.6335003,-1.6279054,-0.7932557,0.64992815,41675.3
1691136586.6560466,-1.8460459,-1.2288663,2.1099737,35631.543
1691136586.678714,-1.0465467,-4.8037267,4.1244035,39441.71
1691136586.7014039,-2.0186458,-3.9118097,-0.56536573,40677.453
1691136586.7250097,-1.7946316,-2.9865792,1.6229242,44079.516
1691136586.7484348,0.38818163,-0.95266855,3.4926376,35348.16
1691136586.7713594,0.02813541,-5.167538,2.3959906,38082.227
1691136586.7937183,0.42884445,-4.885719,-3.8454566,35464.344
1691136586.8160353,-3.2173138,-5.1446085,1.9052588,38753.316
1691136586.8395047,-2.0349402,-1.4554877,1.5807049,35606.117
1691136586.8634121,0.46488905,-3.7508454,-2.0406857,32999.492
1691136586.88664,-2.3566175,-4.6970296,2.7279067,41947.715
1691136586.9093118,-1.3667172,-2.042647,-3.895071,41445.84
1691136586.9323778,-0.1669939,-3.339784,-2.54631,34035.8
1691136586.9547231,-0.7444989,-4.842026,0.6003047,36079.016
1691136586.978063,-3.4006023,0.59970266,-2.4161475,42130.375
1691136587.0005033,-0.9685256,0.3609495,3.1008887,33708.223
1691136587.0232913,-2.4174197,-2.799041,-3.4004304,41511.14
1691136587.0495195,-2.5159512,-5.0795474,3.9123049,36114.043
1691136587.0734065,-3.1662395,-1.3643546,-0.14290853,33660.777
1691136587.097428,-2.6656156,-1.726226,2.1348412,36319.26
1691136587.119857,-1.3060106,-3.7691383,3.212612,41344.168
1691136587.1424549,-0.24850878,-0.08091907,2.8337636,43117.094
1691136587.1655138,0.12418932,-4.154023,1.1541356,39981.344
1691136587.1880357,-1.0360827,-4.05762,2.0342798,37093.656
1691136587.2101882,-0.14706865,-4.7131133,-1.2397764,39553.21
1691136587.2329974,-2.6606812,-4.004019,3.9791048,39586.176
1691136587.257691,-2.927801,-1.9741975,-1.154311,36812.85
1691136587.2810066,-0.9635082,0.46791595,-0.26803973,38602.203
1691136587.3040078,-2.2647696,-3.2344992,4.0160933,39727.098
1691136587.326136,-0.72692114,-0.87354153,3.9336812,39027.418
1691136587.348981,0.7632753,-2.9154255,-1.8175418,37852.445
1691136587.3723602,-0.348295,-1.3833723,0.029090283,41142.656
1691136587.3955524,0.16252929,-5.514565,1.7030728,35786.645
1691136587.418271,-2.8235145,-5.0573177,1.6600212,38395.453
1691136587.4420469,0.73616666,-1.3814282,2.3863273,36448.99
1691136587.4657297,0.4456973,-4.560688,2.1286519,33899.863
1691136587.4883156,0.7069789,-4.937481,-4.393728,44088.49
1691136587.5120056,-2.954162,-4.9088154,-3.0605633,35640.6
1691136587.5347793,-2.448897,-1.202691,-2.3779774,42251.844
1691136587.5573404,-3.3390248,-5.5413723,-1.5840479,34397.457
1691136587.5814104,-2.793041,-3.8232465,-2.9391503,43845.312
1691136587.6043117,-3.1109877,-5.177891,-4.417292,42285.934
1691136587.6289575,-0.32612008,-5.4485254,0.8290124,41814.17
1691136587.6515665,-2.1324456,0.36528513,-2.1893506,33062.562
1691136587.6739573,-1.8986621,-0.78846097,-3.7872977,36443.746
1691136587.698453,-0.35351494,-2.108433,0.67675394,41562.32
1691136587.7218122,0.47045854,-3.3138213,2.2530944,43777.094
1691136587.7486238,-0.6140795,-3.8104632,-1.0480446,37124.855
1691136587.7713692,-1.3558583,-3.5891278,-4.540274,36194.99
1691136587.7941744,-0.8246714,-4.921901,3.0206258,43022.23
1691136587.8169549,-0.9281484,-2.690807,-3.4337416,44047.45
1691136587.839711,0.2756706,-4.449927,0.29274523,34941.02
1691136587.8663568,-0.95321554,-1.5544695,1.4663545,41642.64
1691136587.8898416,-1.9895937,-4.0100164,-0.94587624,40339.12
1691136587.91344,-3.4700892,-3.3471859,-4.3685093,33039.707
1691136587.9362817,-1.9754025,-2.7409806,-3.0417755,33626.32
1691136587.9584556,0.79346496,-1.8023213,-1.0766782,35223.9
1691136587.9813077,-1.5329065,-1.3855132,-1.0057276,39688.727
1691136588.0038888,-3.3772318,-2.29228,-3.8319316,33068.168
1691136588.026353,-1.5039062,-0.8864671,-3.741359,34428.23
1691136588.048586,-0.43424597,-3.1602786,-4.4233747,37933.527
1691136588.071025,-0.73449624,-4.9604754,0.7182549,37660.14
1691136588.094538,-1.5668477,-3.1758919,4.3193593,35976.68
1691136588.117825,-2.3231535,-3.2653322,3.5483403,34179.195
1691136588.1406682,-0.17581062,-4.435388,2.4293797,39869.88
1691136588.1642263,-2.1526728,0.26019713,-2.2179568,35600.0
1691136588.186968,-3.2989163,-1.1224703,3.85497,39018.676
1691136588.2092772,-0.8346243,-5.5311747,-4.4833183,43320.742
1691136588.2317636,0.5450367,-1.4591583,3.523522,38898.125
1691136588.2544947,-1.1150906,-5.234124,-3.2354937,38803.543
1691136588.2772293,-2.6793835,-4.4870844,0.012915728,38206.348
1691136588.2998254,-1.596856,-5.370563,1.836437,38081.375
1691136588.3239176,-0.9435421,-1.1580175,2.0973063,34866.61
1691136588.3478208,-0.19606842,-0.7192151,2.1711078,40956.38
1691136588.3702645,-1.6734579,-3.8141167,-3.727855,33728.17
1691136588.3930554,-2.1793604,-3.5770342,-1.4224412,44005.82
1691136588.4157476,-1.9803962,0.109129295,2.4699328,33528.56
1691136588.4384174,-3.7430592,-1.8784175,1.5180781,36136.098
1691136588.4614818,-1.9760439,-0.5008991,0.10278761,40624.43
1691136588.484407,-2.788088,-3.7540565,-2.748451,39740.812
1691136588.5073078,-1.5216836,-3.1452377,3.9889712,40709.47
1691136588.532505,0.16456439,-4.9835443,0.81558716,37767.33
1691136588.5554285,-3.0242913,-3.0366764,1.5094655,32833.32
1691136588.5782263,-0.7463591,-3.3551588,-0.39912102,42723.68
1691136588.6008549,-3.4100666,-0.6415965,3.351174,42561.844
1691136588.6234355,0.0060874396,-2.520859,-0.84779876,41466.58
1691136588.6472077,-3.6293273,-0.5548996,0.3157108,39233.637
1691136588.671063,-0.48289022,0.6434586,4.011795,34598.54
1691136588.693265,0.29080552,-3.5241678,2.3557682,38309.676
1691136588.7161248,-3.7274592,-2.285939,-3.2790167,39357.098
1691136588.7385137,-1.3530655,-4.5022435,-1.9219633,39577.168
1691136588.7634857,-0.5034514,-0.5645914,3.616579,39123.0
1691136588.7858942,-2.8551652,-2.3812795,-3.528647,33955.516
1691136588.808157,-1.4257911,-1.913561,3.0304117,36476.863
1691136588.8314757,-3.0708613,0.44460684,-1.2380906,36862.273
1691136588.8543358,-2.5970297,-1.9639113,-2.6155598,39409.508
1691136588.8780394,-0.74270856,-5.434015,-4.221543,41912.625
1691136588.9007885,-0.7196009,-5.1646485,-1.3411429,34462.797
1691136588.923865,-2.9258718,-2.1627405,-3.4981701,42580.71
1691136588.9500732,-2.316728,-4.743702,-0.009828512,40564.992
1691136588.973522,-3.435583,-2.9763775,3.154841,43272.305
1691136588.9980397,-3.668534,-2.4709904,-1.3368641,33049.156
1691136589.0205185,-1.7349572,0.32671848,1.3237504,41682.555
1691136589.0429738,-2.3926375,-0.3205276,-3.7108052,37262.71
1691136589.065349,-3.013281,0.5197288,0.816786,32939.97
1691136589.0881703,-2.1032805,-3.4365013,0.69337815,34580.16
1691136589.1110992,-0.59157544,-4.8515887,1.0581669,40988.348
1691136589.1344945,0.116057895,-4.767574,1.1524637,33583.344
1691136589.1571953,-2.204693,-5.338083,-3.68527,39094.684
1691136589.1826553,-0.19905037,-1.7564244,1.585368,36667.355
1691136589.2061844,-0.26276803,-2.492085,0.24028164,35300.164
1691136589.2289329,0.062552124,-0.098610975,3.0525498,33066.92
1691136589.2514336,-3.2150452,-2.9862487,-3.9142196,40504.38
1691136589.2753768,-3.1411583,-3.759299,2.9516547,34490.94
1691136589.2979798,-2.5439343,-3.1141367,-2.4995809,37671.56
1691136589.3207378,-0.2698603,-2.0228014,-3.6864104,39776.863
1691136589.3427176,-0.6555961,-1.9255484,-2.0552092,43204.906
1691136589.365552,-3.553938,-4.2780967,4.4727216,35640.336
1691136589.3879406,-0.79456323,-1.4208796,3.3292701,38753.15
1691136589.4118803,-2.978893,-5.0141025,0.38650525,36203.617
1691136589.4345176,-2.9764042,-0.025235076,0.23967838,39700.836
1691136589.4584544,-2.7673776,-3.9393477,-4.310877,34262.55
1691136589.483432,-2.2389474,-1.6250098,-3.5294015,33324.234
1691136589.5056832,0.23228554,-5.22468,-4.512106,36289.086
1691136589.5280952,-3.505773,-5.4828715,3.9365396,43600.637
1691136589.552205,-1.140835,0.1663061,2.838381,42112.61
1691136589.574496,0.8660097,-5.365988,2.4360192,39257.76
1691136589.5976121,-0.22442293,-3.4745474,-3.5073578,39026.06
1691136589.6215122,-3.0787323,-4.2526565,-3.5434752,37469.85
1691136589.6444476,0.09571944,-4.259925,2.1623836,33183.715
1691136589.6674094,-3.629347,-2.3706217,-0.5443229,36160.66
1691136589.6917317,-1.6693568,0.12028796,2.955792,38364.203
1691136589.717154,-1.7552384,-2.390358,-2.5551946,42588.383
1691136589.7400582,-0.50628465,-4.700505,-3.189064,42693.582
1691136589.7627132,-3.17024,-4.5839868,-2.2113965,36344.598
1691136589.786157,-1.8118252,-0.932777,2.8469906,33104.51
1691136589.8084962,0.5670583,-1.1864225,2.0515547,39478.145
1691136589.831994,-2.4895644,0.10481567,4.0436015,39018.875
1691136589.8546999,-0.02432394,-5.4162846,-3.0681472,43585.29
1691136589.8768976,-2.5575347,0.6179196,0.72464156,33464.03
1691136589.8991256,0.335073,0.06766793,2.4501262,42193.12
1691136589.9223318,-3.2034516,-3.6607256,-3.2337751,40452.613
1691136589.94561,-3.5084887,-4.355095,-2.6519225,33142.715
1691136589.9682565,-3.638188,-3.7941513,4.0589304,43302.11
1691136589.9916606,-3.5224166,-1.7328627,3.7073374,37559.926
1691136590.0143697,0.09057922,-4.2678103,3.074166,32865.18
1691136590.038462,0.89055234,-3.0536163,0.08280815,36101.85
1691136590.0654798,0.46009302,0.5700892,-4.3597646,44139.695
1691136590.0878875,-3.7468443,-4.807518,1.3867476,35089.516
1691136590.1103766,-0.5122733,-0.74039847,3.326097,40267.547
1691136590.1329908,-3.5378702,-2.038986,3.4527082,40545.047
1691136590.1575046,-2.055846,0.04717032,-0.64523596,34469.062
1691136590.1812437,-3.4747043,-1.0113332,2.0341883,39460.293
1691136590.2047102,0.39070645,-4.6988015,-0.9509947,41259.73
1691136590.2271142,-3.3291183,-2.9954445,-0.41846487,37389.176
1691136590.249386,-1.0625248,-3.5282838,-2.5107496,41200.848
1691136590.272504,-2.6951408,-3.3903544,1.240049,33313.62
1691136590.295119,-2.5051215,-4.857055,2.100333,40847.562
1691136590.3175774,-1.2458923,-5.070613,-3.8506887,43139.344
1691136590.3401935,0.45483276,-2.409815,3.47887,33173.676
1691136590.364775,-0.6256275,-3.6837726,0.06647323,33511.11
1691136590.3881128,-1.669214,-2.789699,-2.9803576,35171.008
1691136590.4138775,-2.8928552,-1.7192292,4.270924,42966.234
1691136590.438488,-0.6100417,0.5678993,1.9994093,41592.254
1691136590.461703,-2.0451539,-0.0920421,-2.3383625,42000.652
1691136590.4848154,0.10860464,0.30427015,-2.6317573,33491.77
1691136590.507275,-0.95070076,-2.6927114,2.2001257,39697.855
1691136590.5310795,0.7739583,-0.45943812,-3.3582804,42391.92
1691136590.5540154,-0.21909994,-0.20346776,0.92567223,36216.676
1691136590.5767326,-3.1342492,-5.016448,1.777184,41851.836
1691136590.599773,0.5587709,-0.9398089,3.893957,33737.453
1691136590.6227632,-1.6522349,-5.025942,-1.3465244,43772.49
1691136590.6462908,0.5262706,-1.11889,2.5126717,37417.906
1691136590.6693869,-0.18222626,0.44345832,2.4045918,43185.07
1691136590.692387,0.3479202,-3.6880124,-2.0440094,38036.938
1691136590.714919,-1.5299547,-5.5774875,1.4019756,32918.105
1691136590.7374518,-2.5112894,-3.6086807,3.1077843,34094.26
1691136590.7599096,0.66294867,0.20383412,-4.215561,40961.598
1691136590.782524,-3.3290267,-3.0207317,1.2607011,33828.72
1691136590.805016,-3.3101442,0.19252187,-4.4706607,43773.33
1691136590.8278718,-3.326556,-1.9506752,3.8735812,36433.35
1691136590.8505266,-0.4701216,-0.93139035,3.6306765,44203.008
1691136590.8731487,-1.177375,-2.4722762,2.571872,35599.74
