Time,Roll,Pitch,Yawrate,Thrust
1690985442.3911939,-1.2263136,-3.913738,1.3666054,35508.973
1690985442.41614,0.35809028,-4.236639,-3.5517557,27656.13
1690985442.438882,0.7717463,-2.5385149,-4.5432444,34908.145
1690985442.4617403,-1.3788371,-0.100029506,1.7408363,35093.52
1690985442.4839838,-0.24595702,-2.6882832,0.44393867,30348.01
1690985442.5061495,-3.359293,0.23005344,2.7361984,32978.14
1690985442.5290685,0.7983327,-4.327751,-3.899139,33635.777
1690985442.5527008,-0.65805984,0.38782805,2.6205573,27854.918
1690985442.5750377,-1.6919184,-4.072113,2.1024728,29925.105
1690985442.5992062,-0.42985567,-5.0237074,1.2710856,28365.541
1690985442.621859,-0.17163119,0.2947088,4.330178,34992.465
1690985442.6468534,0.6640549,-5.312103,-0.668514,32089.184
1690985442.669557,-0.45989248,-5.112897,4.201309,36104.56
1690985442.6925309,-1.228077,-5.0440392,-4.2981076,31864.299
1690985442.7157137,-2.499046,-5.173213,0.9855822,27278.172
1690985442.738346,-0.094907,-0.6134486,-2.6537805,34684.13
1690985442.761074,-0.07166411,-0.15379712,3.7391129,35196.855
1690985442.7833571,0.5861261,0.24554868,0.2079743,33121.824
1690985442.8055468,-2.1520393,-3.309146,-1.9575919,35274.395
1690985442.828212,-0.9819711,-4.256692,3.3321056,27960.578
1690985442.8513227,-0.53380525,-1.2763357,-2.6499896,34502.434
1690985442.8738644,0.4106506,0.00036399334,-4.1018767,28160.602
1690985442.8976607,-0.05141897,-2.6097507,3.1839414,32194.771
1690985442.9205055,-0.6589029,-0.8282254,-0.12103362,27795.322
1690985442.9433632,0.71780497,-3.8394892,-0.1995309,28866.742
1690985442.9664931,-1.6046934,0.5055315,-2.925597,36117.63
1690985442.9903922,-3.5828872,-4.683492,2.3367136,33340.02
1690985443.0164769,-1.4011124,-5.4597797,-4.288181,30532.959
1690985443.0398293,0.24863401,0.6373331,-0.29356024,28445.26
1690985443.0643325,-3.6934595,0.4506467,-0.6660904,36858.535
1690985443.0877292,-2.828126,-4.012408,-1.1445185,30579.734
1690985443.1102626,0.29049572,-4.225739,4.3302116,30197.197
1690985443.1331124,-1.429559,0.4941183,-0.7326427,28956.877
1690985443.1552408,-0.131444,-2.94671,-3.9321752,29158.996
1690985443.1779444,-2.576876,-0.90869534,0.058685385,27594.096
1690985443.2004714,-2.348276,-0.9522946,-2.8960588,31707.145
1690985443.22354,0.10171919,-3.3863494,3.1489744,29920.098
1690985443.2458572,-3.7588832,0.5021559,1.417194,33978.816
1690985443.2683094,-3.1899238,-0.731947,2.209002,34149.82
1690985443.290811,-2.6113682,-1.4471964,-4.487337,28721.133
1690985443.31481,-0.11768648,-4.0582843,4.000174,32104.67
1690985443.3372793,0.15927596,-4.234402,-3.6891162,31428.434
1690985443.3599577,-3.0582902,-3.8311944,4.4999113,33432.74
1690985443.383427,-0.20730212,-4.2670507,0.42269194,32869.914
1690985443.4060223,-2.7799037,-1.9983517,-0.93326706,27451.594
1690985443.4319644,0.056843527,-3.8162255,0.7917031,35216.605
1690985443.456106,-0.83146584,-0.7962129,3.7907481,36195.688
1690985443.479764,0.57993954,-4.7804832,-1.8857645,30012.865
1690985443.5023987,-0.5953061,-1.2188694,4.1714034,34121.48
1690985443.524661,-2.9507113,-3.6698353,-1.0381062,34111.18
1690985443.5487163,-0.33317983,-1.8071172,0.25118038,28440.145
1690985443.5709753,-1.8225176,-5.43585,-0.60330904,35755.844
1690985443.5930521,0.8438042,-5.014334,1.0953629,29624.426
1690985443.6154351,-0.44056824,-5.049322,-0.9160192,32164.586
1690985443.6377482,-2.6588206,0.1466855,-4.358626,31950.062
1690985443.6599967,-2.7128541,-0.07747761,0.7790972,35005.633
1690985443.6827033,-3.5097044,-4.4123325,-0.99085194,32089.514
1690985443.7069378,-3.2865167,-4.9012938,-0.8017445,32331.299
1690985443.7317514,-1.4604489,-1.8824464,-1.3715799,34501.465
1690985443.7538712,-1.8788333,0.08548971,-3.994347,33770.25
1690985443.7774408,-2.9001274,0.10405733,2.1822343,27575.72
1690985443.7999961,-0.66353774,-4.051666,-3.6898048,28225.389
1690985443.8230336,-0.2955142,0.4959789,2.7375257,32889.2
1690985443.8458366,-2.1462157,-4.564568,-3.0792525,33371.53
1690985443.8681915,-1.8330344,-3.6391912,2.6259735,35628.293
1690985443.890452,-3.2109156,-1.0614119,3.157332,31195.85
1690985443.9138591,-0.75147736,-3.4036155,2.499689,33350.816
1690985443.9359884,0.794597,-3.9005463,-4.5592217,34361.758
1690985443.9582846,0.75823325,-3.923557,-2.307968,32577.943
1690985443.9829714,0.52947646,-0.36272156,-4.390736,28422.22
1690985444.0068767,-1.801424,-3.617627,1.1158239,33508.094
1690985444.031289,-3.4549577,-0.7896052,3.3947823,34393.12
1690985444.0540435,-2.225363,-2.476932,-4.009874,36815.836
1690985444.0770342,-2.5015187,-4.860053,0.78652763,28172.08
1690985444.099668,-2.9424868,-1.5138218,-4.507158,29870.416
1690985444.1241388,-0.87886983,-5.008605,-4.484442,28201.916
1690985444.1483774,-2.2614732,-5.074567,-0.56912124,32516.244
1690985444.1716492,-0.891682,0.40175065,-1.0273666,35338.363
1690985444.1945238,-3.014672,-0.22138357,-2.2828925,30309.559
1690985444.220869,-1.2462858,-1.8685703,1.3309348,34205.87
1690985444.244045,0.25683784,-0.7900988,2.2229881,27888.344
1690985444.2669399,-2.2600307,-1.7598441,-3.6167896,28579.977
1690985444.2898343,-0.1906871,-4.6869383,-4.283552,28819.252
1690985444.3119817,-2.3291457,-5.374743,3.3595207,27745.729
1690985444.3345392,-3.0160034,-4.661045,3.2593102,32175.299
1690985444.3570142,0.88591677,-3.602946,0.7598203,34879.074
1690985444.3797493,-1.1801578,-5.257594,-2.7221627,34964.598
1690985444.4041352,-2.046241,-1.5942886,-1.6177497,32205.08
1690985444.4271376,-1.6005652,-5.21912,0.1677262,32830.62
1690985444.4511406,-1.3936567,0.25561613,-0.77725756,33628.918
1690985444.4751248,0.1428804,0.18441822,0.17694053,31363.627
1690985444.4998207,-2.298075,-1.4257401,3.4892087,29865.002
1690985444.5228217,-3.5392892,-0.2858249,-1.5744796,27940.059
1690985444.5455985,-3.0148082,-5.240971,3.0673833,28741.936
1690985444.5681694,0.63253486,-0.39168856,-4.1090326,29470.777
1690985444.5909252,-2.0596364,-2.0356758,4.203625,36019.76
1690985444.6165185,-0.45848984,-4.680598,3.756518,34466.414
1690985444.6398315,-0.030798329,0.4328404,-0.59713894,28455.123
1690985444.662505,-3.6248078,-0.61800206,-3.4715874,33578.76
1690985444.6851902,-3.5412724,-1.8900423,2.4802396,32174.838
1690985444.7107484,-1.722111,-0.12750988,3.7449665,33447.824
1690985444.73473,-1.7690184,-0.8708836,0.16924524,35462.344
1690985444.757119,-2.1462216,0.08780056,3.5875921,36809.312
1690985444.7806633,-3.2872043,-3.9236205,-0.17777504,32936.734
1690985444.803066,-3.3676124,-0.6200748,-1.6599903,29828.727
1690985444.8258045,-3.2003577,0.05430142,-0.6326086,29906.207
1690985444.8489783,0.58230036,-0.0044467365,-3.890655,34489.992
1690985444.87152,-0.63143235,-0.8522479,2.1724083,27955.037
1690985444.8945374,0.6469766,-1.4212415,2.3959732,30422.145
1690985444.9180117,-2.108429,-1.5468479,2.2327864,32684.316
1690985444.9410944,-3.1275177,-3.2064579,0.26636213,27969.256
1690985444.9650633,-0.25137338,-3.8387153,-3.3508565,31693.348
1690985444.9876335,-2.1109421,-1.1455353,-1.963938,29064.883
1690985445.0110388,-3.1931665,-0.9486262,-3.2312403,29324.322
1690985445.0340972,0.009708028,-4.218349,3.9069638,31272.72
1690985445.057448,-2.2358603,-5.280238,-0.2792326,32664.309
1690985445.082844,0.09887663,-2.0932643,-0.6767923,36758.824
1690985445.107341,0.4210271,-1.9610206,2.846433,32480.639
1690985445.130702,-0.07301734,-5.2639284,-1.9064459,33696.71
1690985445.1529882,-3.677449,-0.8341442,-4.447736,28880.072
1690985445.1760373,-2.5311747,0.054089624,0.81483454,28793.51
1690985445.1994464,-0.3020336,0.0036255715,2.7436273,31528.465
1690985445.2219825,0.65176487,-4.257402,-2.3735754,29445.154
1690985445.2447407,-0.41028756,-4.393633,2.3159988,36747.715
1690985445.268272,-0.61315894,-2.1636226,-1.79598,29351.127
1690985445.2910612,0.18716523,0.08102288,4.063147,30978.338
1690985445.316896,-3.0017817,-2.8357213,-0.57866454,35873.996
1690985445.3395662,-2.5614066,-3.1011126,0.5646972,30699.531
1690985445.361784,0.6842599,-2.8470066,-3.6451674,33975.562
1690985445.384031,0.50000113,-3.3990788,1.8374069,35566.867
1690985445.4078724,-2.2844357,-0.1848087,-0.27982676,34040.133
1690985445.4312348,-0.5392212,-1.9916035,-2.938245,28241.402
1690985445.4532654,0.24792242,-3.5817046,4.4446692,36683.105
1690985445.475674,-2.8677566,-1.2836996,3.8494256,36032.156
1690985445.4985375,-1.6325381,-2.0338442,1.3786024,31457.617
1690985445.5210736,-3.4200668,-0.28253663,0.31210846,33531.137
1690985445.543199,-1.4169174,-4.1425157,-0.110688105,32564.744
1690985445.5651646,-3.159618,-0.38136363,4.003841,34812.37
1690985445.5889392,-2.5599496,-1.7631923,1.2602385,33114.273
1690985445.6111898,0.37966475,-3.7127287,-3.4871926,32670.045
1690985445.6333494,-1.7230493,-1.7893614,0.08162685,33544.723
1690985445.6560166,-0.6039196,-3.1337326,-3.0031323,34098.12
1690985445.678589,-2.973537,-0.6243367,-2.9541323,33220.543
1690985445.7026176,0.15345883,-3.902408,2.6306624,36657.582
1690985445.725332,-2.434941,-0.5276161,-3.613129,30404.299
1690985445.7502408,0.10279662,-3.6030447,-3.9797606,31537.842
1690985445.7756329,-0.6882458,-2.5708637,0.23286998,35083.266
1690985445.8008943,-0.5546484,-2.1154315,3.5671268,35427.344
1690985445.8234332,0.9418629,-1.6577811,4.469434,29724.693
1690985445.8458807,0.43803367,-4.450978,-3.7464206,36183.613
1690985445.86866,-3.4333332,-1.470878,2.3942704,27995.209
1690985445.8910716,-1.3076302,-2.1244109,1.0498562,27402.936
1690985445.9148412,0.21151641,-2.5196788,2.0632381,33721.023
1690985445.9370816,0.117532864,-1.468575,-2.4157445,29155.627
1690985445.9591568,-0.45122504,-3.9610324,4.1346903,30151.84
1690985445.982701,-0.8541765,-2.8026006,-3.940294,33689.22
1690985446.0055466,-2.8311164,-5.16169,4.428332,34646.027
1690985446.0292375,-2.292902,-1.7554492,3.978463,27569.584
1690985446.0526986,-3.1899087,-3.8708963,1.7317767,30843.06
1690985446.0757005,-1.1864035,-0.5543153,4.4554796,27387.863
1690985446.0987933,-2.967215,-3.9104125,-2.7976623,30067.732
1690985446.1220245,-0.0057706814,-2.1777198,0.2356507,28114.19
1690985446.1444829,-0.44390115,-3.2762415,-0.47958454,28424.873
1690985446.1670654,-0.1810268,-3.9096136,-1.9330626,34695.863
1690985446.1895247,-2.7469754,-4.302192,2.0838401,29021.8
1690985446.2122242,0.43987888,-4.0317025,-4.6308312,35048.867
1690985446.23481,-3.121778,-5.0092945,-4.2146087,35105.72
1690985446.2573822,-1.3889855,-1.2438118,-0.6012153,36172.75
1690985446.281271,-2.6535883,-5.051328,-1.0126315,31836.002
1690985446.3032944,-0.21805196,-1.2707664,-1.9740144,31854.34
1690985446.3264225,-2.8039627,-5.252029,0.3330431,31815.6
1690985446.349665,0.094491534,-1.9988892,-3.4357195,35580.02
1690985446.3723934,-0.14547591,-3.0451217,-1.6240784,36431.766
1690985446.398071,-3.135672,-3.8087304,-4.43933,31810.486
1690985446.4210682,-2.2756753,-4.095411,-1.6447313,31199.953
1690985446.4444134,0.5477464,-3.886829,2.4664912,32255.58
1690985446.467589,-1.1932118,-5.337392,2.3332424,36755.953
1690985446.4910758,-3.0901003,-3.093508,3.8628554,35313.68
1690985446.5146625,0.57347184,-5.340397,3.0699227,31153.242
1690985446.5378952,0.18579765,-4.8993707,-0.90803784,36667.08
1690985446.560777,0.2916349,-4.5174055,-3.756883,33815.51
1690985446.5831034,0.19309813,-5.237136,4.4799366,33741.945
1690985446.6065092,-0.64196205,-4.5378175,4.260447,34817.965
1690985446.629385,-2.1716537,0.4587069,0.9027719,29240.846
1690985446.6522708,-2.9027421,-4.677138,-2.4750922,36821.766
1690985446.6747797,-1.154249,-3.0889165,-1.8770642,30425.049
1690985446.6989138,-2.1913772,-0.7792528,1.0663697,35943.875
1690985446.7214177,-1.069571,-4.027391,-1.2910659,28127.584
1690985446.7444727,-1.3665328,-4.795959,-1.3451784,31940.707
1690985446.7676497,-3.505366,-5.075883,2.2936788,33255.145
1690985446.790709,-3.2420185,-0.99302,-4.61529,32970.105
1690985446.8150876,-2.0413241,-1.8255781,0.98884255,34927.633
1690985446.8383834,-2.2408657,-1.7119946,2.6216133,29247.623
1690985446.8607564,-1.3712559,-3.2850168,2.4814155,36605.65
1690985446.8830183,-2.8938472,-3.8063374,4.1346226,28411.555
1690985446.9058657,0.43879434,-1.7809832,-1.2447704,29142.217
1690985446.9287472,-1.2444087,-3.5451062,3.8086607,36402.293
1690985446.9513035,0.7503493,-0.32974303,-1.9310919,36544.844
1690985446.9736743,0.64106274,-5.3411083,0.99989736,28928.902
1690985446.9982553,0.5500975,-4.424137,0.7123493,28229.3
1690985447.0255833,-0.7847054,-5.092067,0.35910007,35253.44
1690985447.0514724,-3.6878889,-2.8322506,-2.1489646,28000.004
1690985447.0741532,0.10257445,-0.34273317,4.283155,34270.082
1690985447.0986593,-0.88344204,-4.1099205,3.536737,31806.41
1690985447.1218076,-3.5224087,-4.292014,1.992193,34052.61
1690985447.1443481,-1.3689656,-3.355718,-0.2360062,29661.895
1690985447.1674972,-0.19073504,-2.7776113,-1.1661413,34284.49
1690985447.1910963,-3.251156,-5.2504425,2.6765447,34266.895
1690985447.2163196,-1.6839931,-0.82556057,1.6254423,36086.473
1690985447.23904,0.30644807,-0.7204052,-2.5168161,34322.37
1690985447.2629356,-2.941297,-0.5865954,3.9915116,36706.32
1690985447.2857797,-1.5049322,0.5310949,2.1413052,35718.863
1690985447.3092897,-2.1027882,-0.78470993,-3.7919128,32372.693
1690985447.331677,-1.7048378,-0.23390387,-0.87435657,29667.19
1690985447.3541532,-0.049443472,-4.5500135,2.8403757,32011.564
1690985447.3776746,-1.1621122,-3.9478984,-0.025994569,28284.594
1690985447.4002767,-2.0759778,-4.6847515,1.1271222,31906.205
1690985447.423322,-3.7560058,-0.86652875,1.3772075,31199.51
1690985447.448525,-2.108282,-5.1754174,-0.46413845,35012.543
1690985447.4714642,-3.4940348,-2.8318992,1.5151782,28910.457
1690985447.4941878,-0.86057156,-1.481454,-2.8464847,28527.193
1690985447.5171013,0.5602355,-3.9844055,-1.3860012,29752.926
1690985447.5395253,-3.2068343,-4.595202,4.0475307,28514.557
1690985447.5616791,-0.2662675,-4.0622754,1.9611152,36710.074
1690985447.5846193,-1.8921071,-3.1210744,-3.7006595,35245.816
1690985447.6075802,-3.1165593,0.3395795,-2.6055586,31039.373
1690985447.6314707,0.44735533,-4.112765,2.1909196,32483.775
1690985447.653987,-3.607682,-3.5392458,4.2067447,33638.277
1690985447.676841,-1.9338578,-3.8667877,-3.5912223,36529.14
1690985447.6990705,-2.0811357,0.19185309,-3.6748006,30590.723
1690985447.7220833,-0.050829265,-4.4053288,-3.6237814,36473.21
1690985447.7455778,-1.0802559,-2.364146,-1.6463684,33952.316
1690985447.7682285,-2.4452448,-4.3452435,4.067938,30394.29
1690985447.7912621,-0.57919484,-1.5462741,-4.492848,28043.271
1690985447.8152666,-2.7540295,-3.779756,3.8938334,29980.35
1690985447.838131,-2.3845952,-2.3968048,-3.7146337,30063.443
1690985447.861099,-1.767264,-5.2229457,-0.13891348,32033.158
1690985447.8838491,-1.0608908,-4.456918,-4.1148667,28596.352
1690985447.9064415,0.398352,-1.127834,3.867579,35332.867
