Time,Roll,Pitch,Yawrate,Thrust
1691147272.9918315,-0.3320741,-3.689764,0.8348699,37070.332
1691147273.0142477,-0.71796924,0.5260674,-1.481472,36444.95
1691147273.036829,-1.5188477,-2.0288074,4.446456,31330.768
1691147273.0592728,-2.2672877,-3.0186844,-0.7674269,36698.086
1691147273.0830247,0.20655468,-3.9417098,-0.35094523,36704.332
1691147273.105907,-0.52469885,-0.1446194,-0.6449074,31257.432
1691147273.1283271,-2.1684418,-3.8880935,-1.3040345,36929.617
1691147273.150862,-3.2356932,-4.3467875,-3.0160627,34494.48
1691147273.1737027,-2.9795117,-2.6234653,-4.197595,30406.629
1691147273.1963112,-1.8506095,-4.664751,2.1226444,35869.56
1691147273.2193918,-3.2429776,-3.0129504,3.601043,40307.43
1691147273.2420185,-3.4855871,-4.0259304,-2.005031,37164.953
1691147273.2648296,0.8134016,-3.8780484,-0.18487729,34207.16
1691147273.288365,-0.9422186,-3.8408597,3.3837016,32406.865
1691147273.311135,-1.1028825,0.44074216,4.1596155,40307.44
1691147273.3340034,-2.614102,0.43179378,-0.94670314,35150.457
1691147273.3567536,-2.64795,-4.988266,0.29933703,31900.184
1691147273.3811765,-2.964341,-1.4192535,1.0018668,35810.734
1691147273.404074,0.8371124,-2.671052,3.9720182,39898.926
1691147273.4266303,0.39046764,-0.49095145,3.0047247,39567.63
1691147273.4497805,-1.1183301,-2.9569373,3.5245757,33058.844
1691147273.4720008,0.72935003,-4.9938807,3.4599552,36434.07
1691147273.4945261,-2.4937532,-1.5986305,0.040429547,40100.42
1691147273.5175185,0.19481817,-1.7008709,-3.8094807,30830.967
1691147273.5405197,-2.840888,-3.2358644,0.55852056,31477.986
1691147273.5632632,-2.8389063,-3.2843094,0.7861195,33144.285
1691147273.5857797,0.4573873,-4.3666973,2.2223248,34896.305
1691147273.6087265,0.037768263,-4.8157454,2.6383548,37232.4
1691147273.632584,0.66462165,-1.2875123,3.6011114,39669.484
1691147273.655276,-0.09185819,-4.738855,3.2010615,34790.91
1691147273.6781335,0.39308733,-0.24963461,-1.7723435,32250.092
1691147273.7025163,-1.8775274,-3.5498748,0.029170921,32705.88
1691147273.725297,-1.6644738,0.3006895,3.1725168,30534.477
1691147273.747581,-0.38115767,-0.55513245,2.6878612,30413.168
1691147273.7699378,0.4118471,-3.329603,1.9469448,33804.543
1691147273.79212,-3.2653718,-2.9430435,0.5692516,31222.637
1691147273.814448,-3.2134547,-3.1634548,3.9984195,34080.594
1691147273.8367465,-1.3764684,-4.7234635,2.7144725,38972.543
1691147273.8591385,0.23035641,-0.24897161,-0.6433045,38440.727
1691147273.8811226,-2.4342124,0.5405781,-1.9700022,32816.863
1691147273.9043765,-2.7402034,0.3848725,-3.313892,38962.52
1691147273.927221,-1.8277806,-4.8625164,1.5869235,38187.605
1691147273.9508255,-0.97102463,-4.6373863,3.0985959,30718.277
1691147273.973823,-0.37552515,-0.77607805,2.438045,39948.73
1691147273.9965549,0.8714152,-5.1932826,-4.3410454,38326.867
1691147274.0193586,-3.5780296,-0.027801009,-3.366001,37590.58
1691147274.0419824,-0.27509284,-1.5089508,3.790143,38501.902
1691147274.0647116,-0.43927646,-1.5418719,3.845237,36769.008
1691147274.0871794,0.51803,-3.6696959,1.6989627,36720.55
1691147274.1095529,0.45608258,-0.86309457,-1.7148167,36603.625
1691147274.131746,0.5255407,-1.4339674,1.2592288,31576.951
1691147274.1540482,-0.66962093,-0.38764402,0.008273056,38550.13
1691147274.178264,-0.5082328,-1.6891266,-0.3100095,30293.885
1691147274.200659,-0.65354615,-4.6002207,2.1000965,34484.02
1691147274.2234547,0.7755274,0.35676256,-3.6915402,35924.207
1691147274.2461047,-2.5788064,-0.1279398,2.2202437,30547.717
1691147274.2689714,-3.7429955,-3.4477646,-0.7474803,35740.992
1691147274.2917168,-0.06449092,-2.7211092,3.8179145,37066.68
1691147274.3144689,-2.3871863,-0.49086785,4.4350853,33006.613
1691147274.3394952,-3.2334135,-0.84426475,-2.625092,39727.72
1691147274.362356,-0.44742176,-4.797789,1.7839845,35696.383
1691147274.385352,0.68254536,-5.5129557,-4.3215785,31241.37
1691147274.4088979,0.6396718,-2.3511672,0.2545177,33841.914
1691147274.431279,-0.31029737,-4.812141,-0.91798556,34557.56
1691147274.454117,0.37552842,-0.4928432,-0.3500322,36258.12
1691147274.4766476,-0.3185146,-2.7556927,4.0739455,39459.812
1691147274.499423,-2.8529515,-1.0471578,1.49343,39788.598
1691147274.522597,-0.943911,-3.1635177,-3.3502007,36271.133
1691147274.5453334,0.087393865,-3.9256587,-2.6382911,30361.861
1691147274.5683231,-0.023584176,-3.5768418,0.78746456,34860.57
1691147274.5907545,-2.4230797,-5.3087935,-1.203527,38048.777
1691147274.6136012,-3.17338,-3.516265,-1.789916,33762.035
1691147274.6361957,-1.1393282,-4.557507,-1.984134,30234.16
1691147274.6591704,0.12853032,0.3683114,-0.16214646,34459.77
1691147274.6818562,0.33184597,-3.1338406,0.26478142,38821.836
1691147274.7060277,-1.3004012,-3.446266,-3.5265114,34127.805
1691147274.7285285,0.17889655,-3.9738548,1.0826995,38460.523
1691147274.7517104,-2.2829666,0.28986222,3.5726123,34007.25
1691147274.774944,0.41334042,-4.2743897,1.117982,30150.018
1691147274.7991676,-3.2260652,-4.6878886,0.15631226,38702.24
1691147274.8213806,-3.2166884,-4.709879,3.966959,39788.797
1691147274.8447435,-1.9856266,0.48423895,-1.3365581,31097.367
1691147274.8673742,-2.0803971,-0.93580997,0.03356154,38019.465
1691147274.8918965,-1.0124937,-0.4209795,-2.7108688,39096.625
1691147274.9147263,-2.0386496,-3.974227,1.972124,37092.01
1691147274.9372437,-2.6254003,-5.0300527,3.8186672,38026.105
1691147274.9610145,-3.5057938,-0.87798375,0.16333927,30322.521
1691147274.9843793,-2.4004023,-0.33757126,-0.63532907,31305.885
1691147275.0084963,-3.251819,-3.348836,3.3324552,40410.625
1691147275.0316234,-0.51625156,-0.87762266,2.4374537,34942.332
1691147275.0547802,-2.9083483,-3.0682096,-2.1418178,38111.02
1691147275.078155,-3.3080664,-5.230035,-4.4211664,30483.928
1691147275.1018662,0.44694272,-3.3881712,3.9343424,38187.668
1691147275.1253345,-2.0051303,-2.2500508,-1.799996,37534.523
1691147275.1480722,0.77651626,-3.8145628,2.1261094,37935.605
1691147275.1728077,0.59186924,0.21363601,1.9904848,37886.45
1691147275.1955895,0.16832167,-2.9203818,2.1140456,34538.613
1691147275.2185912,-2.6554816,-4.304234,1.8969029,36839.656
1691147275.2412941,-0.51945555,-4.2119365,-2.1255825,33502.785
1691147275.2663116,-2.977693,-3.9402406,0.10331724,31826.836
1691147275.291861,0.0093715,-3.45165,-2.7364922,39657.7
1691147275.3140953,-1.6935192,-5.435749,0.92711985,33725.613
1691147275.3369477,-1.533276,-4.436635,-0.7112839,31450.238
1691147275.3595033,-1.284878,-4.6325483,-3.4783206,36991.54
1691147275.3818574,-3.210148,-2.999826,2.2736456,40430.66
1691147275.4045131,-2.1745555,-1.4762142,0.95249027,39807.08
1691147275.4272149,0.7803813,-1.2291368,2.6801937,37524.566
1691147275.4497976,-1.1167276,-3.00939,2.998229,38246.62
1691147275.472583,0.68053716,0.44470444,2.5264258,39617.098
1691147275.4953754,-0.70984894,-1.3000906,-3.6210735,39870.387
1691147275.5180883,0.36429855,-4.6948824,1.0826129,38998.324
1691147275.5411458,-1.6477442,-4.3577766,-1.2499018,36548.35
1691147275.5639126,-0.8312972,-4.5939565,0.28838107,31515.842
1691147275.5864885,-0.8730807,-5.3729587,-4.6043653,38392.414
1691147275.610464,-0.7603335,-3.044145,-3.4868398,38098.07
1691147275.6335921,-1.2559241,0.072758935,-1.6756501,36486.77
1691147275.6578867,-0.7717066,-2.1160655,-3.478987,35424.37
1691147275.6810982,0.7142276,-1.6409843,-4.1936297,37440.94
1691147275.7036557,-1.6984497,0.35071093,-2.160877,37857.336
1691147275.7268577,-1.937754,-0.5391774,-2.6357634,34614.92
1691147275.7496893,0.093420506,-4.243105,-0.23987907,33720.72
1691147275.7724686,-1.3486198,0.32861453,-4.558681,37680.234
1691147275.7951643,0.025540048,-5.302399,-2.5168765,39810.344
1691147275.8180974,0.93274206,-5.208493,4.2148266,36609.258
1691147275.8406749,-1.9078984,-0.26968253,-3.001018,31665.254
1691147275.8631923,-0.7502516,-3.433103,-3.6769714,35817.9
1691147275.8857827,0.37160018,0.030729381,2.0214572,34197.746
1691147275.9087145,0.5436223,-5.3602047,-3.5547297,34480.367
1691147275.9321222,-3.0662754,-3.822961,-4.046279,39487.75
1691147275.9546638,0.689949,-2.4714944,-3.8942223,39093.887
1691147275.9797072,-3.2335973,-1.8984085,2.5261226,38086.805
1691147276.0037885,0.93605286,-5.203558,1.5073609,38939.53
1691147276.0294151,0.552802,-0.6291458,2.1392097,36949.32
1691147276.052918,0.74522614,-4.270834,-0.15272722,30363.91
1691147276.0773687,-2.7360196,-4.9023232,-4.1057234,38431.727
1691147276.1007302,0.2680747,-3.53992,0.22481902,34694.016
1691147276.1241457,0.17861407,-0.83826953,-1.4733791,31865.469
1691147276.1471603,-2.6967795,-1.072,-0.8920718,37739.086
1691147276.170117,0.28982466,-0.453861,2.9559624,32425.484
1691147276.1936867,0.7727954,-3.6298935,-3.5318258,36928.12
1691147276.217691,-2.4431415,-2.1613731,3.1415675,35626.81
1691147276.24143,-1.8458885,-2.223461,2.8865016,39728.473
1691147276.265693,0.40745163,-3.703228,-2.2585542,35357.562
1691147276.2892444,-2.2810934,-0.59287226,3.6221209,39577.375
1691147276.3117318,-2.1489546,-1.5100005,2.680321,37008.89
1691147276.3343437,-1.3833644,-5.472146,-4.0219607,32991.195
1691147276.3571868,0.33040157,-3.941897,-2.984175,39002.574
1691147276.3814497,0.57081246,0.45420069,3.7990744,37082.77
1691147276.4044418,-3.7830777,0.17631494,2.2519298,35838.695
1691147276.4278703,-0.15877885,-3.7884266,-3.012733,39587.91
1691147276.4507551,0.8476573,-0.53362983,1.1416268,39156.71
1691147276.4733517,-0.16880228,-5.379676,3.329267,32861.04
1691147276.495961,-2.4306889,-4.074411,2.7685223,31335.156
1691147276.5185819,-2.6837056,0.53951097,4.226934,39972.05
1691147276.5410247,-0.5244845,-4.5848475,-3.5987198,37442.844
1691147276.563443,-1.5465599,-4.817808,0.36739922,33244.707
1691147276.5866597,0.9077524,-0.66388434,0.2924561,35454.723
1691147276.6099422,-1.9449307,-2.341063,-1.9756583,30262.904
1691147276.6329503,-0.13256481,-4.805771,1.0655369,30465.887
1691147276.657295,-0.69608265,-3.3240106,-1.2029864,39806.348
1691147276.6796074,-3.4175968,0.2039612,-4.205528,39794.86
1691147276.702883,-1.1837075,-5.1504707,-2.7688942,35729.64
1691147276.7260435,-0.8373628,-0.51133037,-0.08271164,31175.91
1691147276.749874,0.4610709,-4.5266953,3.4111676,31122.988
1691147276.7722712,0.6390232,-3.930991,2.754438,34209.87
1691147276.7946835,0.20675538,0.13348374,3.1924484,31576.506
1691147276.8169293,0.28007162,-3.3818798,-2.4903705,38791.773
1691147276.8393676,-0.1388981,-3.1599832,4.4150853,32726.246
1691147276.861473,-1.5850232,-2.608966,-2.0412393,29926.918
1691147276.8839629,-3.6448112,-2.4340801,4.5427885,35191.047
1691147276.9067142,0.08031157,-1.6819596,0.34898743,38610.95
1691147276.9302323,-3.2329817,-2.4723146,-1.0406368,39044.812
1691147276.9528337,-2.2060375,0.20301998,4.2099824,39895.875
1691147276.9759226,-3.5563807,-2.5821726,-1.2622515,30672.46
1691147276.9984016,-2.1413956,-5.1362343,1.3803906,34975.523
1691147277.021849,-2.7050474,-4.4793262,-3.4392009,37938.883
1691147277.0442057,-0.28358233,-1.9631193,-2.1441398,36907.66
1691147277.0670702,-1.3644795,-3.7010822,-3.100971,37704.344
1691147277.089256,-2.957772,-1.6495172,-3.3005044,32623.455
1691147277.1117454,-0.8555563,-4.9187756,-4.3249774,36674.242
1691147277.1344113,-0.3539846,-1.7922865,2.2365139,33668.867
1691147277.1574426,-2.3720546,0.5647521,3.2016568,35742.906
1691147277.180043,0.5012565,-1.0443212,0.5931549,40296.684
1691147277.2030716,-0.24608594,-0.7704022,-2.1677213,31825.92
1691147277.2262838,0.70775056,-1.5596217,-1.1290584,31829.996
1691147277.2499425,0.48479965,-4.861937,-1.2085904,38926.625
1691147277.2726543,-2.4372187,-3.1094227,2.2210078,40002.945
1691147277.295352,-1.5328101,-0.5505199,2.2830653,38514.66
1691147277.318309,0.594169,0.39849207,1.2434402,36031.54
1691147277.341084,-0.1148085,-0.26083228,2.2784398,36125.453
1691147277.3636603,0.6155732,-1.0114205,2.5293863,35449.367
1691147277.3881626,-3.614727,-3.2380855,-0.24562652,37610.64
1691147277.4109707,-1.8411081,-4.149334,0.22290306,30485.71
1691147277.4337034,-0.7016995,-5.1555295,1.899352,36093.87
1691147277.4562316,-1.9227109,-2.2494776,1.6697478,38778.266
1691147277.4785423,-2.7895086,-1.7326549,-4.159448,38699.133
1691147277.5010889,0.39712012,0.4483782,-0.16934547,33291.453
1691147277.5243556,-3.062394,-3.196495,-0.7826784,35078.71
1691147277.546749,-0.058356903,-5.4364796,1.5775596,38253.785
1691147277.5697062,-2.376294,0.020809362,4.1395884,32501.979
1691147277.5952384,-3.4473681,-4.24281,-2.0644794,35528.582
1691147277.6183705,-0.026699973,-1.667993,-2.6590924,35959.617
1691147277.6409826,-1.2533964,-4.269103,3.6287076,39456.96
1691147277.6648996,-3.1781256,-0.3116309,2.3722456,36768.305
1691147277.6876168,-2.2671587,-1.4508855,-0.21673054,35488.84
1691147277.7106183,-1.1709797,-0.36058164,0.26366228,33890.02
1691147277.733542,0.21018821,-3.4517946,2.219273,34388.777
1691147277.757485,-1.8217834,-2.3563855,-3.393278,31941.666
1691147277.7798266,-1.2881918,-2.5982244,-3.9904428,32398.918
1691147277.8027287,-1.0493622,0.4593417,3.1196625,35089.0
1691147277.8257625,0.5022957,-4.7211714,-4.271079,34209.26
1691147277.8498235,-1.4774292,0.13784552,3.7678864,35777.117
1691147277.8724415,-1.7257168,-4.149111,2.7029517,39899.27
1691147277.8955667,-0.17053968,-3.8082535,3.491466,40198.332
1691147277.9185588,-2.9842486,-1.7284064,1.8970836,38344.523
1691147277.9420757,0.41102725,0.06404734,-4.10965,37876.582
1691147277.964602,-0.63525575,-4.4578214,2.8009267,32810.69
1691147277.9872415,-2.2433784,-0.37203887,3.3208687,35736.926
1691147278.0099158,-2.7360647,-3.9904265,-3.875601,37000.406
1691147278.0329072,-3.253437,-2.9234543,3.4452705,34516.188
1691147278.0555484,-2.6325607,0.30289024,1.4582105,38834.562
1691147278.0778484,-0.8229757,-2.0922735,3.7365947,36933.9
1691147278.101778,-2.0868626,-2.8437622,1.1081538,31465.172
1691147278.1246846,-0.79611444,-0.036790643,1.4407153,33159.72
1691147278.148424,0.7650183,-2.9380436,-1.3748101,30394.104
1691147278.171274,0.7203817,-0.36381206,-0.2182773,31643.197
1691147278.1945987,-2.3963816,-2.8049438,1.8298477,33410.047
1691147278.2186334,-0.76317847,-4.510724,-3.7066822,30592.184
1691147278.2412605,-2.4358377,-1.7853277,-0.5473063,36997.32
1691147278.2642865,0.5493302,-1.5631388,1.3154715,31929.023
1691147278.2867603,-3.0261707,-2.2775674,-2.321519,34444.094
1691147278.3100228,-1.5766054,-4.9703608,-3.5096958,32697.623
1691147278.3325548,0.35403958,-0.6424823,-2.1397886,37943.395
1691147278.3551786,0.59138906,-4.9342036,-4.383069,30003.389
1691147278.3773842,0.831243,-2.788344,-0.71823925,40313.18
1691147278.4009373,-2.28691,-2.3336887,-2.352299,36043.797
1691147278.4237473,-3.4250207,-4.189678,2.4954662,34534.08
1691147278.4471269,-3.6723907,-2.9713273,-3.741596,35567.38
1691147278.469895,-3.6499841,-4.9266753,-2.5427923,34900.867
1691147278.4931476,0.3297571,-0.11048376,1.2930902,31531.41
1691147278.5158288,-1.0922244,-4.873888,-4.11511,34678.906
1691147278.538187,0.30785266,-3.9680479,-1.7540495,37716.586
