Time,Roll,Pitch,Yawrate,Thrust
1691494850.841252,0.9016677,-1.4158329,-2.775318,40468.688
1691494850.864494,-3.1251001,-2.1830692,-0.103765436,36093.203
1691494850.8876083,-2.3465276,-0.93950737,-0.10519698,35119.35
1691494850.9099681,-2.2434018,-3.034329,-3.246388,42980.492
1691494850.932414,-3.598474,-0.3750614,3.0785074,38821.26
1691494850.9559774,-3.710523,-4.4260497,3.627861,37883.566
1691494850.9798646,-1.1379629,-1.6648418,4.41813,40029.484
1691494851.0021458,-0.59692794,-3.7022128,3.5867732,33727.156
1691494851.0251923,-0.7193833,-1.7891781,1.3124357,39291.953
1691494851.048896,-0.76545656,-2.6065772,-1.4958231,36444.113
1691494851.0717096,-1.7027019,-0.9473998,-2.4690926,42587.32
1691494851.094461,0.4204654,-4.7360864,3.4981234,32808.797
1691494851.1173391,0.5805219,-2.029257,-4.2139816,35459.055
1691494851.1414714,-0.35823187,-1.0716476,2.964843,37899.48
1691494851.169203,0.17521878,-0.44718763,-2.627208,37648.855
1691494851.1927493,-3.2246504,-3.7648027,-0.3768183,39415.17
1691494851.2174804,-2.0119638,0.08229512,-4.377778,36316.21
1691494851.2400591,-1.1143876,-5.190048,-2.7871811,33364.27
1691494851.2622747,0.7794666,-1.364505,3.3474767,36032.574
1691494851.2846415,0.18290246,-5.535028,-3.8506603,32387.023
1691494851.3078983,-0.266091,-1.1802304,-3.7503672,34619.273
1691494851.3306878,-3.6370814,-0.4124659,2.309806,42610.156
1691494851.3537025,-0.6704355,-1.1495861,2.4826822,39240.28
1691494851.376533,0.91569066,-0.311607,-3.0601997,38406.17
1691494851.399789,-2.9398565,-3.1113024,4.2503185,41788.492
1691494851.422356,-3.2244105,-4.0829706,-2.018403,34270.117
1691494851.4450932,0.36916298,-0.3590392,3.3418262,34666.94
1691494851.4683537,-0.3065517,-4.208757,1.7581434,40712.93
1691494851.4912124,-1.5584843,-0.95932287,0.9554627,42622.105
1691494851.514687,0.89119554,-2.1830242,-0.94365484,33717.19
1691494851.5371547,-0.012310641,-5.1448092,-3.747242,39699.836
1691494851.559518,-1.8314923,-1.013896,-3.7685354,41751.72
1691494851.5819468,-1.6042693,-4.3277783,-0.3675897,32804.082
1691494851.6066236,-2.9297352,-0.022930568,-2.4770606,42187.297
1691494851.6328669,-2.6397488,-5.4289474,-4.381901,40187.832
1691494851.6557236,-1.8470343,-3.8229516,-0.44386348,36206.625
1691494851.6791909,-1.5390984,-5.0843954,-2.9876578,35337.844
1691494851.7015364,-0.066896684,0.14500217,-3.736076,33728.08
1691494851.7247725,-1.147176,-0.3127117,1.5269613,40786.63
1691494851.7472322,0.545204,-4.924476,4.3221145,32189.277
1691494851.773334,0.37702075,-5.3066707,-3.846478,41929.16
1691494851.7970252,0.8740003,-1.003275,4.4154234,34948.027
1691494851.8321922,-2.5904403,-0.04743635,4.36936,41398.37
1691494851.8569045,-0.09820514,-4.773989,2.3861668,40652.01
1691494851.8795629,-2.9703014,-4.952704,0.09157527,42196.625
1691494851.9022634,-1.5949291,0.59094757,3.4739664,42694.688
1691494851.9248579,0.38224292,-3.874365,-2.1712646,37093.918
1691494851.9551783,-1.1940542,-5.1409516,-3.123466,33664.0
1691494851.9789033,-2.5524533,-2.5899167,2.343151,37836.44
1691494852.0022733,0.21069343,-5.3024125,0.16024695,33168.688
1691494852.0263274,-1.0666803,-0.65478516,-2.766187,32448.666
1691494852.0494409,-1.093533,-3.2471497,2.4902925,42116.984
1691494852.0719862,-2.3784583,-4.6533175,4.2651453,32203.027
1691494852.0944276,-2.0632396,-3.792843,0.39666745,41999.875
1691494852.118426,-0.5263148,-4.9108543,1.9626442,38357.293
1691494852.1409557,-3.66892,-4.783697,1.5939739,37924.45
1691494852.1640115,-2.7051444,0.46805778,-0.6281977,34449.977
1691494852.1867785,-0.88497514,-1.9345967,-1.0938019,39509.227
1691494852.2097661,-2.2149532,-4.4817533,3.4080117,31906.041
1691494852.233716,0.6272251,-0.3107798,0.030087052,41604.95
1691494852.2569423,-1.1721647,-1.211078,1.1140938,31763.436
1691494852.2801313,-0.5257806,0.46670175,-2.6165915,43189.23
1691494852.3030539,0.24711025,-3.7327542,2.649072,39837.49
1691494852.3253624,-2.2061398,-2.25723,-1.846166,36549.54
1691494852.3479996,-2.6005862,-2.706287,-3.162836,42369.79
1691494852.370892,0.55249816,-4.3885474,-2.4738262,37099.953
1691494852.3934793,0.6116349,-0.8991183,1.9070938,39776.832
1691494852.416535,0.45674467,-2.7490356,1.9127911,42759.246
1691494852.44565,-3.0777671,0.09483202,-4.0595646,32214.441
1691494852.4722328,-0.52968895,-0.51506424,1.580476,33823.977
1691494852.495331,0.5315062,-4.1052213,4.021092,32009.447
1691494852.5186489,0.23608236,-1.9092065,3.7251513,40480.73
1691494852.5419986,-2.146921,-0.21559358,0.44065398,43222.246
1691494852.5647886,0.47884014,-0.4156362,0.5790191,38894.23
1691494852.5879188,-1.1747718,-4.2101045,-0.4041415,41249.836
1691494852.6103961,0.24385536,0.62003887,3.9694407,36573.027
1691494852.6331143,-3.410256,-0.6435483,-3.8882585,32664.404
1691494852.6558814,0.87050337,-2.8931746,1.0234448,36694.38
1691494852.678452,0.6794573,-0.46583793,2.8845472,41951.84
1691494852.7118425,-2.3321438,-4.6865063,3.517154,39629.953
1691494852.7348914,-1.4416813,-0.5396333,-3.1623166,32594.246
1691494852.7582989,-1.1041572,-3.563447,1.727117,38942.363
1691494852.7805448,-2.6228964,-1.473782,0.951476,42007.066
1691494852.8030133,-3.4786165,-3.91247,0.20048197,33046.938
1691494852.8266294,0.04030901,-0.30912748,-1.12038,41248.01
1691494852.8499913,-3.4085104,-3.258994,-4.3467093,38012.76
1691494852.8724973,-1.8832654,-1.2669472,3.5224254,37226.24
1691494852.8949804,-3.5660217,0.023498826,-1.7412776,32102.95
1691494852.9185886,-0.019561205,-5.4033866,2.2844474,42581.074
1691494852.941841,-0.8166988,-0.23601413,-4.015459,34314.594
1691494852.9651067,-3.585773,-1.1758635,2.6139314,42252.836
1691494852.9887352,0.26690578,-1.8176503,-3.99744,35798.05
1691494853.0126154,-3.5359614,-4.776688,3.2956922,32465.361
1691494853.0358396,-1.3788508,-5.06289,-4.545676,37104.17
1691494853.058138,-2.763007,-5.0612373,-4.2234416,40119.6
1691494853.0806506,-1.1260223,0.3558385,-2.0871232,34204.375
1691494853.1043932,-2.7533443,-2.8984168,-0.56731945,42729.086
1691494853.1271677,-2.0107331,-2.701602,-2.9867861,39257.254
1691494853.1496775,0.35010168,-3.957321,2.371583,37719.98
1691494853.1722207,-3.4754732,-3.8111496,-2.8698559,33110.523
1691494853.1999304,0.050894268,-2.4591422,3.799542,35084.523
1691494853.2227182,-0.77718395,-5.3142333,-4.2077475,38642.43
1691494853.2456803,-0.29304677,-4.9558287,-2.8315237,42039.664
1691494853.2686408,-2.107448,-3.4432504,-2.8694227,39732.6
1691494853.2912614,-1.9667228,-4.4284906,3.7230806,40992.38
1691494853.3144345,0.40424478,-1.6166551,-0.09929459,32075.81
1691494853.3378334,-0.3480619,0.20667547,3.924992,37232.406
1691494853.360221,-1.1599516,-5.0539246,-3.94281,39845.754
1691494853.3830888,-0.3574789,-3.7322059,-1.259457,42937.906
1691494853.40699,-3.0548224,-1.3711628,-2.0026028,39622.17
1691494853.4317238,-2.6117206,-2.2499762,-1.6565301,42191.1
1691494853.4593217,-2.4395103,-2.606436,3.748294,32053.352
1691494853.482355,-2.5820615,-2.1683686,1.6377573,39584.574
1691494853.5053155,0.8761942,-1.3249613,-0.59215564,35232.61
1691494853.52936,-2.500126,0.63555574,1.4962006,37796.473
1691494853.5525358,-2.5756938,-1.9148177,2.7358618,37774.492
1691494853.5754685,-2.431692,-2.7380235,2.4706082,37716.47
1691494853.5991254,-1.7949831,-5.391359,0.65098554,42356.547
1691494853.6213224,-2.1200774,-1.313175,3.3539562,35210.47
1691494853.643448,-1.9399312,-2.1549807,0.43036035,34014.48
1691494853.6669486,-3.7722442,0.17175257,-2.4072757,37977.93
1691494853.6896062,-0.98412275,-4.4993305,-2.348363,38534.574
1691494853.713335,-1.8487281,0.5280903,-1.2905374,35340.758
1691494853.7403,-0.011093536,-5.2215114,4.2371087,41364.902
1691494853.7638068,-0.7380494,-4.20634,-2.322911,40408.68
1691494853.787367,-1.531898,-0.05437618,2.54396,39749.99
1691494853.810128,-3.642862,-0.46540183,-3.5389535,42230.027
1691494853.8326557,-1.0711384,-3.776707,3.9536848,36595.44
1691494853.855906,-0.2912567,-2.6986663,2.61311,32497.941
1691494853.8794644,-1.8753788,-0.94239223,1.4087349,39631.945
1691494853.90181,-2.312235,0.1288861,2.5015545,33255.203
1691494853.9241943,-2.3906643,-4.367609,-0.67145896,40898.137
1691494853.9467099,-1.328414,-3.6545942,3.7373948,37586.562
1691494853.9802666,-3.7276657,-3.5143125,-1.5965332,38804.438
1691494854.0046923,-3.3254797,-4.6784644,0.24764572,36597.09
1691494854.0272245,-1.7248881,-0.29828566,-2.7276635,37514.234
1691494854.049973,-2.415853,-3.8161986,-2.5244203,34072.883
1691494854.072813,0.4977466,-5.0555344,0.58784384,35137.562
1691494854.0967696,-0.70629627,0.4444833,-2.760714,35924.336
1691494854.119374,-0.010561151,-2.1457992,3.8557432,38343.125
1691494854.1420295,0.83759207,-5.370557,0.98669684,36281.84
1691494854.165948,-2.3805227,-4.9032917,0.64261085,34111.105
1691494854.1889577,-0.8372202,-3.5664728,4.2150736,41133.7
1691494854.2122018,-1.3680463,-3.9521058,-1.6421813,41802.05
1691494854.2349796,-0.53532284,-5.1383553,-0.33596435,38458.668
1691494854.259738,-2.8744762,0.12588745,2.2263472,36504.754
1691494854.2879586,-3.4432516,-3.8168907,1.838751,38414.305
1691494854.3104284,-0.20312497,-0.42473876,-4.5022006,37304.914
1691494854.33406,-1.5407574,-3.818167,4.49186,40346.992
1691494854.3581548,-3.668043,-1.343824,1.4540752,35636.875
1691494854.3807683,-0.3504746,-0.9204621,-3.9004903,38681.453
1691494854.4035866,-0.517461,-2.8461275,-1.0050038,41511.688
1691494854.4271746,-3.24976,-3.6730168,-2.1398277,40244.19
1691494854.450263,0.5462727,-2.6354523,1.3745077,33539.61
1691494854.4729776,-1.6449479,-1.1500705,-3.4638891,40014.78
1691494854.4957852,-0.65113574,-4.1006856,1.3963436,37049.71
1691494854.5200863,-0.62701416,-4.0139904,3.4889512,35561.414
1691494854.5436344,0.8106731,-0.49643543,3.224554,41495.49
1691494854.5664701,-3.7493677,-0.45018685,0.24391341,37269.297
1691494854.5890625,0.18208374,-2.3424125,1.219931,34184.746
1691494854.612955,-0.31419867,-3.372153,-1.7498338,40301.83
1691494854.6361396,0.6818827,-5.1409483,-0.2670298,42272.727
1691494854.6586668,-3.4297206,-5.4119153,3.1242447,41132.832
1691494854.6812627,-1.5825367,-1.494698,3.5642047,37956.008
1691494854.7050583,-0.6790688,-4.8465533,-2.267831,42703.277
1691494854.7284386,-3.1338615,-4.215891,0.76720357,38404.227
1691494854.7514803,0.35346255,0.13635552,2.9798963,40888.83
1691494854.7744741,-0.6705832,-3.6563349,-3.083625,33878.22
1691494854.7975254,0.19394699,-4.9143887,3.6666956,39221.18
1691494854.8261626,-1.1331863,-1.7005912,2.6326225,42758.637
1691494854.8489614,-1.7086841,-4.745908,1.6729158,42948.71
1691494854.8716898,0.11227089,-0.12303894,-3.0243769,36836.305
1691494854.8952394,-1.4760162,-2.0474596,-0.8669392,35460.63
1691494854.9188802,0.6619472,-1.9895742,-2.210865,39240.863
1691494854.9411786,-0.35309052,-4.8514953,1.7348775,32667.584
1691494854.9653435,0.4376667,-1.6762149,-3.4960196,41375.492
1691494854.9889798,-0.087922126,-3.1649742,-4.1333313,37842.438
1691494855.0115983,0.9453523,-1.170182,-0.08536625,38989.246
1691494855.0352654,-1.0762827,-3.0177734,1.0191867,40726.484
1691494855.0692868,0.5563873,-0.91797096,0.660467,35867.125
1691494855.0927646,-3.252274,-0.5481406,-3.0468824,40441.066
1691494855.1161828,-2.4013658,-0.9008563,3.2228906,35659.324
1691494855.1388478,0.5891053,0.2913123,4.198107,38795.258
1691494855.1637902,-3.6423078,-2.0760353,1.0296732,32778.344
1691494855.186258,-0.61965907,-0.2607455,3.446454,36433.855
1691494855.2088451,-3.1089685,-4.498702,-1.2121478,32680.912
1691494855.2312927,-0.20023134,-3.7430527,-2.5505667,42132.598
1691494855.2537546,-2.5252728,0.4832104,-2.7138798,40962.56
1691494855.2763379,0.34002846,-4.93767,-4.532204,40748.89
1691494855.2993705,-0.3632709,-3.1971428,3.8068926,37979.555
1691494855.3220582,-3.7775826,-4.7917356,-2.8472202,43018.797
1691494855.3448644,0.14284427,-0.99237615,-3.4211612,38629.82
1691494855.3675263,-2.7758055,-1.081822,3.8118515,34571.426
1691494855.391864,-0.38199627,-1.5314605,2.5635037,37093.49
1691494855.4155154,0.02118112,-3.3257463,4.210368,32722.951
1691494855.438265,-1.5001241,-2.1083355,-3.3759675,33963.812
1691494855.4610918,-1.4544555,-5.139002,2.229646,32503.459
1691494855.4842594,-3.2953238,-4.879103,1.9060242,35014.26
1691494855.5068736,-3.6911726,-1.7786003,-2.1108584,33070.85
1691494855.529403,-0.14471552,-4.72256,-2.1652546,39346.418
1691494855.5558257,0.76334333,-5.2331386,3.8409274,40159.707
1691494855.579315,-0.87553513,0.4608285,-4.3264875,42319.746
1691494855.6015143,-1.3194335,-3.587362,-3.3555,41563.043
1691494855.62487,0.79891485,-3.1201677,-2.197613,33183.855
1691494855.647215,-3.18019,-3.710067,2.227508,36471.69
1691494855.6692991,-0.72713804,-1.1673102,-3.9860888,34100.49
1691494855.6929922,0.4285324,-2.5592272,-3.524302,35524.188
1691494855.7155917,-0.1474295,-0.056240875,2.3911767,33843.29
1691494855.7384148,-2.927371,-1.6326237,-2.8215554,34473.297
1691494855.761358,-0.8593934,-1.5598178,0.6178424,36646.562
1691494855.7843392,-0.37752405,-2.1136918,-2.9357107,36709.37
1691494855.807269,-1.7296941,0.11138155,1.8444997,32169.96
1691494855.8297563,-0.29472935,0.05494761,0.13075534,38491.676
1691494855.8525279,-2.9957347,-4.969848,4.1509814,35493.062
1691494855.8797226,-3.5478086,-3.3729458,3.6713903,34591.86
1691494855.9026523,-3.107992,-0.93479323,-1.576709,41529.785
1691494855.925245,-0.67618585,-3.263725,3.8069022,35764.137
1691494855.9482481,0.19000025,-5.10999,2.48041,37429.85
1691494855.9722562,-1.277977,-0.75109994,-3.7054904,40872.11
1691494855.9955592,-2.069128,-0.92459685,-2.9052784,41555.496
1691494856.0184052,-2.598774,-2.523352,2.8851664,40669.953
