Time,Roll,Pitch,Yawrate,Thrust
1690890327.0477624,-1.4165851,-0.013318252,2.951542,36688.773
1690890327.0764756,-3.0218475,-3.5771446,2.5633612,36497.59
1690890327.0992165,-2.4921205,-4.430364,3.163614,33139.746
1690890327.122037,-3.3285449,-0.05976388,-2.177975,28642.389
1690890327.144872,-1.7885195,-5.2100215,-0.7443619,35194.08
1690890327.1682377,-2.32049,-5.1913285,-2.6645563,34117.832
1690890327.1938565,0.23829567,-5.2656517,4.0848517,36232.652
1690890327.217053,-2.5831718,-1.4840777,-2.101006,27250.18
1690890327.2422469,0.031961385,-4.339394,-3.4743245,28577.803
1690890327.267034,-2.6204684,-0.45796564,-3.0615337,31184.02
1690890327.2953875,0.81053174,-1.7339157,2.8883438,33582.945
1690890327.3185656,-1.5939066,-0.14477335,-1.5806319,33480.43
1690890327.34544,-1.5508461,-4.3609147,-3.2692225,29482.557
1690890327.369853,-3.6491199,-3.8310318,0.91669106,36502.875
1690890327.3925269,0.17268842,-0.41014215,-2.9484377,30996.354
1690890327.4193456,-2.487287,0.19148102,3.1049979,35159.492
1690890327.442257,0.648566,-4.5933204,-3.6412094,33736.883
1690890327.464826,0.788491,-1.8978162,1.2215475,31021.707
1690890327.4902024,0.7400212,-2.9548905,-1.3816389,33772.984
1690890327.5133224,-0.25710574,-2.5873396,2.5605023,34170.207
1690890327.5422843,-3.5472023,-5.521447,-2.685677,30164.023
1690890327.574882,-3.69046,-1.6108426,3.199548,28683.441
1690890327.5978172,-2.6491787,-3.1490808,-2.5968618,36814.562
1690890327.6202803,-1.9826331,-3.607227,1.5709751,34164.195
1690890327.6440675,-3.2912698,-0.7102624,1.425785,29001.936
1690890327.6680603,0.31846452,0.5021622,3.9407287,29009.775
1690890327.6911352,-0.6697183,-3.634644,1.5331525,32436.29
1690890327.7137752,0.78789276,-5.067761,-2.2236698,36050.707
1690890327.7395504,-3.4693584,-3.359071,4.281837,35707.324
1690890327.763008,-2.5360394,-3.9158099,3.3010798,34802.297
1690890327.7858415,-3.1488109,0.5375815,1.9998267,29772.703
1690890327.8094552,0.030428661,-0.105440155,-4.4235168,36432.2
1690890327.8319502,-0.24359363,-2.1489234,3.7881255,36047.85
1690890327.855419,-0.4628684,-3.0630343,3.1350563,29384.94
1690890327.8783278,-2.237989,-4.208493,2.0267446,29065.559
1690890327.9012797,0.23207603,-4.8376,-3.1239338,35668.168
1690890327.9250202,-1.1790835,-3.5039368,1.6863552,32690.97
1690890327.947761,-0.9105162,-4.7089763,-3.681743,32486.486
1690890327.971355,0.34913802,-4.614097,3.2953587,30872.242
1690890327.9946735,-1.2441293,-0.22572632,-4.083288,31970.24
1690890328.0216825,0.43961862,-0.36382923,-1.5595357,32618.31
1690890328.0444446,-3.313788,-1.2127619,3.5731294,30095.305
1690890328.0692327,-1.5038577,-0.5286883,1.4709128,33711.598
1690890328.0917196,0.63422066,-1.198313,-4.052667,29747.514
1690890328.114117,-3.185641,0.5099584,-4.659334,31794.203
1690890328.1377938,0.54093295,-1.348113,1.1146023,32040.28
1690890328.16042,-2.6465187,-3.5421176,-0.035464663,33682.562
1690890328.182854,-0.48556587,-4.587502,-1.7559292,30775.633
1690890328.205605,-3.0462677,-2.5097601,-2.4805262,27376.42
1690890328.2282963,0.27105236,-1.531227,1.2859889,29222.566
1690890328.2515428,-3.1098185,-5.066668,2.4778385,33613.41
1690890328.2741265,-2.1133451,-1.980227,-0.53131175,34773.082
1690890328.2974417,-0.057395253,0.2607756,-1.8886616,29864.8
1690890328.3215523,-3.2436616,-0.98188436,-4.4006815,36549.0
1690890328.3453667,0.22253108,-0.28383386,1.4202139,33267.348
1690890328.368964,-1.5958561,-5.291099,1.3746098,29192.527
1690890328.3921058,-0.01660471,0.1712648,-4.1923394,31462.168
1690890328.4154303,-1.5897774,-0.22540611,-3.5471745,28357.99
1690890328.439285,-0.20465058,0.020580217,4.1295185,36662.176
1690890328.4629228,0.608343,-3.33589,2.800439,35328.055
1690890328.4867535,-1.4020563,-5.1165533,-1.4051731,31087.596
1690890328.5099177,-2.5759432,-3.4003522,-0.7049476,36089.45
1690890328.5330422,-2.2947161,-1.3761228,2.8645515,30565.375
1690890328.5568607,-1.8640252,-2.2358122,1.8836843,32886.812
1690890328.579442,-1.9856759,0.15154456,2.2503679,30113.94
1690890328.6053445,-3.041947,-4.357599,-0.44412306,36320.027
1690890328.627774,-0.72675633,-3.8101153,-0.058075916,29407.682
1690890328.6517377,0.47090515,-1.758942,-1.4928514,35182.867
1690890328.674385,-2.6829004,-4.812393,-4.499586,33145.137
1690890328.6972828,0.820588,-1.9930393,3.7802503,29207.293
1690890328.7205086,-3.3784716,0.12081473,4.2036605,34041.867
1690890328.743757,-1.1271025,-5.0601435,0.71382177,31571.146
1690890328.7662485,-0.005375553,-3.9471178,3.0494192,33857.844
1690890328.7894785,-2.0442796,-1.0353947,4.3799047,28650.227
1690890328.8120244,-0.178433,-2.7015078,-4.264792,31943.475
1690890328.8343196,-2.983716,0.2989554,-3.6292932,32009.938
1690890328.8578382,-1.672423,-5.1631093,0.91752034,32876.664
1690890328.8814547,-0.63449013,-3.5673764,-3.3412478,34202.61
1690890328.9041958,-1.0784979,-0.9012394,-2.9407945,32026.924
1690890328.9265766,0.80525666,-1.0093462,1.2357146,29279.96
1690890328.9487076,-3.7137122,-3.0071607,3.9861157,35514.793
1690890328.972536,-1.3427022,-4.697262,0.50426584,35005.5
1690890328.9952722,-2.553864,-3.6964333,-1.755606,35579.27
1690890329.0174694,-2.1613507,-0.08359006,-0.4554208,34054.082
1690890329.0404642,-0.53111166,-5.4617515,-3.7506266,33075.664
1690890329.0632067,0.9305993,-0.22407137,-2.3726153,36038.547
1690890329.0855706,-1.6288997,-2.786,3.6031861,35600.316
1690890329.107884,-1.8268543,-4.2002068,2.5905607,34519.176
1690890329.1301866,-2.3011682,-2.6617854,3.6168516,36471.844
1690890329.1526697,-0.31093588,-1.4704441,0.4195471,30999.605
1690890329.1751766,-3.3723502,-5.0210037,3.198688,34104.668
1690890329.1974812,-2.1056533,-0.61769414,-0.10009772,28713.04
1690890329.2228966,0.1906157,0.3078195,3.958019,33443.586
1690890329.2460327,-2.8687162,-2.4254596,-3.5799026,31885.758
1690890329.2690737,-1.9899081,-3.351828,3.872385,28072.328
1690890329.2924361,-1.8327025,0.34725827,-0.50191844,34195.402
1690890329.3147264,-2.576377,0.05763894,4.305832,35071.332
1690890329.339083,0.6855097,-1.5527143,-1.487934,36405.137
1690890329.361955,-2.9074986,-1.3326643,-4.3112445,35805.95
1690890329.3846583,-2.7061253,-3.8241098,-4.2706146,29050.46
1690890329.407072,-1.2613467,-0.24755327,-0.2811745,31873.158
1690890329.4313002,-1.4813285,-3.1113298,4.331979,29161.543
1690890329.4553707,-0.0965555,-3.8918824,-2.414809,35987.688
1690890329.478256,0.11802457,0.34485635,-4.1587553,31405.184
1690890329.500744,-3.1009169,-2.3736122,-0.38067627,27403.715
1690890329.5232973,0.032109592,-0.1033633,1.7354325,28522.084
1690890329.546005,-0.3466908,-2.0508797,4.049364,28248.152
1690890329.568205,-0.9313887,-5.345675,-0.011421445,33952.754
1690890329.5914378,-1.3801035,-4.889628,3.2175925,31843.014
1690890329.6150422,-2.7062554,-1.785315,1.8500844,31436.207
1690890329.638795,-3.694132,-1.5790592,2.9411669,36053.332
1690890329.6617439,-3.549815,-3.5696645,2.8087847,34333.77
1690890329.6842158,-2.1998868,-3.3976736,2.7439523,33932.36
1690890329.707425,-2.094436,-3.2356513,3.89241,27758.568
1690890329.7356884,0.063569956,-5.440829,-2.9728887,33980.84
1690890329.7583935,-3.556248,-3.710741,4.287912,36302.348
1690890329.781637,-3.078215,-0.626893,-0.7012032,28787.975
1690890329.8061676,-0.96017694,-3.1242025,-4.4564834,29804.61
1690890329.829469,-3.51412,-0.85046625,-4.5033674,36460.875
1690890329.853235,-3.188196,-2.9550333,3.8817995,32563.957
1690890329.8775256,0.7198266,-4.3277235,3.0979617,36116.688
1690890329.9001338,0.47091413,-2.6589458,-3.521267,34127.3
1690890329.9233923,-0.20453751,-2.1552048,0.05214748,34221.332
1690890329.9472034,-1.8890743,-1.986688,-0.60085,29747.852
1690890329.9701414,-0.36052328,-0.35443354,1.7253207,27451.566
1690890329.992591,-2.803759,-4.216903,1.6404161,33156.35
1690890330.0150135,0.13611443,-3.6111567,1.0722255,29412.871
1690890330.0374513,0.31139046,0.033416234,3.9032345,33002.2
1690890330.0602796,-3.1980727,-4.5063457,1.2792808,33736.66
1690890330.082965,0.76011413,-2.9120173,-2.7059987,29824.63
1690890330.1061344,-1.0859492,0.49422354,2.7251728,29784.777
1690890330.1304038,-0.6164105,-2.4973521,1.542632,30288.912
1690890330.152915,-1.0523546,-0.80586255,3.1279798,31770.51
1690890330.175365,0.32453793,-5.488941,0.2329164,27497.697
1690890330.1976311,-3.483622,-4.798756,-3.244189,33196.73
1690890330.2208052,-1.7897078,-2.590252,2.7218084,27841.672
1690890330.2435713,-0.320636,-1.709793,-4.032311,28977.865
1690890330.2666063,-0.06520153,-2.544248,-3.763184,33132.598
1690890330.289578,-0.064441994,-2.16781,-1.498601,36314.516
1690890330.312363,-3.3882284,-5.4710836,1.3754493,35182.35
1690890330.3360217,-3.2708774,-0.59503293,-4.0382323,35290.11
1690890330.3597922,0.653212,-0.31739253,3.6984043,32134.475
1690890330.3825974,-3.746494,-1.1402912,-0.6621153,28676.02
1690890330.4054542,-3.3186069,-2.0133595,2.1018028,29637.787
1690890330.4276526,-1.3183701,0.47864786,4.038901,33466.848
1690890330.4498572,-0.19683577,-4.653017,0.6808876,33477.84
1690890330.4726772,0.030938432,-5.1456017,-1.3522117,32669.41
1690890330.4949028,0.94053864,-1.4333168,-1.0765353,31743.705
1690890330.5176313,-2.3661375,-4.0542727,-2.5137064,33889.47
1690890330.5403042,-2.6607804,-5.330479,-1.3170333,32218.47
1690890330.5627437,-3.6409254,-1.7143682,1.0889972,31747.059
1690890330.5856264,-2.9384747,-1.7286788,-3.1342413,34094.223
1690890330.610096,-1.5522231,-4.6070533,4.273396,31168.352
1690890330.6329858,0.027201494,-0.78423357,3.8784637,36473.918
1690890330.6565545,-2.2512686,-4.1159225,3.1340008,28437.164
1690890330.6795115,0.44288957,-3.9073298,4.217021,28454.715
1690890330.7019963,0.6859872,-0.62928087,4.073073,30027.957
1690890330.725028,-1.0134243,-5.4053483,2.70679,32362.232
1690890330.7475543,-0.42154774,-4.8167815,2.2083867,29691.191
1690890330.769633,-3.795127,-0.36035585,-0.029831605,31322.404
1690890330.793063,0.51643836,-1.5790783,-3.1292233,31351.867
1690890330.815934,-3.392101,-0.7790924,3.7910213,29587.588
1690890330.8397915,-3.4311533,0.22508839,4.195206,31824.809
1690890330.8624723,-1.7972614,-4.459635,-2.8232002,31242.658
1690890330.885685,-3.5300868,-2.9056282,-0.43671942,31744.646
1690890330.9085882,-3.7110848,-3.4982867,-0.91713965,32525.604
1690890330.9308734,-2.7932324,-1.8033608,-0.7679908,30568.656
1690890330.9550014,-2.2840114,-0.79125696,-4.1527157,30474.0
1690890330.977922,-1.8120147,-2.6840036,4.4739046,32905.582
1690890331.0004282,0.6488384,-2.2211018,0.12818594,29345.818
1690890331.02338,-2.546253,-1.5233672,-3.7790027,34565.54
1690890331.0457354,-0.223889,-2.8559263,2.3621707,28924.084
1690890331.0701063,0.07191658,-5.252734,-4.470608,35994.992
1690890331.0928133,-3.107031,-0.6085769,-1.3777338,29492.246
1690890331.1156292,0.10628593,-2.7795238,-3.9524503,35486.684
1690890331.1386628,-1.0691829,-4.6583667,2.3315473,35137.062
1690890331.1612449,-1.309375,-0.5366938,4.526362,36477.875
1690890331.1840496,-0.06603645,0.32522607,1.634507,29356.588
1690890331.2067416,-2.1280193,-4.1780744,4.144216,35341.17
1690890331.2297285,0.8802146,-3.56483,-1.8823125,27830.426
1690890331.251981,-3.0930352,-3.6341116,-3.1431422,30282.824
1690890331.2745728,-0.24400264,-3.859551,-3.3536272,30980.383
1690890331.2977214,-2.7104383,-4.7796764,3.6282067,27830.582
1690890331.3208702,-3.5889342,-4.50044,1.1187253,29043.096
1690890331.343933,-2.4411097,-3.6731918,-2.635164,28015.373
1690890331.366209,-2.5649655,-5.506478,3.078237,34828.633
1690890331.388995,-0.6472113,-2.478214,1.5843806,28890.314
1690890331.4119601,-2.5960004,-2.0453439,-2.2320402,31823.332
1690890331.4347541,-1.1784467,0.4346924,1.8780823,28445.117
1690890331.4577787,0.281517,-4.67485,-2.9487705,29255.385
1690890331.4801812,-3.204029,-2.5146813,0.79889524,35914.492
1690890331.5035734,0.76195765,-5.282143,-2.6180513,29347.107
1690890331.5262876,0.29208976,-3.702138,4.114931,34982.953
1690890331.5489314,-0.60155356,-2.582763,3.4202342,30972.463
1690890331.5713005,-2.9041526,-3.7417142,4.364897,34462.59
1690890331.5951028,-0.8926469,-4.6719785,-2.7510648,35731.848
1690890331.6182475,0.31317052,-5.4568505,1.2748972,32532.361
1690890331.6412606,-3.5040183,-2.1613889,2.0028625,33504.68
1690890331.6651707,-3.451655,-3.611874,-0.47601384,36244.34
1690890331.687784,0.06045999,-2.878705,0.8398073,27611.402
1690890331.7113528,-2.7407928,-0.22362296,1.1381377,32329.055
1690890331.734712,-2.1298146,-1.9135802,4.3531575,32361.023
1690890331.757111,-1.8434314,-0.054729976,0.6724814,35788.527
1690890331.7797434,-3.6561108,-1.339268,-2.227627,35846.324
1690890331.8021135,-0.5832452,-5.2788095,3.1583238,35297.95
1690890331.8245413,-0.39295724,0.43416154,0.15188333,35874.08
1690890331.846673,0.20007731,-0.20443118,3.2009258,32550.014
1690890331.8698235,-3.427192,0.02044885,3.7064643,32652.455
1690890331.8928888,0.5010662,-0.60142547,-1.6164912,32320.428
1690890331.9174597,-1.84456,-3.2677965,4.45445,31658.02
1690890331.9404395,-0.71647453,-4.0199146,2.8005176,31544.88
1690890331.9632988,-0.72771424,0.18990798,-0.8213158,29997.0
1690890331.985509,-3.2438006,-2.4990819,-3.1661189,28368.254
1690890332.0081794,0.017225,-3.7153256,-3.9731233,33122.035
1690890332.0311427,-2.9556234,-1.4354258,-2.1295438,33868.46
1690890332.0570698,0.365633,-3.3076785,-0.5985588,36083.902
1690890332.0799165,-0.7963646,-2.9919343,-0.6259337,33722.973
1690890332.1028848,-3.5285695,0.5101429,3.1704621,35724.82
1690890332.1257827,-2.9119844,-1.9538829,-4.107437,34282.062
1690890332.1491954,0.61029065,-4.601967,-1.8109446,29512.049
1690890332.172014,0.87705296,0.09653269,1.5163807,36610.17
1690890332.194273,-3.1919112,0.0079753995,-1.6413437,34692.484
1690890332.2164578,-3.1929133,-0.54396707,1.7197318,33544.15
1690890332.239094,0.9340705,0.1446788,1.8956041,31431.205
1690890332.2616184,-1.3248079,-0.75917375,-1.6457762,33446.934
1690890332.2840252,0.47340295,-2.1138663,-4.0421705,28744.727
1690890332.3066745,-1.8644509,-2.2229295,-2.7829967,30516.691
1690890332.3297534,0.7868728,-4.6982875,2.2076664,31113.629
1690890332.3540337,0.77395517,-3.680692,-1.5793844,34147.336
1690890332.3764431,0.46713153,-3.5294259,-4.13985,36113.23
1690890332.3988736,0.5652424,-5.099596,4.2380815,32007.35
1690890332.421851,-1.5991218,-3.9666386,-2.085948,31752.146
1690890332.4443245,-1.8433971,-3.9607499,-2.4467356,34422.082
1690890332.466471,-1.0112662,0.5650417,-1.6669514,34681.77
1690890332.488868,-0.57108635,-0.35830176,-2.703206,29220.75
1690890332.5115185,-3.4837158,0.24840702,2.7866824,33673.562
1690890332.5338042,-3.0677302,-3.1639574,-0.8545208,34554.67
1690890332.5562668,-0.16709732,-1.6702843,-0.97606623,36441.805
1690890332.5785227,-2.4916022,-4.591253,3.407369,27783.377
1690890332.6032202,0.67612743,-4.72856,4.1162906,28463.36
1690890332.6255639,0.7149052,-2.8305974,2.0377314,33809.066
1690890332.648491,0.1704687,-4.7496557,-2.6680577,33740.7
1690890332.6713276,-3.2552426,0.49954593,-0.06397802,32607.748
1690890332.6939957,-3.2906802,-1.6143438,-3.9693336,30378.598
1690890332.7167337,-0.8388888,-0.76793647,2.741464,27372.227
1690890332.7394757,-3.0675824,-2.2296636,3.208965,36277.586
1690890332.7620683,-1.7619654,-2.6372511,-2.6573472,33920.332
1690890332.7848525,-1.837163,-1.2829295,2.9685333,34976.402
1690890332.8076408,0.2134121,-2.505431,0.009012868,28827.264
1690890332.8310363,0.34158507,0.41436702,-0.25652248,31977.152
1690890332.8550818,-2.5955079,-2.3122287,1.8256483,33231.277
1690890332.8775513,0.3964758,-0.9319525,-0.007530105,27528.92
1690890332.9009178,0.8703493,-2.2024086,3.7395782,32933.906
1690890332.9241788,-2.6857624,-1.1498556,2.8652809,31041.656
1690890332.9478045,-0.13468881,-4.926027,3.1984189,36462.47
1690890332.9715474,0.2435605,-4.306321,1.1173115,31430.678
1690890332.9944465,0.6944992,-3.678373,1.3113853,30571.764
1690890333.0177348,0.25067806,-1.3514198,-0.6588128,32629.744
1690890333.0422146,0.81018937,-2.9627142,2.4270318,31216.89
1690890333.064795,-0.6212029,-3.930444,1.0417231,29029.156
1690890333.0885468,-1.4762197,-3.610774,-2.134207,31948.287
1690890333.1109138,0.85147333,-4.772186,0.040814277,29358.074
1690890333.1337204,-0.9562292,-1.5383571,2.5501413,34383.504
1690890333.1576364,-3.2324753,-1.8471718,3.346498,29645.865
1690890333.1806426,0.92241293,-1.6264346,0.97237444,35880.87
1690890333.2035098,-2.2338035,-2.6989634,3.5277882,34530.15
1690890333.2260668,-1.629231,-2.4509037,-3.8647842,29761.2
1690890333.248373,-0.0049689035,-3.7239482,-2.219101,27812.24
1690890333.2722437,-2.029726,0.05887554,-3.833815,30831.97
1690890333.2962768,-3.4978898,-0.11072485,1.2282373,33404.34
1690890333.3195918,0.85648227,-5.189363,2.4352386,35156.035
1690890333.3431702,-1.036727,-0.8964684,-3.3464773,34251.57
1690890333.3656163,0.34794554,-0.87965024,-3.4080634,27616.104
1690890333.3889804,-2.3045926,-1.7255212,0.68859947,29353.764
1690890333.4118986,-0.66615605,-3.7720923,2.1907895,32626.432
1690890333.43438,0.74546325,-0.44874445,-0.36844674,35418.34
1690890333.4575512,-0.93929434,-3.8948991,-4.170274,33476.047
1690890333.4803834,-0.011533754,-1.9172345,-2.297556,32792.887
1690890333.5029938,-2.216579,0.24129795,-1.2603861,33856.004
1690890333.5252907,-2.1075525,0.18342812,1.0219893,36235.83
1690890333.5484436,-0.31895962,-1.6034279,-0.12568152,29635.023
1690890333.571177,-2.189634,0.3033519,-2.5755548,29137.393
1690890333.5949905,-0.071728975,0.23481621,-1.0137496,35810.344
1690890333.617634,0.478839,-1.8737677,3.3443534,29647.525
1690890333.640378,0.40666166,-0.4870963,2.0419457,32200.494
1690890333.663631,-2.2024765,-4.150586,0.59749854,31752.455
1690890333.6863034,-0.9990059,-1.7327901,-3.8884928,28844.568
1690890333.7091103,0.08456126,-4.512851,-0.32580116,28444.922
1690890333.732883,-1.5418043,-5.200495,-0.6716526,27612.41
1690890333.7554553,-2.3162506,0.62552094,-2.5613241,34117.94
1690890333.7779367,0.6478399,-1.778452,3.336299,36002.637
1690890333.80074,-1.9040599,-5.517846,-2.7523623,33696.7
1690890333.8251545,-3.2017362,-2.9520514,-1.6898171,35147.586
1690890333.8482826,0.81732583,-1.9517138,-0.7603688,36480.902
1690890333.872081,-2.7535915,-1.9164771,-0.51753813,31441.21
1690890333.8951495,0.33277676,-1.5589207,1.4557227,28460.146
1690890333.9190714,-0.93022156,-2.191096,-1.1991926,32701.967
1690890333.9426222,-2.5267522,-4.7328134,1.2466198,31416.33
1690890333.9648886,0.109271154,0.043087702,-1.8114685,30693.568
1690890333.9885497,0.10293459,0.49426386,3.405675,36296.844
1690890334.0113583,-0.19305588,-3.9344091,2.0271869,34987.676
1690890334.0352495,-2.3734682,-2.2149131,3.9963899,27824.582
1690890334.0583735,-0.38511476,-1.6257956,-3.7030163,32536.148
1690890334.0825157,-1.621282,-2.3418396,-3.110431,30130.102
1690890334.106294,-3.194503,-4.0502467,-1.2843951,29326.596
1690890334.1291866,0.7715588,-1.4724165,4.256654,34438.984
1690890334.1519475,-0.7773201,-2.6093948,1.5204806,28942.916
1690890334.1745167,-0.64277244,0.14288539,-1.4883338,30546.34
1690890334.1970334,-1.203178,-0.85183066,-3.0166519,28551.406
1690890334.2196646,-2.4910333,-0.92061955,-2.8971918,31238.777
1690890334.2420807,-2.4370108,-1.2372586,-1.6953119,28455.166
1690890334.2653782,-1.441611,-2.267973,-3.5072558,27525.7
1690890334.288331,-1.7758814,-3.7028325,3.1629539,34311.82
1690890334.3108537,0.8230436,-1.5515968,-0.93650806,36287.38
1690890334.3334732,-3.1479495,0.59090877,-1.3361447,31826.58
1690890334.3567712,-2.5401523,-5.183918,-4.5365953,31147.543
1690890334.3790889,-1.6093074,-3.6217816,-2.1930757,31911.79
1690890334.4013517,-1.0618812,-2.9943964,3.074826,27983.02
1690890334.423755,0.50772166,0.635145,-0.9821935,29652.414
1690890334.4463584,-2.5889697,0.59529406,-0.451103,36517.152
1690890334.468895,-1.4588536,0.27298725,3.6745548,30423.102
1690890334.4916348,0.35536322,-2.5639627,-2.053161,30084.68
1690890334.5141695,0.2767032,-1.6142441,-3.661179,27699.633
1690890334.5384488,-3.7428927,-4.6478386,1.8821629,30849.068
1690890334.561272,-3.6558664,-3.1780667,-2.8795655,34760.164
1690890334.584842,-2.2939837,-4.464746,0.75116295,29765.256
1690890334.6090014,0.5455664,-4.8587313,-4.017681,31273.504
1690890334.6322124,-0.1317922,-4.9537487,-2.161465,27325.26
1690890334.6564972,-1.7447714,-3.8310301,-1.1322696,33981.227
1690890334.6799612,-0.06591498,-4.0020533,-3.0604117,30290.451
1690890334.7042007,-0.49804202,-5.339869,-1.1881173,32254.635
1690890334.727971,0.0025688335,0.24964213,4.2366333,33642.1
1690890334.7513003,-0.7363984,-0.79722875,-1.674905,28684.219
1690890334.7748735,-3.007319,-4.3742537,-3.0486493,28952.139
1690890334.798016,-1.6813087,-3.864537,-2.859252,28371.16
1690890334.8222282,-0.09163246,-2.6126013,2.2918534,34677.7
1690890334.845397,-3.6737819,-2.6069539,4.316726,30731.586
1690890334.8694708,-2.4109633,-3.3751628,0.8666508,27841.312
1690890334.8928196,-3.4308233,-0.25179133,3.9598572,30257.768
1690890334.9163575,0.30090335,-0.5316179,0.16172284,31575.783
1690890334.9390693,-3.044692,-2.407137,4.327392,35841.41
1690890334.961663,-0.039706215,0.051843897,-1.8150225,29224.785
1690890334.9844654,-3.2846034,-4.6741304,-4.339698,27724.512
1690890335.0071201,-2.2597473,-2.9068956,3.5609088,35845.55
1690890335.0299864,-3.4560037,-0.7185726,2.0332143,32036.506
1690890335.05268,-0.60060585,-0.3075647,2.5204947,29146.176
1690890335.0753162,-2.5313988,0.045987274,2.856957,36026.82
1690890335.0982313,-0.48995012,-1.4039547,-2.587274,33293.066
1690890335.1211927,-3.6810648,-0.1209201,-0.8195787,36115.22
1690890335.1452622,0.16824088,-0.08884173,-3.3948014,31843.355
1690890335.167959,-0.9281538,-4.9483995,-3.2646167,28225.74
1690890335.1903656,-1.514326,-3.1887705,2.6111066,29180.135
1690890335.2129102,-1.2281821,-4.3473682,-1.2952294,36731.69
1690890335.2362773,-3.7274668,0.56469035,-2.493445,35854.46
1690890335.2593668,-2.0367465,-4.7523847,0.6494602,36352.023
1690890335.282455,0.5317286,-2.3787398,2.374776,33577.727
1690890335.3062787,-2.0270884,-2.5675414,-1.966041,28443.367
1690890335.3293748,0.40330762,-0.2485527,-2.967832,32803.137
1690890335.352972,0.22928439,0.52852786,3.2180471,36831.156
1690890335.376153,-3.2742977,-0.9194282,2.8458688,34665.508
1690890335.3986664,-0.7808292,-2.4751923,-2.1816397,36167.18
1690890335.42116,-3.1655746,-0.51008856,2.1883848,32230.924
1690890335.4434896,-1.2183359,-5.4113593,-0.4537909,33052.375
1690890335.4657767,-1.7730575,-0.35218763,0.7035141,28906.887
1690890335.4885168,0.58990043,-0.26966107,1.5554632,30826.4
1690890335.511089,-3.6978772,-4.942013,3.6674485,34788.56
1690890335.5332937,-2.4309719,-4.8583055,0.11547082,33220.098
1690890335.5574872,-1.8400027,0.1961533,0.96752024,33835.97
1690890335.5811694,-0.6537232,-3.493466,4.0559807,27386.586
1690890335.605557,-2.02013,0.3534241,2.6580691,36371.285
1690890335.62808,-0.10905681,0.40225708,2.9905417,29366.21
1690890335.6505303,-3.4893684,-1.6084732,-1.9135984,29521.06
1690890335.6739514,-1.828769,-0.34360236,-1.904669,33750.617
1690890335.6963303,-1.3079814,-5.2981296,0.81858796,30460.227
1690890335.7195864,-1.2630683,-3.1297276,-1.4183749,31269.938
1690890335.7426505,-2.4135883,-1.797632,-0.17565857,31637.08
1690890335.7661872,-0.21819277,-1.5342603,0.96759385,34076.863
1690890335.7888582,-2.4817915,-1.6986624,-1.9568439,28143.115
1690890335.8117204,-2.9165378,-4.6880774,-2.7790787,35223.28
1690890335.83441,0.2843344,-4.574381,-4.0829487,28263.348
1690890335.8584454,-1.9312869,-4.5389843,-2.2111235,36685.79
1690890335.882422,-1.5299274,-2.1261947,-4.5315895,30096.555
1690890335.9056368,0.79019284,-3.0010035,0.17216638,36826.277
1690890335.9287102,-3.3746245,-4.7225194,-2.6412551,36652.35
1690890335.9512496,-0.7317967,-0.691168,3.0975833,30619.627
1690890335.9735677,-3.6319084,-0.5411229,-2.3527963,31451.81
1690890335.9964175,-1.4323992,-0.2611605,2.0648773,31820.203
1690890336.018495,-2.2345154,-5.4242015,-3.3842971,27418.514
1690890336.041406,0.7926413,0.009441328,-2.4060457,35201.258
1690890336.063738,-0.11700006,0.50566006,-3.495875,31902.86
1690890336.0873575,-0.60229456,0.6117294,-4.280553,29799.6
1690890336.1099591,-2.2378674,-0.5380858,4.144281,29075.637
1690890336.133233,-0.2790574,-5.0232515,1.0194981,33063.844
1690890336.15927,-0.6871045,0.41951102,4.121722,36204.992
1690890336.1831703,-2.2632163,0.52481997,-2.6175842,36335.074
1690890336.2063453,-2.90116,0.12670998,4.08389,33484.94
1690890336.2348795,-3.336062,-1.4278005,2.0579174,34602.95
1690890336.2586603,-1.4755523,-2.8461318,3.4719164,28376.256
1690890336.283039,0.94323814,-0.7826885,-3.0457368,28545.78
1690890336.3057928,-0.26035878,-0.75413257,-0.6058947,35494.957
1690890336.328508,-2.5604572,-1.8920803,-4.250491,32442.064
1690890336.3508723,-0.39925882,-1.6826017,-0.36000168,32049.219
1690890336.373158,-2.1270483,0.48808515,3.093484,35358.62
1690890336.3961234,-2.767693,-3.8089845,1.6959404,34441.816
1690890336.4186888,0.49735445,0.2840931,0.046096113,33066.46
1690890336.441076,0.77688974,-0.39042416,3.6594448,29012.78
1690890336.4633317,-2.5043814,-0.029536761,4.31288,30945.898
1690890336.4861228,0.5446286,-4.9773464,3.0314975,30238.406
1690890336.510115,-2.0535069,-1.523705,0.31080952,33672.168
1690890336.533086,-2.0344973,-3.5698755,-1.6832414,29832.98
1690890336.5568013,-0.74313575,-2.2615664,1.5486624,34554.69
1690890336.5802584,-3.3177435,-1.1875411,-2.9432638,31443.492
1690890336.6026208,-2.5405455,-2.6222153,4.2746816,33688.848
1690890336.6254282,-2.754438,-2.2444768,-3.6497886,29308.146
1690890336.6490798,0.76363814,-3.9258604,0.23380698,31807.98
1690890336.6726902,-1.7111393,-3.010055,0.7496127,33154.973
1690890336.695057,-2.7616184,-3.0521638,1.5487362,35870.246
1690890336.7181978,-3.023638,-2.6994503,3.283313,35249.098
1690890336.7411458,0.424607,-1.8899066,3.208373,34779.25
1690890336.7636628,0.8766136,-3.1741447,3.8380024,27536.02
1690890336.7881365,-0.7360632,-5.330175,-3.5847335,32735.75
1690890336.8106308,-0.8406357,-4.215258,-3.289692,29100.695
1690890336.8330057,-3.1882164,-2.3639734,-0.51556313,27272.908
1690890336.8559866,-3.706366,-3.0828013,-0.88819796,34902.105
1690890336.879437,-2.814956,-0.98413736,-4.045214,28677.523
1690890336.9024382,-1.227859,-0.78796685,4.440347,30281.377
1690890336.9252896,-1.4439697,-3.5560472,0.5064721,29244.387
1690890336.948725,0.5378203,-2.033116,-3.9019263,29945.21
1690890336.9716902,-1.3044122,-4.3081713,-2.2630355,35433.637
1690890336.9939423,-3.6702635,-3.1760201,-1.2113378,27484.389
1690890337.0176492,0.19521515,-1.5315245,-3.1082914,32670.914
1690890337.0403507,-3.0675302,-3.3841302,-0.15532176,35397.27
1690890337.0626278,-0.49512926,-2.7480192,2.992658,34550.92
1690890337.0847309,-0.4560052,-5.0288877,-1.4480178,28664.03
1690890337.1085207,0.123053715,-5.217491,-1.2627635,33625.16
1690890337.1311405,-0.18675432,-1.016928,-4.1381397,31500.518
1690890337.1538725,-1.3884164,-0.6738618,-0.5221709,28260.924
1690890337.1779428,-0.2296404,0.15784249,-2.3602684,30672.004
1690890337.200317,0.4628251,-1.1216803,3.2488737,32789.168
1690890337.2226985,0.399688,-1.8785747,1.1410831,29314.62
1690890337.2463274,-3.317584,-2.4049368,2.8797224,28006.307
1690890337.2691803,-0.7824158,-4.3071566,2.3991108,28549.691
1690890337.291907,-3.0397198,-1.4532079,-0.6798941,33480.26
1690890337.31424,-3.616554,-0.6067624,-2.2521691,33320.906
1690890337.338798,0.059830315,-0.6319256,1.631029,34638.445
1690890337.3611765,-0.64019763,-4.8882813,-3.6482267,31901.896
1690890337.384254,-1.7871412,-2.237528,-0.56428987,29279.803
1690890337.4070754,-2.6500578,0.61650574,-1.8040298,30799.734
1690890337.4296947,-0.49622786,-1.4378512,-3.41507,34384.625
1690890337.4522152,0.6806016,-5.4059634,1.2937552,30121.197
1690890337.4752483,-0.98736495,-5.2197666,-3.7643936,28667.873
1690890337.4984922,-3.732689,-1.686875,0.44478315,30459.156
1690890337.5218985,-3.6454892,-0.010736643,2.3484666,31052.95
1690890337.5449605,0.46052727,0.0826101,-0.31304172,36105.297
1690890337.56782,-2.762387,-0.14594743,0.15832432,36306.715
1690890337.5906818,-3.7694738,-5.0001974,1.50799,31375.244
1690890337.613882,-2.106802,-0.35349047,-2.451506,30515.842
1690890337.6365225,-2.1480932,-4.165193,-2.0795574,29155.275
1690890337.6591127,-3.52941,-5.220977,3.4069352,33437.742
1690890337.6831048,-2.9248524,-1.8216007,-2.6833165,30980.318
1690890337.7060945,-3.503279,-3.2787688,-2.0109327,28540.352
1690890337.7288275,-3.2389576,-3.3938985,1.1398273,31659.098
1690890337.7517786,0.35934553,-4.3717275,0.7292251,35519.37
1690890337.775285,-1.3434727,-1.9895734,-0.7380952,31553.02
1690890337.79837,-1.2762227,-0.5833609,-1.6348428,28870.746
1690890337.8220367,-3.2260256,-0.8920768,1.2199663,33173.46
1690890337.8458002,-3.4295788,-3.4849443,-1.9869233,32599.645
1690890337.8687072,-0.30338177,-2.417174,3.0164244,34083.04
1690890337.893502,-1.4024839,-3.9108205,-3.476666,27678.72
1690890337.916099,-0.6217507,-2.3268359,-3.384284,31602.367
1690890337.9390512,-2.1790242,-5.1167097,1.240977,31082.488
1690890337.9614131,-1.3072622,-3.8451598,-3.4276822,27525.254
1690890337.984535,-0.70365345,-4.5892015,-2.2214446,36750.668
1690890338.0078351,-3.2082925,-2.3731122,-0.019236501,36292.77
1690890338.03156,0.6693396,-2.6441805,3.898582,35955.168
1690890338.0552995,-3.1255744,-1.5563561,-0.9605696,35557.145
1690890338.078828,-1.2680205,-3.5395808,-1.3900695,31049.754
1690890338.1016905,0.7533057,-4.732846,1.3877673,29724.787
1690890338.1253111,-3.5426207,-1.0228776,1.9474487,28483.766
1690890338.1487699,-1.0470467,-4.135281,3.4570365,31987.889
1690890338.1717103,-3.4724236,-1.0745696,2.804304,34570.875
1690890338.1947525,0.30240336,-3.1164508,-1.7073458,35923.695
1690890338.2171562,-2.0918632,-0.8903624,1.0891268,32224.055
1690890338.2395265,-1.5210279,-1.791233,0.8023354,36476.35
1690890338.2616618,0.67717415,-5.0319166,-2.1757402,31541.762
1690890338.2840548,-0.6910457,-0.67295027,3.3408465,28651.469
1690890338.3066933,0.275253,-3.8132584,-0.37730297,35322.78
1690890338.329153,-0.1566035,-1.4363279,0.4118236,35869.902
1690890338.3521812,-1.7631078,-5.2429385,-2.882283,28881.133
1690890338.3745687,-3.1688056,-5.559729,0.5368319,30581.61
1690890338.4019163,-1.8328116,-4.766472,-1.7677689,34368.227
1690890338.4252272,0.79915166,-3.1807234,3.3386433,30219.271
1690890338.4499366,-3.6953144,-5.2680426,3.1610858,36187.45
1690890338.4736807,-3.3476655,-4.2445927,3.5096824,34581.016
1690890338.4964945,0.8776835,-2.5886562,0.5902331,35177.375
1690890338.5214107,-1.5239005,-1.7256849,-0.43336183,35484.906
1690890338.5444217,-1.2545477,-2.539386,-1.4090283,36676.26
1690890338.5675561,-1.5367342,-0.55291414,-3.7117975,28674.51
1690890338.5904405,-3.300926,-4.9860106,1.5880044,32319.402
1690890338.6128845,-3.033311,-4.995342,0.25576064,35839.02
1690890338.6357846,0.3203201,-5.299896,2.9803495,31834.846
1690890338.6595836,-0.7345414,-4.3152313,-2.6726189,27278.35
1690890338.6822276,-3.4299948,-5.1491485,2.380973,34183.555
1690890338.7052293,-0.03511914,0.638504,-2.8975875,34129.57
1690890338.728014,0.61662036,-1.2251,3.292111,34813.504
1690890338.7512157,-2.4868526,-3.9896417,3.7918885,28269.871
1690890338.7744892,0.39960977,-2.0809376,2.6825218,28243.455
1690890338.7971916,-1.6523467,-0.4029062,1.6788629,31817.652
1690890338.8200278,-0.05302139,-0.8606115,-3.030619,29702.545
1690890338.8447347,-1.965816,-5.0121975,3.7190924,33839.11
1690890338.8676157,-0.6535836,0.33308062,-3.094261,28323.326
1690890338.890922,-0.9245929,-3.2515314,-3.5122995,36104.168
1690890338.9132617,-2.50572,-2.6431696,-1.5992013,32198.418
1690890338.936064,-3.594181,-4.297931,4.034253,32493.016
1690890338.9585202,-2.3024802,-1.8155113,3.6389494,31069.594
1690890338.9815283,-0.29342628,-2.6110787,-3.2953773,29009.85
1690890339.004659,-1.4734384,-2.5373032,1.4461601,34628.7
1690890339.0283022,-1.5258133,-3.794774,-2.9546845,34049.05
1690890339.0506601,-2.457504,-5.3681726,0.21831022,29483.256
1690890339.0734272,-1.9676917,-2.9553864,3.123188,33024.53
1690890339.0970109,-3.1963816,-1.2390522,0.60193264,35533.203
1690890339.1202419,-0.6607717,0.31066978,-0.77422214,29519.602
1690890339.1427846,-1.1631583,-3.2574856,-0.8728893,36842.242
1690890339.1663704,-2.9491553,-1.6300786,-3.2791445,32934.31
1690890339.1893122,-3.701322,-4.0594196,-3.0725694,35533.87
1690890339.2115216,0.48244467,-5.515112,-1.8565366,34053.92
1690890339.2341094,-0.47290513,-2.007236,-3.4412997,32704.264
1690890339.2566473,-1.8512392,0.23177949,4.4068365,28517.602
1690890339.2798083,0.2577221,-1.9026799,-0.48450565,28751.426
1690890339.3020663,0.5647856,-0.8008389,-4.0615063,28819.625
1690890339.3253253,-1.0609171,-1.4958698,-4.4570312,34215.605
1690890339.34789,-2.6635199,-4.3724923,3.147773,34741.797
1690890339.371559,0.42636302,-2.1825893,1.6098793,31688.09
1690890339.393887,0.5323253,-3.4105442,-2.2071872,33724.28
1690890339.4194105,-2.4221418,-4.599449,-1.1487503,29440.945
1690890339.4419947,0.12727283,-3.3468933,-0.40834075,33618.13
1690890339.4662354,-2.5209522,-0.12220036,1.875852,32728.465
1690890339.48931,-1.3242393,-4.446186,-0.2707604,33935.074
1690890339.5116825,-1.0277174,-3.762905,-4.1563997,35968.81
1690890339.5342796,-0.07014789,-1.3036895,-1.4942182,27217.936
1690890339.5569985,-3.6281164,-3.4304411,4.0417724,33536.703
1690890339.5797598,-3.2882504,0.4364571,0.13504778,36842.98
1690890339.6031232,-2.0210316,-0.14024046,-4.453838,36600.035
1690890339.6257222,-0.30380926,-1.2431879,3.129597,27809.805
1690890339.648114,-2.0024436,-1.1753557,2.2719202,35084.47
1690890339.6715696,-2.5350707,-3.450554,4.4186373,35911.133
1690890339.6939719,-0.58137625,0.56075794,0.8117891,33716.137
1690890339.7169013,-0.052954823,0.006052862,-3.4962451,31715.23
1690890339.7397654,0.14240761,-5.562429,-0.034677792,34677.11
1690890339.7639503,-2.5547655,-0.7087,3.3554246,31204.566
1690890339.7879713,-1.9888967,-3.9130592,0.9809979,35582.246
1690890339.8106036,-2.9040663,0.56802356,-2.253627,31839.842
1690890339.8338773,-3.357367,-5.2380247,-2.2692602,32337.93
1690890339.856391,-0.19907627,-1.0410703,-0.9782127,36574.254
1690890339.8797953,-0.7945786,-3.5187244,-1.5807029,32604.416
1690890339.9027503,-0.27008346,-0.010982395,-3.2894273,34854.254
1690890339.925652,-2.4987965,0.6250571,-2.6276147,34531.562
1690890339.949995,0.5150867,-4.27355,-1.5519083,35996.49
1690890339.9724193,0.4816557,-1.7330186,-1.112902,30001.984
1690890339.9951136,-0.6070529,-3.6047792,-3.642616,31287.322
1690890340.0176158,-3.2467885,-2.2703712,-3.9389691,35878.1
1690890340.0406547,-2.917565,-5.433585,2.9382024,29030.959
1690890340.063249,0.6067918,-3.3208852,3.0261116,36373.98
1690890340.088063,-1.1655502,-2.2622356,0.96162075,35490.633
1690890340.1115134,-2.0043921,-5.35099,2.7250266,34272.867
1690890340.1341145,-3.2291453,-2.7663136,0.88546586,35118.195
1690890340.157583,-1.3286992,-0.35236377,0.9909211,32398.3
1690890340.1797776,0.4293235,-0.49843317,-3.4332173,31054.129
1690890340.2023556,-1.7881136,-3.8312733,0.6841843,36851.395
1690890340.224784,0.9232594,-1.607132,-2.2313113,34381.527
1690890340.2469523,-0.23765704,-3.5669703,3.1275551,34831.66
1690890340.2697237,-0.24332538,-0.6392483,-4.101876,31223.773
1690890340.292611,-3.2012448,-2.9406137,-0.9449729,34628.926
1690890340.3161907,0.6394786,-1.4693087,3.0380294,34752.72
1690890340.3386776,-0.55097336,0.19103505,-1.1035678,30703.498
1690890340.3613873,-0.013507831,-5.3291864,-2.8843803,33689.16
1690890340.3842196,-0.64880437,0.17827013,-3.3717084,34406.895
1690890340.407985,-0.25148305,-4.7493744,-2.4821103,34455.695
1690890340.4303648,0.8669883,-4.6485014,3.1999366,27246.572
1690890340.4547694,-2.4423478,-2.8659582,-1.936172,36826.92
1690890340.477167,-3.3396099,-2.0167756,3.348978,35163.035
1690890340.49967,-2.3731892,-2.435368,2.0449564,28821.416
1690890340.522892,-3.5443864,-4.3361244,-4.171701,34205.906
1690890340.5457468,0.813445,-0.47907698,-1.6074499,33913.715
1690890340.5737383,-0.17248246,-5.258491,-2.653447,28039.615
1690890340.5970886,-3.3111515,-1.5923666,-1.5026041,32478.709
1690890340.6198573,-2.5893867,-0.87421554,-2.3011835,35345.63
1690890340.6429071,-2.1454895,-0.45341578,1.103994,32698.312
1690890340.665408,-3.1823478,-3.213753,0.09988363,28417.719
1690890340.6881144,-0.74449074,-3.722697,-4.262019,28196.857
1690890340.7105217,-2.010117,-3.8664403,-4.206044,31871.207
1690890340.7346234,0.5673141,-1.2444487,4.0527105,31704.154
1690890340.7578907,-3.6157472,-2.7174778,-2.6355693,29206.64
1690890340.7802758,-0.20627476,-0.53881955,-4.1984577,34869.3
1690890340.8030348,-0.20098221,-5.185057,3.4124055,28323.096
1690890340.8255856,-1.1250803,-5.569431,0.16788234,34678.668
1690890340.84926,-1.0434777,-4.5220647,2.7774508,28309.424
1690890340.8724663,0.8034096,-5.278765,3.6848423,31736.285
1690890340.8955848,0.32601404,-0.6375258,-3.351921,32460.8
1690890340.9187307,0.21016204,-4.032673,-0.91012096,30814.496
1690890340.9421532,-1.8061221,-5.221069,-0.3553818,35702.938
1690890340.9650888,-3.537865,-3.2154114,-1.8741889,35104.484
1690890340.9890618,-2.4782944,-4.444422,2.8678648,29843.201
1690890341.0120404,-2.5225477,-1.8632408,4.136001,36124.676
1690890341.0353155,0.61161685,-5.1432014,-3.572872,36652.24
1690890341.0589232,-1.1044793,-3.0489647,-0.793193,29187.203
1690890341.0822928,-0.95214677,-2.933545,2.2171693,30972.049
1690890341.105785,-2.8089762,-0.95259476,-2.8785644,35905.47
1690890341.1300247,-2.5435789,-1.0784471,-3.580638,35674.516
1690890341.1525004,-3.4576352,-1.7754483,-1.8573236,32606.441
1690890341.1757886,0.68198127,-5.204004,-2.1864474,29897.951
1690890341.198182,-1.464129,-2.2821436,2.9469695,32410.922
1690890341.2205894,0.8045347,-3.2581987,-0.39182678,30846.275
1690890341.243153,0.5162944,-4.590004,-3.7993875,35334.73
1690890341.2657175,0.31106928,-5.03601,3.5032153,28056.84
1690890341.2887595,-0.49667108,-0.025212497,4.2957826,35688.664
1690890341.3110142,-0.10668063,-2.289429,-2.2991247,29731.045
1690890341.3335404,-3.333738,-3.9405248,0.9660048,28427.209
1690890341.356092,-3.6890974,-5.53978,-0.21546818,31300.64
1690890341.379723,-3.6888425,-2.6162705,3.039485,34375.22
1690890341.4031584,-1.2845399,-0.84743214,-2.6564667,35818.59
1690890341.426287,-2.6282837,-3.591242,2.6768172,32634.533
1690890341.4490972,0.7686803,-1.182561,1.6935749,31366.627
1690890341.4722228,-0.98709804,0.04611491,3.1820154,35608.29
1690890341.4954467,-3.2117085,-3.2843454,3.9536288,32260.555
1690890341.5177743,-3.1607175,-5.508945,2.3828537,35262.008
1690890341.5408006,-1.9717441,-5.1682143,0.3952792,29460.217
1690890341.5644224,-1.9384644,-3.5245469,3.659593,33062.152
1690890341.5898027,-0.47192013,-3.6860135,-0.59892,35998.273
1690890341.613263,-0.058365297,-4.3720574,0.57668424,28432.975
1690890341.637192,-1.2205945,0.4236373,2.749107,28404.57
1690890341.6603088,0.10839741,-0.4398403,1.8946983,29936.012
1690890341.6863883,-2.9802256,-0.6124014,4.080171,33872.65
1690890341.7096226,-1.4647502,-5.4713626,3.7207778,30252.967
1690890341.7329006,-2.1811936,-4.9817657,-2.3525348,35467.836
1690890341.7562127,-1.3230652,-5.2919216,-3.3344998,33801.61
1690890341.7791488,-0.49074528,-0.14180006,-1.226698,30490.465
1690890341.8026822,-1.3246256,-3.1503901,2.94775,34094.28
1690890341.824848,-2.168206,-0.18586636,-4.0064645,33413.28
1690890341.8475783,-3.0674267,-4.605195,-3.9772928,35883.785
1690890341.8699381,-2.8009577,-3.3247485,-3.294949,31813.941
1690890341.8928986,-3.7516484,-4.4730706,-2.1320727,30763.012
1690890341.9151626,-0.7149463,-3.6227224,4.228157,33581.81
1690890341.937907,-0.69359577,-1.9199036,2.3766427,30925.494
1690890341.9603589,-0.47462466,-0.5160581,-0.33769205,30375.44
1690890341.9827576,-1.9489468,0.42780763,-0.9201306,28382.775
1690890342.006532,-1.9338251,-0.6771023,-0.42887002,36246.38
1690890342.0300612,-1.1620646,-3.335372,-4.190162,29955.766
1690890342.0531776,-0.94034684,-2.2736354,-1.8600907,27226.928
1690890342.0765967,-1.2129576,-1.5195984,-2.8210616,34514.977
1690890342.0998075,-3.3824892,-2.3423316,2.415677,34644.734
1690890342.1221344,-2.5138857,-4.5444703,1.9472148,35601.28
1690890342.1444342,-1.5994526,-4.848687,3.09005,34953.688
1690890342.1672835,-1.2224369,-4.3661194,-1.5977511,27747.568
1690890342.189719,-3.4610155,-4.5850873,0.81855494,30181.826
1690890342.2124043,-2.7178752,-0.36826506,2.8266141,27678.242
1690890342.234941,-3.4142349,0.4952452,1.798783,34247.64
1690890342.2592561,-0.03896887,-2.5382586,-0.989549,36853.047
1690890342.281472,-2.1848595,-1.0693101,-3.5015996,27614.445
1690890342.304126,-2.0038998,-0.6444675,1.276306,30531.697
1690890342.3271956,-2.3936286,-3.24526,3.4625304,36715.95
1690890342.3495538,0.2351803,-0.85188866,4.342945,31603.43
1690890342.372527,-3.493917,-5.209091,2.254232,33820.484
1690890342.395141,0.29312566,-2.1520865,-0.15885447,30955.365
1690890342.4179134,-0.8963128,-5.1626463,-2.385991,33122.047
1690890342.440336,-3.3428457,-4.115273,0.52789724,31652.611
1690890342.463455,-0.21098715,-3.2537057,1.8119324,33454.117
1690890342.4862761,0.30507892,-5.3273506,3.56931,33660.934
1690890342.5089874,-1.0462567,-0.42137772,-1.3302222,33154.793
1690890342.5320077,-1.5774139,-4.405874,0.44353104,34468.863
1690890342.5553482,-3.0831354,-4.8545017,2.7903805,30480.322
1690890342.5778885,-1.516688,-2.7786126,1.7606174,36182.49
1690890342.600446,-3.390014,-1.429394,-0.41931266,36000.637
1690890342.623247,-3.3042278,0.32782054,-4.1882863,35838.44
1690890342.6466198,-0.051820926,-4.28257,-2.7412002,35794.156
1690890342.6692805,-2.7581823,-2.009137,2.1626046,36198.867
1690890342.6924014,-2.1187367,-2.3629403,3.6979663,32112.66
1690890342.715179,-0.8480742,-4.3304343,-0.5848919,31026.531
1690890342.7433374,-2.613712,-0.76997787,3.431063,29229.701
1690890342.7670484,-1.4344326,0.14523897,0.3253705,31388.885
1690890342.790184,-1.4235632,-1.085788,0.7400876,29856.79
1690890342.8132064,-1.2750889,0.37105966,2.420572,29449.275
1690890342.8362033,-2.4908364,-1.103677,3.5246546,29054.797
1690890342.8591633,-3.7431874,-2.7430937,2.5241456,27412.451
1690890342.8823655,-1.867418,-2.835441,0.83816737,36404.383
1690890342.9059715,-1.2383349,-4.67853,0.7853038,27404.352
1690890342.9291,-1.6309398,-2.6246982,-3.9412768,30953.656
1690890342.9536796,-3.0896955,-5.52726,-3.7045891,31655.158
1690890342.977071,-2.9629781,-4.5027447,-4.2946005,33614.07
1690890343.0005372,-0.9782316,-1.2568614,2.8713899,32103.555
1690890343.024028,-0.19666623,-2.4015026,-4.302744,32057.92
1690890343.0465376,0.23758194,-5.0224137,-4.3059845,29633.484
1690890343.0708435,-1.6164644,-0.6085948,4.413813,28304.23
1690890343.093836,-1.7733724,-5.0799565,0.318089,30773.367
1690890343.1167073,-3.3112946,-4.5562243,-3.036145,28470.008
1690890343.1392548,-1.411058,-5.0343394,2.4185677,30001.186
1690890343.1616213,-1.6459947,-3.0810115,-0.106321216,36667.453
1690890343.1839173,-2.523768,-4.286026,2.6275494,28710.242
1690890343.2064958,-2.5370038,-0.84615654,2.6952734,36732.1
1690890343.228921,-0.2651307,-0.3500182,-0.60815704,34811.36
1690890343.2518415,-0.9387169,-3.0083628,2.6401691,34892.38
1690890343.2744875,-3.374196,-4.8658037,-2.9372683,28951.506
1690890343.2970963,-3.018394,-3.5401368,-1.2229186,27816.559
1690890343.3228688,-1.1636552,0.122777395,3.2604344,33742.137
1690890343.3459826,-0.4524314,-2.0901566,-1.7357266,34405.184
1690890343.368343,-0.9340102,-4.8113623,2.2131593,31630.06
1690890343.3915577,0.8783888,-4.1711264,-1.335238,32701.855
1690890343.4140565,-0.21231079,-0.74567103,2.0152204,35975.285
1690890343.4376645,-3.2731156,-4.4250126,2.2022612,34475.84
1690890343.4600852,-3.6375747,-0.063537486,-2.7214746,33463.934
1690890343.482465,0.76942015,-2.8542333,-1.0383604,35112.793
1690890343.5054204,-2.8416512,-3.7595847,0.0006010841,35686.76
1690890343.5281792,-2.0852551,0.0035158508,-3.9396393,28839.428
1690890343.5509582,-2.53957,-3.805629,-0.18062067,33240.816
1690890343.5739486,-1.7265308,-1.5418053,0.12112689,27513.793
1690890343.5972292,-0.9677573,-0.31584525,-0.2960598,36850.465
1690890343.619585,-1.5395602,-5.4784627,-1.8675313,27646.709
1690890343.6423542,-3.2696218,-2.0928423,-2.2221885,27982.033
1690890343.665017,-0.7656104,-2.3752296,4.118161,32520.482
1690890343.688064,-2.8167212,-0.91350096,4.2849636,34327.71
1690890343.7116523,-1.8991113,-4.8539824,3.420878,36931.35
1690890343.7345145,-2.6339567,0.09296154,-4.107326,33573.4
1690890343.757119,0.63738894,-1.9089127,2.2492905,34716.645
1690890343.7797873,-0.6547969,-0.64531577,1.4253995,36574.496
1690890343.8033876,-1.8723779,-5.249236,-4.3892064,29319.18
1690890343.8265276,-3.547578,-3.1119874,4.0586348,34752.586
1690890343.8492262,-3.1749804,-3.5987566,-2.7718813,28630.88
1690890343.8730853,0.16682905,-1.5447912,-3.566885,30832.352
1690890343.8956907,-3.2064934,0.31142646,2.9838257,29445.309
1690890343.9185245,-3.5497913,-3.2493367,-1.2560412,35382.41
1690890343.9410863,-0.5354912,-3.038153,-2.8784463,31094.797
1690890343.96431,-0.8792998,-2.9965932,2.6393633,35845.125
1690890343.9884894,-2.8102322,-2.540897,3.0905278,35001.92
1690890344.0111845,-1.4643221,-0.6513896,-0.03252597,35539.227
1690890344.0361137,0.8233795,0.06154933,3.6625721,29833.166
1690890344.0584757,-0.8122243,-5.397344,-2.019301,31189.506
1690890344.0816715,0.14088,0.034409128,2.3750231,33650.156
1690890344.1046476,-0.61107546,-2.8012004,2.2473347,31069.078
1690890344.1273777,0.38821748,-4.779213,-1.6726846,35662.58
1690890344.1516867,-0.17737207,-4.498688,-4.4209933,36378.555
1690890344.1742423,-1.7759081,0.31222716,0.56720024,29752.82
1690890344.1967285,-1.8136182,-0.3217278,3.1108675,30639.762
1690890344.2191062,-0.50375557,-4.452255,2.9740462,29089.943
1690890344.2422261,-0.5454296,-2.4280283,-1.6226555,27490.45
1690890344.26514,-2.7121317,-1.5881367,4.2145143,28804.406
1690890344.2882032,-3.0065997,-0.66493267,-4.296743,30999.793
1690890344.311744,-1.4422312,-1.3570055,-1.4861357,30438.445
1690890344.3342624,-2.885122,-1.8320533,-2.6911552,29459.47
1690890344.3570213,-2.6844406,-5.1835,0.25313184,33123.344
1690890344.3801408,-0.33058357,-2.2200363,2.8268747,30681.79
1690890344.403274,0.84413713,0.5631322,4.1393166,34508.887
1690890344.4258478,0.51497394,-5.5384746,-1.1658713,32963.027
1690890344.447895,0.41654938,-2.4737844,-3.146539,32883.953
1690890344.4720433,-1.920858,-2.6606522,1.6736404,32832.76
1690890344.4947515,-1.5639087,0.09987637,3.2516804,29499.025
1690890344.5175354,-3.6353626,-1.8952286,3.8091173,36419.434
1690890344.5409434,-2.0991917,-2.6988885,3.058873,30202.834
1690890344.5634828,-3.2688487,-1.8624538,-2.358602,34174.2
1690890344.588437,-0.310449,-5.0121164,-2.8135357,30275.55
1690890344.6114857,-3.4512603,0.19285402,3.310348,32919.65
1690890344.6340687,-2.21211,-2.7727513,4.020569,33237.535
1690890344.6577353,-3.5140312,-3.2301452,4.3490386,29601.959
1690890344.680787,-2.1830685,0.07347735,0.091934435,33609.38
1690890344.7048783,-1.3136994,-1.8788543,-1.0520924,34045.44
1690890344.727192,-3.3953834,-4.0108747,3.4482393,27287.33
1690890344.7494884,0.5443978,-5.0266933,4.3797812,35830.504
1690890344.7722073,-0.63219684,0.30373088,3.4232697,28978.898
1690890344.794916,0.88810974,-4.3032002,-0.69419986,32041.318
1690890344.8180866,-1.89017,-4.215936,-3.7341073,29259.768
1690890344.8407328,0.6932919,-2.772032,2.4394524,33725.773
1690890344.8640375,-1.8373322,-1.8115904,1.9100226,29713.541
1690890344.8872736,-3.483813,-3.8250787,3.3226287,35640.566
1690890344.9129014,-3.397616,-5.4662538,0.74592656,34604.543
1690890344.9366274,-1.5540603,-4.5502677,-2.4382253,27278.787
1690890344.9589937,-2.799056,-4.623895,3.4919584,28131.648
1690890344.9822338,-2.7113938,-5.1193957,0.4382893,32040.871
1690890345.0048382,-1.5012176,-1.2876654,-0.037599567,28841.428
1690890345.0273166,-0.28318435,-0.73928523,4.240343,33001.63
1690890345.0500839,-1.6802577,-0.04643916,-3.671016,33229.188
1690890345.072832,-3.579625,-3.3387456,4.055059,35787.3
1690890345.095181,0.6417506,-4.7056804,2.0652208,35214.688
1690890345.118221,-0.6239161,-0.613268,0.6355225,29801.191
1690890345.1406255,0.012364265,-2.258391,4.043724,36027.297
1690890345.1628773,-2.8038085,-4.89144,3.9098306,31721.459
1690890345.1859229,-2.716414,-4.2234178,-4.592063,27628.766
1690890345.208322,-2.5673344,-1.812492,3.5617118,31663.71
1690890345.2320426,-1.0124917,0.38522276,2.3793027,32174.416
1690890345.25625,-0.88063306,0.5882667,1.760619,36239.43
1690890345.2791667,-0.6188894,-1.4170938,-1.0908469,30882.791
1690890345.3019116,-1.2672881,-0.77283996,-1.478583,33504.82
1690890345.325054,-2.9160554,-4.2656517,-1.0106812,29940.95
1690890345.348731,-0.41869357,-3.4188955,0.5918313,33211.426
1690890345.3722649,0.3278638,-2.2761576,3.048522,27798.7
1690890345.394607,-3.1882691,-2.0051239,-0.918734,28458.877
1690890345.4174292,0.80623806,-0.33199546,-2.1182654,31796.924
1690890345.439967,-1.6969202,-5.378308,-0.29046655,35287.887
1690890345.4622543,-0.16149908,-2.0552135,-4.326344,36066.54
1690890345.484528,0.68832666,-4.8632865,1.8679802,32835.055
1690890345.506751,-1.0214566,-0.90922844,3.8938532,33867.05
1690890345.5294106,-0.73880863,-2.6355226,2.839394,36501.312
1690890345.5529983,-1.1606367,-3.0536711,3.3673387,35071.785
1690890345.5759773,-1.2546296,-2.353805,-2.263692,35295.945
1690890345.5998278,-2.8897266,-1.1438123,-0.67174643,29512.041
1690890345.6224222,-3.6231253,-2.0399292,2.0164845,29128.13
1690890345.644846,-1.1772304,-5.008212,-3.029821,32611.97
1690890345.6673393,-3.105544,0.3579831,-0.15868716,33076.367
1690890345.6899981,-2.6165318,-1.797115,0.12768175,33934.38
1690890345.713311,-3.2459273,-4.4416795,1.860515,35994.676
1690890345.7376115,0.10410234,-0.6552429,3.4229991,34342.65
1690890345.7607155,-3.0795748,-4.253596,-3.4666142,30092.912
1690890345.783431,-3.4996269,-2.400804,3.6635902,31654.648
1690890345.806987,-3.5659356,-1.417684,-1.8256968,31238.576
1690890345.8304913,-2.6468687,-5.466792,2.1058328,35659.844
1690890345.8552117,0.14639218,-3.8808577,3.268982,33297.754
1690890345.8776727,-2.295549,-1.1718918,-1.4529765,34339.73
1690890345.900336,-0.10844477,-3.7216408,0.050156426,36606.45
1690890345.9240153,-0.32230705,0.29846168,-3.9032717,35458.227
1690890345.9464724,-3.4251513,-5.251798,1.7950954,35529.23
1690890345.969449,-2.7833922,0.5425773,2.8150198,31474.572
1690890345.9919193,-0.64517224,-2.8830817,0.54791474,33122.32
1690890346.0148563,-2.483524,-4.828014,-0.8913834,30999.207
1690890346.0381129,-2.6582322,-5.1211696,1.7776278,34670.836
1690890346.0602741,-1.4036136,-2.8602705,-2.9648805,35815.246
1690890346.0837975,-2.2354343,-2.8899877,-3.324122,34991.414
1690890346.106712,-3.1164382,-5.4524593,2.0488493,29480.852
1690890346.1304996,-2.148593,-5.2577796,4.3693094,28410.484
1690890346.1532683,-1.6696322,-4.562091,4.1787143,31407.514
1690890346.176161,0.92912316,-3.9804807,-3.8496687,29181.871
1690890346.1992865,-0.9174545,-0.8308216,0.6955707,33046.914
1690890346.2222226,-1.0201155,-3.4097147,-3.0048351,29138.705
1690890346.2465115,-1.1877196,-5.279137,-2.9442883,30924.9
1690890346.268893,-2.4748497,-3.7722058,3.9811954,32409.398
1690890346.2927651,-0.53747165,-0.20174134,-2.583963,32659.523
