Timestamp,stabilizer.pitch,stabilizer.roll,stabilizer.thrust,stabilizer.yaw
179835,0.8336073160171509,-0.9609697461128235,0.0,12.982382774353027
179845,0.8333337306976318,-0.9616241455078125,0.0,12.981975555419922
179855,0.8327040076255798,-0.9615225195884705,0.0,12.982653617858887
179865,0.8316197395324707,-0.9624293446540833,0.0,12.983149528503418
179875,0.8307046294212341,-0.9618464112281799,0.0,12.982905387878418
179885,0.8294336199760437,-0.9619575142860413,0.0,12.982682228088379
179895,0.8288390040397644,-0.9628387093544006,0.0,12.98170280456543
179905,0.8269884586334229,-0.9623574018478394,0.0,12.982455253601074
179915,0.8275826573371887,-0.9628989696502686,0.0,12.984140396118164
179925,0.8273444175720215,-0.9624285101890564,0.0,12.983729362487793
179935,0.8265263438224792,-0.9620699286460876,0.0,12.983762741088867
179945,0.8276914358139038,-0.9622740745544434,0.0,12.984253883361816
179955,0.8270538449287415,-0.9626126885414124,0.0,12.984521865844727
179965,0.8252884149551392,-0.96314936876297,0.0,12.98306941986084
179975,0.8249574899673462,-0.9636966586112976,0.0,12.983451843261719
179985,0.8263212442398071,-0.9641886353492737,0.0,12.985267639160156
179995,0.8267039656639099,-0.9640117287635803,0.0,12.985055923461914
180005,0.8261431455612183,-0.9641450047492981,0.0,12.985743522644043
180015,0.8263330459594727,-0.9645630121231079,0.0,12.986095428466797
180025,0.8268946409225464,-0.9642865061759949,0.0,12.986934661865234
180035,0.8275777697563171,-0.9641551971435547,0.0,12.986769676208496
180045,0.8277913331985474,-0.9641374945640564,0.0,12.986455917358398
180055,0.8288041949272156,-0.9651115536689758,0.0,12.985820770263672
180065,0.8277936577796936,-0.9646607041358948,0.0,12.983902931213379
180075,0.827418863773346,-0.965782105922699,0.0,12.98377799987793
180085,0.8287072777748108,-0.965217649936676,0.0,12.982412338256836
180095,0.8286460638046265,-0.9656596779823303,0.0,12.981658935546875
180105,0.8286806344985962,-0.96676105260849,0.0,12.98190975189209
180115,0.8287792801856995,-0.9665520191192627,0.0,12.98078441619873
180125,0.8289828300476074,-0.9665725231170654,0.0,12.980802536010742
180135,0.8266718983650208,-0.9663950204849243,0.0,12.979596138000488
180145,0.8277515769004822,-0.9666894674301147,0.0,12.98006820678711
180155,0.8269516825675964,-0.9669650793075562,0.0,12.981500625610352
180165,0.825644850730896,-0.9670262932777405,0.0,12.983105659484863
180175,0.8242811560630798,-0.9677613377571106,0.0,12.984362602233887
180185,0.8245622515678406,-0.9678001999855042,0.0,12.984046936035156
180195,0.8255398869514465,-0.9673058390617371,0.0,12.984313011169434
180205,0.8246057033538818,-0.9675573110580444,0.0,12.984760284423828
180215,0.8240727186203003,-0.9672263860702515,0.0,12.984992980957031
180225,0.8251192569732666,-0.9663618803024292,0.0,12.983415603637695
180235,0.827721357345581,-0.9664722084999084,0.0,12.982518196105957
180245,0.828193187713623,-0.9678900837898254,0.0,12.983135223388672
180255,0.8292402029037476,-0.9680881500244141,0.0,12.982767105102539
180265,0.8287884593009949,-0.9672508239746094,0.0,12.983745574951172
180275,0.8283772468566895,-0.9664883613586426,0.0,12.985204696655273
180285,0.828761100769043,-0.9669871926307678,0.0,12.986201286315918
180295,0.8281989097595215,-0.9660795331001282,0.0,12.98737907409668
180305,0.828666090965271,-0.9657517075538635,0.0,12.986544609069824
180315,0.8273398280143738,-0.9659836292266846,0.0,12.988423347473145
180325,0.8262834548950195,-0.9665261507034302,0.0,12.989775657653809
180335,0.8254642486572266,-0.9668250679969788,0.0,12.991537094116211
180345,0.8267132639884949,-0.965627908706665,0.0,12.992467880249023
180355,0.8270793557167053,-0.96586674451828,0.0,12.993399620056152
180365,0.8262133002281189,-0.9657657742500305,0.0,12.993892669677734
180375,0.8252399563789368,-0.96612149477005,0.0,12.99474811553955
180385,0.8263395428657532,-0.9656882882118225,0.0,12.994261741638184
180395,0.8267227411270142,-0.9643155336380005,0.0,12.996088027954102
180405,0.8263437151908875,-0.9645516276359558,0.0,12.995756149291992
180415,0.8267092108726501,-0.9633186459541321,0.0,12.996702194213867
180425,0.8275843262672424,-0.9628335237503052,0.0,12.997620582580566
180435,0.8272519707679749,-0.9627982378005981,0.0,12.9981050491333
180445,0.8266854882240295,-0.9633090496063232,0.0,12.997888565063477
180455,0.8268253207206726,-0.9650031924247742,0.0,12.998710632324219
180465,0.8262717127799988,-0.9645655751228333,0.0,12.998623847961426
180475,0.8265944123268127,-0.9643916487693787,0.0,12.997854232788086
180485,0.8259680271148682,-0.9633051156997681,0.0,12.998716354370117
180495,0.8261967897415161,-0.9627493619918823,0.0,12.999404907226562
180505,0.8277949094772339,-0.9614749550819397,0.0,13.000852584838867
180515,0.8258194327354431,-0.9608010649681091,0.0,13.003487586975098
180525,0.8255470395088196,-0.960670530796051,0.0,13.003056526184082
180535,0.8250702023506165,-0.9595771431922913,0.0,13.00407886505127
180545,0.8245866894721985,-0.9591631889343262,0.0,13.002670288085938
180555,0.8233292102813721,-0.9588003754615784,0.0,13.002639770507812
180565,0.8233378529548645,-0.9583102464675903,0.0,13.003373146057129
180575,0.8232551217079163,-0.9576820731163025,0.0,13.003289222717285
180585,0.823315441608429,-0.9582659006118774,0.0,13.003439903259277
180595,0.8230587840080261,-0.9571691155433655,0.0,13.003396034240723
180605,0.8230942487716675,-0.9566015005111694,0.0,13.004627227783203
180615,0.8207837343215942,-0.9554146528244019,0.0,13.005412101745605
180625,0.819957971572876,-0.9546390175819397,0.0,13.007177352905273
180635,0.8212164640426636,-0.9548055529594421,0.0,13.007999420166016
180645,0.8202409148216248,-0.9547607898712158,0.0,13.008048057556152
180655,0.8215619325637817,-0.954662561416626,0.0,13.006789207458496
180665,0.8217030167579651,-0.953753650188446,0.0,13.006311416625977
180675,0.8217268586158752,-0.9538028836250305,0.0,13.00757122039795
180685,0.8215564489364624,-0.9548565745353699,0.0,13.00761604309082
180695,0.8211478590965271,-0.9569644331932068,0.0,13.008323669433594
180705,0.8206245303153992,-0.9568601250648499,0.0,13.00907039642334
180715,0.8181002140045166,-0.9563304781913757,0.0,13.008131980895996
180725,0.8172697424888611,-0.95599764585495,0.0,13.008281707763672
180735,0.8156211972236633,-0.9573435187339783,0.0,13.01007080078125
180745,0.8144205212593079,-0.9564234018325806,0.0,13.009323120117188
180755,0.8151713013648987,-0.957409143447876,0.0,13.00795841217041
180765,0.8141669034957886,-0.9586142301559448,0.0,13.008455276489258
180775,0.8124860525131226,-0.9578746557235718,0.0,13.009933471679688
180785,0.8130857348442078,-0.9575042128562927,0.0,13.010878562927246
180795,0.8128768801689148,-0.9564306139945984,0.0,13.010565757751465
180805,0.8129255771636963,-0.9561752080917358,0.0,13.011656761169434
180815,0.8121466636657715,-0.9558055400848389,0.0,13.013367652893066
180825,0.8119233846664429,-0.955125629901886,0.0,13.014759063720703
180835,0.8108794093132019,-0.955483078956604,0.0,13.015230178833008
180845,0.8104158043861389,-0.9557914733886719,0.0,13.015039443969727
180855,0.812720000743866,-0.9557360410690308,0.0,13.013716697692871
180865,0.8115862607955933,-0.9554386138916016,0.0,13.01387882232666
180875,0.8116976022720337,-0.9543975591659546,0.0,13.01610279083252
180885,0.8115000128746033,-0.9556524753570557,0.0,13.016800880432129
180895,0.8116114735603333,-0.9558312892913818,0.0,13.014470100402832
180905,0.8127469420433044,-0.9570407867431641,0.0,13.015210151672363
180915,0.8122068643569946,-0.956604540348053,0.0,13.015438079833984
180925,0.8113398551940918,-0.9565881490707397,0.0,13.01563835144043
180935,0.8118079304695129,-0.9564375877380371,0.0,13.015643119812012
180945,0.8123756051063538,-0.9578229188919067,0.0,13.0150785446167
180955,0.8125946521759033,-0.958652138710022,0.0,13.014606475830078
180965,0.810785174369812,-0.9584094882011414,0.0,13.014183044433594
180975,0.8102078437805176,-0.9572880864143372,0.0,13.01590347290039
180985,0.8101102113723755,-0.9579809904098511,0.0,13.017175674438477
180995,0.8098570108413696,-0.9581076502799988,0.0,13.017961502075195
181005,0.8113583922386169,-0.9579271674156189,0.0,13.017807006835938
181015,0.8109293580055237,-0.9572494029998779,0.0,13.019736289978027
181025,0.8112906217575073,-0.9565922021865845,0.0,13.018838882446289
181035,0.8124927878379822,-0.9569822549819946,0.0,13.020234107971191
181045,0.8126698732376099,-0.955918550491333,0.0,13.021855354309082
181055,0.8126510381698608,-0.9561358690261841,0.0,13.021552085876465
181065,0.8136904835700989,-0.9556909203529358,0.0,13.020915985107422
181075,0.813772976398468,-0.9555849432945251,0.0,13.021085739135742
181085,0.8129598498344421,-0.9553585052490234,0.0,13.021120071411133
181095,0.8124755024909973,-0.9548575282096863,0.0,13.022018432617188
181105,0.8124361038208008,-0.9559263586997986,0.0,13.021299362182617
181115,0.8128983378410339,-0.9562364816665649,0.0,13.021099090576172
181125,0.8132655024528503,-0.9567594528198242,0.0,13.021551132202148
181135,0.8119773268699646,-0.9563257694244385,0.0,13.02200984954834
181145,0.8148701786994934,-0.9553391337394714,0.0,13.021442413330078
181155,0.8152697086334229,-0.9552493095397949,0.0,13.022201538085938
181165,0.8159322738647461,-0.954876184463501,0.0,13.020952224731445
181175,0.8172518610954285,-0.9547370076179504,0.0,13.021343231201172
181185,0.817014217376709,-0.9551393389701843,0.0,13.022987365722656
181195,0.8170515894889832,-0.9545356631278992,0.0,13.024081230163574
181205,0.818234920501709,-0.9527941942214966,0.0,13.02344036102295
181215,0.8172878623008728,-0.9537200331687927,0.0,13.024516105651855
181225,0.8169281482696533,-0.9536351561546326,0.0,13.025053977966309
181235,0.8171711564064026,-0.9531129002571106,0.0,13.02540397644043
181245,0.817724883556366,-0.9528946876525879,0.0,13.025716781616211
181255,0.8178332448005676,-0.9515251517295837,0.0,13.025229454040527
181265,0.8182812333106995,-0.9525341391563416,0.0,13.024236679077148
181275,0.8180342316627502,-0.9528563022613525,0.0,13.023486137390137
181285,0.8167684674263,-0.9530525207519531,0.0,13.026223182678223
181295,0.8168637156486511,-0.9522776007652283,0.0,13.025640487670898
181305,0.8174265623092651,-0.9512198567390442,0.0,13.024696350097656
181315,0.8177938461303711,-0.9522380828857422,0.0,13.02542781829834
181325,0.8168285489082336,-0.9519986510276794,0.0,13.025848388671875
181335,0.817026674747467,-0.9514561295509338,0.0,13.025832176208496
181345,0.8162950277328491,-0.9514650702476501,0.0,13.025891304016113
181355,0.814945638179779,-0.9522402286529541,0.0,13.02616024017334
181365,0.8149566650390625,-0.9524986743927002,0.0,13.026848793029785
181375,0.814824640750885,-0.9526495337486267,0.0,13.027023315429688
181385,0.8149096965789795,-0.9514661431312561,0.0,13.026066780090332
181395,0.8148727416992188,-0.9507668614387512,0.0,13.027129173278809
181405,0.8128693103790283,-0.9507250189781189,0.0,13.02740478515625
181415,0.8133265972137451,-0.9520358443260193,0.0,13.027938842773438
181425,0.8131778836250305,-0.9538842439651489,0.0,13.028701782226562
181435,0.8129979372024536,-0.9541828632354736,0.0,13.029234886169434
181445,0.8133918046951294,-0.9551680088043213,0.0,13.030533790588379
181455,0.8145148158073425,-0.955370306968689,0.0,13.030900001525879
181465,0.8126972317695618,-0.9541409611701965,0.0,13.030346870422363
181475,0.8137573599815369,-0.9538756012916565,0.0,13.030793190002441
181485,0.8146936297416687,-0.9533172249794006,0.0,13.030486106872559
181495,0.8131490349769592,-0.9534021019935608,0.0,13.031822204589844
181505,0.8130409717559814,-0.952202320098877,0.0,13.032174110412598
181515,0.8120779991149902,-0.9526426792144775,0.0,13.032977104187012
181525,0.8130751252174377,-0.9514068961143494,0.0,13.032760620117188
181535,0.8122721910476685,-0.9507134556770325,0.0,13.032637596130371
181545,0.8129779100418091,-0.9510402083396912,0.0,13.03024959564209
181555,0.812835156917572,-0.9510555267333984,0.0,13.03022289276123
181565,0.8132482767105103,-0.9502444863319397,0.0,13.030364990234375
181575,0.8134279847145081,-0.9493794441223145,0.0,13.03028678894043
181585,0.8145323395729065,-0.949415922164917,0.0,13.031329154968262
181595,0.8153420686721802,-0.9479464292526245,0.0,13.031023025512695
181605,0.815760612487793,-0.9482532739639282,0.0,13.031950950622559
181615,0.8164477944374084,-0.948089063167572,0.0,13.031184196472168
181625,0.8159791231155396,-0.9480204582214355,0.0,13.03262710571289
181635,0.8169859051704407,-0.9475975632667542,0.0,13.032855033874512
181645,0.8182407021522522,-0.9475502967834473,0.0,13.032825469970703
181655,0.8180404901504517,-0.9469373226165771,0.0,13.032270431518555
181665,0.8205057978630066,-0.9473416805267334,0.0,13.031662940979004
181675,0.8204226493835449,-0.9480257630348206,0.0,13.032608985900879
181685,0.82264244556427,-0.9488059282302856,0.0,13.032408714294434
181695,0.8224962949752808,-0.9490031003952026,0.0,13.032808303833008
181705,0.8234872817993164,-0.9471306800842285,0.0,13.033331871032715
181715,0.8224543929100037,-0.9467161893844604,0.0,13.034492492675781
181725,0.8238792419433594,-0.9456972479820251,0.0,13.032512664794922
181735,0.8249271512031555,-0.9459028840065002,0.0,13.030756950378418
181745,0.8259397745132446,-0.9462677240371704,0.0,13.03209400177002
181755,0.8246780037879944,-0.9468271136283875,0.0,13.031991004943848
181765,0.8252710103988647,-0.9482597708702087,0.0,13.033403396606445
181775,0.8248488903045654,-0.9478491544723511,0.0,13.033321380615234
181785,0.8238202333450317,-0.9477599263191223,0.0,13.034147262573242
181795,0.8218644857406616,-0.9477336406707764,0.0,13.034977912902832
181805,0.8237205147743225,-0.948253333568573,0.0,13.032892227172852
181815,0.8235616683959961,-0.948607861995697,0.0,13.032770156860352
181825,0.8258487582206726,-0.9478468894958496,0.0,13.031729698181152
181835,0.8258748650550842,-0.9472761154174805,0.0,13.031173706054688
181845,0.8270993828773499,-0.9465932846069336,0.0,13.031501770019531
181855,0.8275067806243896,-0.9466200470924377,0.0,13.032950401306152
181865,0.829285740852356,-0.9457641243934631,0.0,13.031106948852539
181875,0.8290766477584839,-0.9462469220161438,0.0,13.031614303588867
181885,0.8277159929275513,-0.945722758769989,0.0,13.032720565795898
181895,0.82735675573349,-0.9461562037467957,0.0,13.032973289489746
181905,0.828368067741394,-0.9460423588752747,0.0,13.033598899841309
181915,0.8297026753425598,-0.9456678032875061,0.0,13.03365421295166
181925,0.8306019902229309,-0.9445232152938843,0.0,13.03226089477539
181935,0.830650269985199,-0.9453407526016235,0.0,13.033515930175781
181945,0.8299716114997864,-0.946266770362854,0.0,13.033334732055664
181955,0.8297111988067627,-0.9458308815956116,0.0,13.032716751098633
181965,0.829512357711792,-0.9452823400497437,0.0,13.03273868560791
181975,0.8273018598556519,-0.9452450275421143,0.0,13.03317642211914
181985,0.82813960313797,-0.945329487323761,0.0,13.034161567687988
181995,0.8267835974693298,-0.9458821415901184,0.0,13.036442756652832
182005,0.8264402747154236,-0.9455763697624207,0.0,13.038310050964355
182015,0.825062096118927,-0.946499764919281,0.0,13.03786563873291
182025,0.8243080377578735,-0.9468184113502502,0.0,13.036818504333496
182035,0.8256731033325195,-0.9466128945350647,0.0,13.03683853149414
182045,0.8257912397384644,-0.9465407133102417,0.0,13.036245346069336
182055,0.8248424530029297,-0.9468909502029419,0.0,13.034811973571777
182065,0.8245955109596252,-0.9456280469894409,0.0,13.035219192504883
182075,0.8232030868530273,-0.9453972578048706,0.0,13.036114692687988
182085,0.8223366141319275,-0.9452094435691833,0.0,13.034659385681152
182095,0.8227928876876831,-0.9455263614654541,0.0,13.03525447845459
182105,0.822618305683136,-0.9453521966934204,0.0,13.0358304977417
182115,0.8234974145889282,-0.945216715335846,0.0,13.036865234375
182125,0.8232589364051819,-0.9455460906028748,0.0,13.038009643554688
182135,0.8230693340301514,-0.9467440843582153,0.0,13.041043281555176
182145,0.8242128491401672,-0.9465298652648926,0.0,13.040868759155273
182155,0.8239797949790955,-0.9465551972389221,0.0,13.041892051696777
182165,0.8248187899589539,-0.945402979850769,0.0,13.042047500610352
182175,0.8245280385017395,-0.9475833773612976,0.0,13.041986465454102
182185,0.8245704770088196,-0.9487495422363281,0.0,13.042031288146973
182195,0.8269447684288025,-0.9468312859535217,0.0,13.041693687438965
182205,0.8272377848625183,-0.94566810131073,0.0,13.042876243591309
182215,0.825253427028656,-0.947300910949707,0.0,13.043144226074219
182225,0.8257514834403992,-0.9468855857849121,0.0,13.042915344238281
182235,0.8247606754302979,-0.9468531012535095,0.0,13.043309211730957
182245,0.825974702835083,-0.9456154704093933,0.0,13.043207168579102
182255,0.8249853849411011,-0.943674623966217,0.0,13.044626235961914
182265,0.8262325525283813,-0.9429420232772827,0.0,13.045228958129883
182275,0.8257630467414856,-0.9430838823318481,0.0,13.046955108642578
182285,0.8266915678977966,-0.9425715208053589,0.0,13.04690170288086
182295,0.8281858563423157,-0.9429638981819153,0.0,13.04683780670166
182305,0.828327476978302,-0.942661464214325,0.0,13.048136711120605
182315,0.8287644982337952,-0.9408088326454163,0.0,13.047786712646484
182325,0.8283419609069824,-0.9394764304161072,0.0,13.047917366027832
182335,0.8285520076751709,-0.9403042793273926,0.0,13.04769229888916
182345,0.829227089881897,-0.9409748911857605,0.0,13.048083305358887
182355,0.8290141820907593,-0.9398504495620728,0.0,13.047353744506836
182365,0.8291773796081543,-0.9406899213790894,0.0,13.049019813537598
182375,0.8292729258537292,-0.9406336545944214,0.0,13.049700736999512
182385,0.8309260606765747,-0.9405083060264587,0.0,13.049976348876953
182395,0.8317213654518127,-0.9402369260787964,0.0,13.048486709594727
182405,0.8318871259689331,-0.939947783946991,0.0,13.047740936279297
182415,0.8314578533172607,-0.9400492310523987,0.0,13.04799747467041
182425,0.830894947052002,-0.9398519396781921,0.0,13.048026084899902
182435,0.8314785361289978,-0.9387282729148865,0.0,13.048223495483398
182445,0.8309453725814819,-0.9384453296661377,0.0,13.048784255981445
182455,0.8289152383804321,-0.9387572407722473,0.0,13.047762870788574
182465,0.8279976844787598,-0.9387987852096558,0.0,13.047743797302246
182475,0.8272767663002014,-0.9409391283988953,0.0,13.048077583312988
182485,0.8268901705741882,-0.9403327107429504,0.0,13.049093246459961
182495,0.8269696831703186,-0.940313994884491,0.0,13.047314643859863
182505,0.8285123705863953,-0.939426839351654,0.0,13.048206329345703
182515,0.8282248377799988,-0.9392582178115845,0.0,13.048383712768555
182525,0.8292217254638672,-0.9395481944084167,0.0,13.0478515625
182535,0.8296907544136047,-0.9391552209854126,0.0,13.04848861694336
182545,0.8292953372001648,-0.9391106367111206,0.0,13.049347877502441
182555,0.8303210139274597,-0.9386876225471497,0.0,13.050365447998047
182565,0.8305951952934265,-0.9389919638633728,0.0,13.048975944519043
182575,0.8322160243988037,-0.939140796661377,0.0,13.049345016479492
182585,0.8309905529022217,-0.9399570226669312,0.0,13.049620628356934
182595,0.8308810591697693,-0.941174328327179,0.0,13.049985885620117
182605,0.8299018740653992,-0.9402520060539246,0.0,13.05080795288086
182615,0.8301948308944702,-0.9395736455917358,0.0,13.051668167114258
182625,0.8304153680801392,-0.9395996332168579,0.0,13.051347732543945
182635,0.8309600353240967,-0.9387054443359375,0.0,13.051623344421387
182645,0.8297116756439209,-0.9383533596992493,0.0,13.050312995910645
182655,0.8301947712898254,-0.9364961385726929,0.0,13.052061080932617
182665,0.8307309150695801,-0.9363582730293274,0.0,13.052491188049316
182675,0.8318087458610535,-0.9367817640304565,0.0,13.052952766418457
182685,0.8317556977272034,-0.936040997505188,0.0,13.053281784057617
182695,0.8318741917610168,-0.9366177916526794,0.0,13.052979469299316
182705,0.8314346075057983,-0.9348983764648438,0.0,13.051937103271484
182715,0.8302879333496094,-0.9342456459999084,0.0,13.05229663848877
182725,0.8314173221588135,-0.9332078695297241,0.0,13.05263900756836
182735,0.8317180871963501,-0.9336155652999878,0.0,13.053858757019043
182745,0.8306026458740234,-0.9332972168922424,0.0,13.053370475769043
182755,0.831367015838623,-0.9321306347846985,0.0,13.052927017211914
182765,0.8301865458488464,-0.9307005405426025,0.0,13.05469036102295
182775,0.830852210521698,-0.9310434460639954,0.0,13.054194450378418
182785,0.8306204080581665,-0.9315193295478821,0.0,13.053508758544922
182795,0.8308849930763245,-0.9320362210273743,0.0,13.055071830749512
182805,0.8312106132507324,-0.9313911199569702,0.0,13.055536270141602
182815,0.8337319493293762,-0.9306645393371582,0.0,13.056437492370605
182825,0.8352789878845215,-0.930960476398468,0.0,13.05631160736084
182835,0.833885908126831,-0.9307353496551514,0.0,13.057511329650879
182845,0.8330625891685486,-0.9296677112579346,0.0,13.057741165161133
182855,0.8339087963104248,-0.929606556892395,0.0,13.058073997497559
182865,0.8339893817901611,-0.9295948147773743,0.0,13.057724952697754
182875,0.8343220949172974,-0.9306520819664001,0.0,13.057612419128418
182885,0.8338269591331482,-0.9312771558761597,0.0,13.056702613830566
182895,0.8330491781234741,-0.9324332475662231,0.0,13.058089256286621
182905,0.8344332575798035,-0.9327386021614075,0.0,13.058344841003418
182915,0.8325659036636353,-0.9323998093605042,0.0,13.060023307800293
182925,0.8316020965576172,-0.9328945875167847,0.0,13.060890197753906
182935,0.8321852684020996,-0.932924747467041,0.0,13.05865478515625
182945,0.8332628011703491,-0.9323868155479431,0.0,13.060382843017578
182955,0.833895742893219,-0.9323471188545227,0.0,13.06139087677002
182965,0.8351042866706848,-0.932683527469635,0.0,13.060429573059082
182975,0.834521472454071,-0.9324718713760376,0.0,13.060365676879883
182985,0.8367403745651245,-0.9310963749885559,0.0,13.06050968170166
182995,0.8359935879707336,-0.9322713017463684,0.0,13.06043815612793
183005,0.835597813129425,-0.9327521324157715,0.0,13.060486793518066
183015,0.8352026343345642,-0.9336832165718079,0.0,13.06006908416748
183025,0.8370385766029358,-0.9333817362785339,0.0,13.06067180633545
183035,0.837751567363739,-0.9343054294586182,0.0,13.061674118041992
183045,0.8391547203063965,-0.9345895051956177,0.0,13.061458587646484
183055,0.838589072227478,-0.9339191317558289,0.0,13.061288833618164
183065,0.8393608331680298,-0.9339558482170105,0.0,13.061786651611328
183075,0.8402859568595886,-0.9338999390602112,0.0,13.062463760375977
183085,0.8402808308601379,-0.9343804121017456,0.0,13.06235408782959
183095,0.8411900401115417,-0.9354740381240845,0.0,13.062758445739746
183105,0.8406453132629395,-0.9358503818511963,0.0,13.062775611877441
183115,0.8402604460716248,-0.9357213973999023,0.0,13.063615798950195
183125,0.8402525782585144,-0.9356727600097656,0.0,13.064666748046875
183135,0.8395069241523743,-0.9363741874694824,0.0,13.065672874450684
183145,0.8386322259902954,-0.9372043609619141,0.0,13.066893577575684
183155,0.8381807804107666,-0.9379896521568298,0.0,13.068405151367188
183165,0.839266300201416,-0.9391474723815918,0.0,13.068521499633789
183175,0.8396073579788208,-0.9382913708686829,0.0,13.067364692687988
183185,0.8397663235664368,-0.9378037452697754,0.0,13.067896842956543
183195,0.8405709266662598,-0.9380444288253784,0.0,13.069082260131836
183205,0.8403645753860474,-0.9362507462501526,0.0,13.071560859680176
183215,0.8402695655822754,-0.935060977935791,0.0,13.072012901306152
183225,0.8375229239463806,-0.9356294274330139,0.0,13.073373794555664
183235,0.8386838436126709,-0.9350575804710388,0.0,13.072867393493652
183245,0.8391541838645935,-0.9358561635017395,0.0,13.072751998901367
183255,0.8379528522491455,-0.9363135695457458,0.0,13.073946952819824
183265,0.836675763130188,-0.9362379908561707,0.0,13.074440002441406
183275,0.8371977210044861,-0.9363096356391907,0.0,13.075141906738281
183285,0.8388013243675232,-0.9368097186088562,0.0,13.075303077697754
183295,0.8377448320388794,-0.9354122281074524,0.0,13.075421333312988
183305,0.8372871279716492,-0.9353991150856018,0.0,13.076257705688477
183315,0.8377262353897095,-0.9349659085273743,0.0,13.077291488647461
183325,0.8383691310882568,-0.9360932111740112,0.0,13.078852653503418
183335,0.8372753858566284,-0.9356482625007629,0.0,13.080342292785645
183345,0.8386474251747131,-0.934541642665863,0.0,13.079879760742188
183355,0.8396490812301636,-0.9342251420021057,0.0,13.080137252807617
183365,0.8402335047721863,-0.9349337816238403,0.0,13.079889297485352
183375,0.8404289484024048,-0.9346089363098145,0.0,13.080182075500488
183385,0.8412721753120422,-0.9358633756637573,0.0,13.08135986328125
183395,0.8426978588104248,-0.9358017444610596,0.0,13.080256462097168
183405,0.8407161831855774,-0.9353999495506287,0.0,13.080121994018555
183415,0.8414047360420227,-0.9342952370643616,0.0,13.080387115478516
183425,0.842290461063385,-0.9339979290962219,0.0,13.081742286682129
183435,0.8417673110961914,-0.9347752332687378,0.0,13.08413314819336
183445,0.8397901058197021,-0.9329741597175598,0.0,13.083280563354492
183455,0.8392616510391235,-0.9334374666213989,0.0,13.084809303283691
183465,0.8389894366264343,-0.9335546493530273,0.0,13.086127281188965
183475,0.8402523994445801,-0.9339863657951355,0.0,13.08526611328125
183485,0.8403775095939636,-0.9330283403396606,0.0,13.085392951965332
183495,0.8393452763557434,-0.9323657751083374,0.0,13.084799766540527
183505,0.8403142690658569,-0.9321210384368896,0.0,13.08481502532959
183515,0.8405571579933167,-0.9328876733779907,0.0,13.085779190063477
183525,0.8399379253387451,-0.9339160919189453,0.0,13.086060523986816
183535,0.841319739818573,-0.9351761341094971,0.0,13.08684253692627
183545,0.8400344848632812,-0.9345276951789856,0.0,13.087211608886719
183555,0.8419346213340759,-0.9341615438461304,0.0,13.08864688873291
183565,0.8409629464149475,-0.9354143142700195,0.0,13.088186264038086
183575,0.842010498046875,-0.9362632036209106,0.0,13.089221954345703
183585,0.8412197232246399,-0.9380433559417725,0.0,13.090690612792969
183595,0.8411319255828857,-0.9383629560470581,0.0,13.090665817260742
183605,0.8431535959243774,-0.9388662576675415,0.0,13.090641975402832
183615,0.8427534103393555,-0.9389399886131287,0.0,13.090266227722168
183625,0.844076931476593,-0.9384796023368835,0.0,13.091135025024414
183635,0.842298150062561,-0.9381558895111084,0.0,13.090211868286133
183645,0.8435126543045044,-0.938318133354187,0.0,13.089744567871094
183655,0.8420124650001526,-0.938956618309021,0.0,13.090943336486816
183665,0.8416107892990112,-0.9388833045959473,0.0,13.092792510986328
183675,0.8421408534049988,-0.9385205507278442,0.0,13.093131065368652
183685,0.842992901802063,-0.9388738870620728,0.0,13.092113494873047
183695,0.8428669571876526,-0.9405050277709961,0.0,13.091419219970703
183705,0.8420915603637695,-0.9392260313034058,0.0,13.091718673706055
183715,0.8420274257659912,-0.939094066619873,0.0,13.090971946716309
183725,0.8426119089126587,-0.9391793608665466,0.0,13.091381072998047
183735,0.8442996740341187,-0.9393401145935059,0.0,13.090531349182129
183745,0.8455036282539368,-0.9379723072052002,0.0,13.090194702148438
183755,0.8457613587379456,-0.9380977749824524,0.0,13.090681076049805
183765,0.8449740409851074,-0.9379011392593384,0.0,13.08907699584961
183775,0.845703661441803,-0.9375258684158325,0.0,13.08873462677002
183785,0.8462343215942383,-0.9377433657646179,0.0,13.089763641357422
183795,0.8445436358451843,-0.9380487203598022,0.0,13.090072631835938
183805,0.8446506857872009,-0.9370112419128418,0.0,13.091208457946777
183815,0.843656599521637,-0.9372261762619019,0.0,13.09138298034668
183825,0.8429461121559143,-0.9376922845840454,0.0,13.09245491027832
183835,0.8426898717880249,-0.9378107786178589,0.0,13.091551780700684
183845,0.8430464863777161,-0.9379598498344421,0.0,13.092464447021484
183855,0.8432059288024902,-0.9376834630966187,0.0,13.092530250549316
183865,0.8432403802871704,-0.9375262260437012,0.0,13.094017028808594
183875,0.8449969291687012,-0.9368862509727478,0.0,13.095033645629883
183885,0.8448563814163208,-0.9363533854484558,0.0,13.095911979675293
183895,0.8444316983222961,-0.93603515625,0.0,13.096783638000488
183905,0.8440696001052856,-0.9362697601318359,0.0,13.09628963470459
183915,0.8428145051002502,-0.9370696544647217,0.0,13.097148895263672
183925,0.8432459235191345,-0.9371059536933899,0.0,13.098184585571289
183935,0.8434807658195496,-0.9358569383621216,0.0,13.098380088806152
183945,0.8438701629638672,-0.9348417520523071,0.0,13.098132133483887
183955,0.842876136302948,-0.9340162873268127,0.0,13.100293159484863
183965,0.8429367542266846,-0.9343501925468445,0.0,13.100882530212402
183975,0.8413657546043396,-0.9338347315788269,0.0,13.103303909301758
183985,0.8401975035667419,-0.9331033229827881,0.0,13.103590965270996
183995,0.8402689099311829,-0.9338796138763428,0.0,13.104726791381836
184005,0.8408680558204651,-0.9334719181060791,0.0,13.105230331420898
184015,0.8407663702964783,-0.9337830543518066,0.0,13.106436729431152
184025,0.8404353260993958,-0.9346034526824951,0.0,13.105862617492676
184035,0.8417398929595947,-0.9357450604438782,0.0,13.106437683105469
184045,0.84180748462677,-0.9358564019203186,0.0,13.106757164001465
184055,0.8420082330703735,-0.9362833499908447,0.0,13.105782508850098
184065,0.8429280519485474,-0.9355980157852173,0.0,13.108323097229004
184075,0.8422709703445435,-0.9340322017669678,0.0,13.109210014343262
184085,0.8423234224319458,-0.9341473579406738,0.0,13.109086036682129
184095,0.8417790532112122,-0.9327014088630676,0.0,13.110237121582031
184105,0.8417117595672607,-0.9326735138893127,0.0,13.110755920410156
184115,0.8424386978149414,-0.9317866563796997,0.0,13.109525680541992
184125,0.8429853320121765,-0.9311509132385254,0.0,13.109591484069824
184135,0.8410722613334656,-0.9326658248901367,0.0,13.111781120300293
184145,0.8418588638305664,-0.933168888092041,0.0,13.110901832580566
184155,0.8424776196479797,-0.9337438941001892,0.0,13.110407829284668
184165,0.8426194190979004,-0.9351090788841248,0.0,13.110747337341309
184175,0.8416655659675598,-0.9342284798622131,0.0,13.109928131103516
184185,0.8415554165840149,-0.9354134798049927,0.0,13.109590530395508
184195,0.8412538170814514,-0.9358243942260742,0.0,13.111318588256836
184205,0.8412801623344421,-0.9348820447921753,0.0,13.111183166503906
184215,0.8395584225654602,-0.9344660639762878,0.0,13.114584922790527
184225,0.8395187258720398,-0.9341084957122803,0.0,13.113070487976074
184235,0.8406009674072266,-0.9353389739990234,0.0,13.112598419189453
184245,0.8414743542671204,-0.9359171390533447,0.0,13.112574577331543
184255,0.8410171270370483,-0.9356439709663391,0.0,13.113293647766113
184265,0.8419504761695862,-0.9361152052879333,0.0,13.113495826721191
184275,0.8420302271842957,-0.936269223690033,0.0,13.113438606262207
184285,0.8414115309715271,-0.9370735287666321,0.0,13.114847183227539
184295,0.8401726484298706,-0.938504159450531,0.0,13.115254402160645
184305,0.8406155109405518,-0.9387868642807007,0.0,13.11453914642334
184315,0.839801549911499,-0.9393201470375061,0.0,13.114839553833008
184325,0.840697705745697,-0.9397920370101929,0.0,13.114300727844238
184335,0.8406406044960022,-0.9394251704216003,0.0,13.115678787231445
184345,0.840578556060791,-0.9396955966949463,0.0,13.117042541503906
184355,0.8410869836807251,-0.9404739141464233,0.0,13.117297172546387
184365,0.8414596915245056,-0.9402008056640625,0.0,13.11824893951416
184375,0.8399495482444763,-0.940368115901947,0.0,13.118826866149902
184385,0.8395017385482788,-0.9405180811882019,0.0,13.1195707321167
184395,0.839592695236206,-0.9397888779640198,0.0,13.120153427124023
184405,0.8400701880455017,-0.9380095601081848,0.0,13.119109153747559
184415,0.8411751985549927,-0.9370131492614746,0.0,13.120455741882324
184425,0.8401874899864197,-0.937383770942688,0.0,13.121122360229492
184435,0.8401326537132263,-0.9372789263725281,0.0,13.121613502502441
184445,0.8404871821403503,-0.9362255930900574,0.0,13.122203826904297
184455,0.8414090275764465,-0.9370096325874329,0.0,13.124216079711914
184465,0.8403849601745605,-0.9365100264549255,0.0,13.125225067138672
184475,0.8396621346473694,-0.9360371828079224,0.0,13.124242782592773
184485,0.8394591212272644,-0.9362443089485168,0.0,13.124794006347656
184495,0.8390341401100159,-0.9374231696128845,0.0,13.12515926361084
184505,0.8393190503120422,-0.9369218945503235,0.0,13.125886917114258
184515,0.837915301322937,-0.9368631839752197,0.0,13.124724388122559
184525,0.8381724953651428,-0.9368054270744324,0.0,13.127300262451172
184535,0.8373674154281616,-0.9373221397399902,0.0,13.127870559692383
184545,0.8367304801940918,-0.9378088712692261,0.0,13.1292085647583
184555,0.8368328809738159,-0.9386736154556274,0.0,13.12898063659668
184565,0.8362500667572021,-0.9380631446838379,0.0,13.128519058227539
184575,0.8357581496238708,-0.9400405287742615,0.0,13.130854606628418
184585,0.8355227708816528,-0.9403827786445618,0.0,13.13012981414795
184595,0.8356717824935913,-0.9395670294761658,0.0,13.130970001220703
184605,0.8363506197929382,-0.9405514597892761,0.0,13.132028579711914
184615,0.8359249830245972,-0.9406050443649292,0.0,13.131407737731934
184625,0.8367602229118347,-0.9411852955818176,0.0,13.132201194763184
184635,0.8364113569259644,-0.941365122795105,0.0,13.133027076721191
184645,0.836266279220581,-0.9420840740203857,0.0,13.133176803588867
184655,0.837701678276062,-0.9416621327400208,0.0,13.133979797363281
184665,0.8376371264457703,-0.9405354857444763,0.0,13.132709503173828
184675,0.8389996290206909,-0.9407513737678528,0.0,13.13223648071289
184685,0.8380928039550781,-0.9400179386138916,0.0,13.132201194763184
184695,0.8377247452735901,-0.9389411211013794,0.0,13.133505821228027
184705,0.8383828401565552,-0.9380485415458679,0.0,13.134171485900879
184715,0.8371787071228027,-0.9378204345703125,0.0,13.134573936462402
184725,0.8375486135482788,-0.9377899765968323,0.0,13.135624885559082
184735,0.8377872109413147,-0.936610996723175,0.0,13.137360572814941
184745,0.8374682664871216,-0.9371277093887329,0.0,13.138007164001465
184755,0.8377544283866882,-0.9365063309669495,0.0,13.137535095214844
184765,0.8363546133041382,-0.9362024664878845,0.0,13.137776374816895
184775,0.838148295879364,-0.9351167678833008,0.0,13.13755989074707
184785,0.8379198908805847,-0.934904932975769,0.0,13.136946678161621
184795,0.838031530380249,-0.9356797337532043,0.0,13.136637687683105
184805,0.8375037908554077,-0.9356427192687988,0.0,13.135540008544922
184815,0.838792085647583,-0.9363511204719543,0.0,13.13599681854248
184825,0.8387875556945801,-0.9349743127822876,0.0,13.135889053344727
184835,0.8383665084838867,-0.9341518878936768,0.0,13.136114120483398
184845,0.837419331073761,-0.9346035718917847,0.0,13.13633918762207
184855,0.8369601368904114,-0.9351795315742493,0.0,13.13719654083252
184865,0.8375245928764343,-0.933944046497345,0.0,13.138338088989258
184875,0.8376204371452332,-0.9319154024124146,0.0,13.137102127075195
184885,0.8398504853248596,-0.9309264421463013,0.0,13.137948036193848
184895,0.840279221534729,-0.9312074780464172,0.0,13.137938499450684
184905,0.8416515588760376,-0.9313680529594421,0.0,13.139098167419434
184915,0.8422231674194336,-0.930725634098053,0.0,13.138993263244629
184925,0.8421509265899658,-0.9309712052345276,0.0,13.140436172485352
184935,0.8416554927825928,-0.9308665990829468,0.0,13.141493797302246
184945,0.841487467288971,-0.9310868978500366,0.0,13.141735076904297
184955,0.8407878875732422,-0.9319679737091064,0.0,13.140850067138672
184965,0.8404979109764099,-0.9326366782188416,0.0,13.140774726867676
184975,0.8393262624740601,-0.9325365424156189,0.0,13.141000747680664
184985,0.8384515643119812,-0.9319823980331421,0.0,13.141728401184082
184995,0.8396289944648743,-0.9328406453132629,0.0,13.141009330749512
185005,0.8394924402236938,-0.9328160881996155,0.0,13.141106605529785
185015,0.8383391499519348,-0.9333841800689697,0.0,13.141824722290039
185025,0.8383820056915283,-0.9335780143737793,0.0,13.143144607543945
185035,0.8377209901809692,-0.9340377449989319,0.0,13.144506454467773
185045,0.8363279700279236,-0.9349250197410583,0.0,13.145289421081543
185055,0.8359708786010742,-0.9350203275680542,0.0,13.144981384277344
185065,0.8358388543128967,-0.9337835907936096,0.0,13.145751953125
185075,0.8364805579185486,-0.9339545965194702,0.0,13.146097183227539
185085,0.8378295302391052,-0.9327069520950317,0.0,13.148152351379395
185095,0.8383964896202087,-0.9338799715042114,0.0,13.14842700958252
185105,0.839564323425293,-0.9342385530471802,0.0,13.148284912109375
185115,0.8390730619430542,-0.9354080557823181,0.0,13.149155616760254
185125,0.8406690955162048,-0.9340754151344299,0.0,13.15067195892334
185135,0.8402991890907288,-0.9333332777023315,0.0,13.151070594787598
185145,0.8393692970275879,-0.9332395195960999,0.0,13.153145790100098
185155,0.8381935358047485,-0.9322096109390259,0.0,13.154033660888672
185165,0.8370081782341003,-0.9328047037124634,0.0,13.15407943725586
185175,0.8369854688644409,-0.9334602952003479,0.0,13.154519081115723
185185,0.8376781940460205,-0.9332759380340576,0.0,13.155742645263672
185195,0.8375487923622131,-0.9340391755104065,0.0,13.15703010559082
185205,0.8368954062461853,-0.9352787733078003,0.0,13.157106399536133
185215,0.8376958966255188,-0.93337082862854,0.0,13.157390594482422
185225,0.8369014859199524,-0.933020293712616,0.0,13.156728744506836
185235,0.838079035282135,-0.9331987500190735,0.0,13.157557487487793
185245,0.8380909562110901,-0.9337205290794373,0.0,13.158031463623047
185255,0.839368462562561,-0.9344651699066162,0.0,13.157393455505371
185265,0.8392572402954102,-0.9363221526145935,0.0,13.15639877319336
185275,0.8401216864585876,-0.9367001056671143,0.0,13.157931327819824
185285,0.8398963212966919,-0.9368881583213806,0.0,13.158909797668457
185295,0.8390410542488098,-0.9366944432258606,0.0,13.160567283630371
185305,0.8399682641029358,-0.9371415376663208,0.0,13.161884307861328
185315,0.8394613265991211,-0.9361330270767212,0.0,13.162215232849121
185325,0.8407508730888367,-0.9360803365707397,0.0,13.162362098693848
185335,0.8408421874046326,-0.9364579916000366,0.0,13.163256645202637
185345,0.8402270078659058,-0.936115026473999,0.0,13.161084175109863
185355,0.8400431275367737,-0.9358013272285461,0.0,13.161380767822266
185365,0.8404636383056641,-0.9362218976020813,0.0,13.162994384765625
185375,0.8398726582527161,-0.9361158013343811,0.0,13.163228988647461
185385,0.8390257954597473,-0.9362044930458069,0.0,13.164326667785645
185395,0.8391757011413574,-0.9360952973365784,0.0,13.163708686828613
185405,0.8378417491912842,-0.9350597858428955,0.0,13.164566040039062
185415,0.8384428024291992,-0.9351685047149658,0.0,13.164223670959473
185425,0.8410847783088684,-0.9364287257194519,0.0,13.164939880371094
185435,0.8403787612915039,-0.9359892010688782,0.0,13.16364574432373
185445,0.8389627933502197,-0.9371486306190491,0.0,13.16460132598877
185455,0.8409830927848816,-0.9363561272621155,0.0,13.165005683898926
185465,0.8388960957527161,-0.9369088411331177,0.0,13.164810180664062
185475,0.8379045128822327,-0.9371931552886963,0.0,13.166412353515625
185485,0.8357347846031189,-0.9360437989234924,0.0,13.165806770324707
185495,0.8365851640701294,-0.9351575970649719,0.0,13.166325569152832
185505,0.8363858461380005,-0.9340853095054626,0.0,13.165994644165039
185515,0.8353743553161621,-0.9346646666526794,0.0,13.167744636535645
185525,0.8359616994857788,-0.935193657875061,0.0,13.16878890991211
185535,0.8364713788032532,-0.9333726167678833,0.0,13.16778564453125
185545,0.8376723527908325,-0.9328561425209045,0.0,13.168923377990723
185555,0.8377178907394409,-0.9321255087852478,0.0,13.16812801361084
185565,0.8380528092384338,-0.931898832321167,0.0,13.168628692626953
185575,0.8380041718482971,-0.929745614528656,0.0,13.168463706970215
185585,0.8359663486480713,-0.9288111329078674,0.0,13.169217109680176
185595,0.8356190323829651,-0.9295039772987366,0.0,13.168559074401855
185605,0.8360373377799988,-0.929919958114624,0.0,13.168527603149414
185615,0.8361762762069702,-0.9305815100669861,0.0,13.1680908203125
185625,0.8350657820701599,-0.9306609630584717,0.0,13.167121887207031
185635,0.8341283798217773,-0.9308184385299683,0.0,13.168673515319824
185645,0.8341997265815735,-0.9294348359107971,0.0,13.169902801513672
185655,0.8345916271209717,-0.9293047189712524,0.0,13.170111656188965
185665,0.835387647151947,-0.9294114112854004,0.0,13.169748306274414
185675,0.8352232575416565,-0.9289443492889404,0.0,13.170207023620605
185685,0.8344182372093201,-0.9298679828643799,0.0,13.169659614562988
185695,0.8338671922683716,-0.9310388565063477,0.0,13.170339584350586
185705,0.8332321047782898,-0.9311149716377258,0.0,13.170631408691406
185715,0.8340985178947449,-0.9320099949836731,0.0,13.172628402709961
185725,0.834059476852417,-0.9324639439582825,0.0,13.175201416015625
185735,0.8334475755691528,-0.9316451549530029,0.0,13.174909591674805
185745,0.8343944549560547,-0.9320470690727234,0.0,13.175804138183594
185755,0.832162082195282,-0.9320520758628845,0.0,13.175820350646973
185765,0.8331353664398193,-0.9324689507484436,0.0,13.17674446105957
185775,0.8318881988525391,-0.9339390397071838,0.0,13.178357124328613
185785,0.832942545413971,-0.9339916110038757,0.0,13.178184509277344
185795,0.8356647491455078,-0.9337304830551147,0.0,13.179266929626465
185805,0.8346207737922668,-0.9330077767372131,0.0,13.179054260253906
185815,0.8349136710166931,-0.9331055283546448,0.0,13.18162727355957
185825,0.8341091871261597,-0.9333081841468811,0.0,13.182639122009277
185835,0.8339188694953918,-0.9331756234169006,0.0,13.182827949523926
185845,0.8327594995498657,-0.9338260889053345,0.0,13.182316780090332
185855,0.8325693011283875,-0.9347021579742432,0.0,13.185145378112793
185865,0.831613302230835,-0.9341666102409363,0.0,13.185352325439453
185875,0.8329682350158691,-0.9331868886947632,0.0,13.185893058776855
185885,0.8326157331466675,-0.9329625368118286,0.0,13.186071395874023
185895,0.8321385979652405,-0.9340099692344666,0.0,13.18681812286377
185905,0.8326293230056763,-0.9331764578819275,0.0,13.187399864196777
185915,0.8337056636810303,-0.93479984998703,0.0,13.186214447021484
185925,0.8321486115455627,-0.9345741271972656,0.0,13.185441970825195
185935,0.832160472869873,-0.9354272484779358,0.0,13.187244415283203
185945,0.832349419593811,-0.9349839687347412,0.0,13.186605453491211
185955,0.8330334424972534,-0.9363003969192505,0.0,13.186925888061523
185965,0.8324371576309204,-0.9371549487113953,0.0,13.187444686889648
185975,0.8337430953979492,-0.937500536441803,0.0,13.188558578491211
185985,0.8346608281135559,-0.9372117519378662,0.0,13.18842601776123
185995,0.8346360325813293,-0.9378056526184082,0.0,13.190374374389648
186005,0.8333451151847839,-0.9389778971672058,0.0,13.188924789428711
186015,0.8324980139732361,-0.938572108745575,0.0,13.191301345825195
186025,0.8329070210456848,-0.9390348196029663,0.0,13.191753387451172
186035,0.8340033292770386,-0.9388440847396851,0.0,13.1912260055542
186045,0.8335543870925903,-0.9385435581207275,0.0,13.191801071166992
186055,0.8348235487937927,-0.93841952085495,0.0,13.193398475646973
186065,0.8343251347541809,-0.9388774633407593,0.0,13.193942070007324
186075,0.8328090310096741,-0.9391904473304749,0.0,13.193156242370605
186085,0.8332110643386841,-0.9409878253936768,0.0,13.195385932922363
186095,0.8320093154907227,-0.939530611038208,0.0,13.194234848022461
186105,0.8325382471084595,-0.9395614266395569,0.0,13.194519996643066
186115,0.831900417804718,-0.9391943216323853,0.0,13.194487571716309
186125,0.8314672708511353,-0.9395003914833069,0.0,13.193929672241211
186135,0.8296410441398621,-0.9397205710411072,0.0,13.1951904296875
186145,0.8286696672439575,-0.9394890666007996,0.0,13.195497512817383
186155,0.8285853862762451,-0.9392642974853516,0.0,13.194496154785156
186165,0.8304747939109802,-0.9378605484962463,0.0,13.194157600402832
186175,0.8308864831924438,-0.9378584623336792,0.0,13.194830894470215
186185,0.8318805694580078,-0.9381272196769714,0.0,13.195549011230469
186195,0.8317516446113586,-0.9378910660743713,0.0,13.195831298828125
186205,0.8332054018974304,-0.9395970106124878,0.0,13.196813583374023
186215,0.8335559368133545,-0.9389521479606628,0.0,13.195747375488281
186225,0.833203136920929,-0.938818097114563,0.0,13.196165084838867
186235,0.8341002464294434,-0.9379919767379761,0.0,13.196573257446289
186245,0.8335330486297607,-0.9377762675285339,0.0,13.197491645812988
186255,0.8325193524360657,-0.937562882900238,0.0,13.197397232055664
186265,0.832120418548584,-0.9388662576675415,0.0,13.19835090637207
186275,0.8332309126853943,-0.9398011565208435,0.0,13.198955535888672
186285,0.833494246006012,-0.9404726028442383,0.0,13.200541496276855
186295,0.831516444683075,-0.9396950602531433,0.0,13.201770782470703
186305,0.8321741223335266,-0.9374881386756897,0.0,13.202241897583008
186315,0.8331784009933472,-0.9364482760429382,0.0,13.201667785644531
186325,0.8339299559593201,-0.9376504421234131,0.0,13.201485633850098
186335,0.8350581526756287,-0.9378532767295837,0.0,13.202190399169922
186345,0.8338558673858643,-0.9371634125709534,0.0,13.202630996704102
186355,0.8320891261100769,-0.9365818500518799,0.0,13.20427417755127
186365,0.8318778872489929,-0.9357003569602966,0.0,13.203817367553711
186375,0.8319764137268066,-0.9354967474937439,0.0,13.205224990844727
186385,0.829555869102478,-0.9359738230705261,0.0,13.205531120300293
186395,0.8289774656295776,-0.9355688691139221,0.0,13.205974578857422
186405,0.8286713361740112,-0.9357109069824219,0.0,13.205903053283691
186415,0.8287975192070007,-0.9362544417381287,0.0,13.206465721130371
186425,0.8267126679420471,-0.9362240433692932,0.0,13.208023071289062
186435,0.8264698386192322,-0.9373093843460083,0.0,13.209210395812988
186445,0.826951801776886,-0.937592089176178,0.0,13.208126068115234
186455,0.8268005847930908,-0.9369785189628601,0.0,13.206379890441895
186465,0.8277621865272522,-0.9379238486289978,0.0,13.206427574157715
186475,0.8287258148193359,-0.9386122226715088,0.0,13.207197189331055
186485,0.8293858170509338,-0.938562273979187,0.0,13.207939147949219
186495,0.8280303478240967,-0.9376087188720703,0.0,13.209437370300293
186505,0.8300092816352844,-0.9381422400474548,0.0,13.210769653320312
186515,0.8300824165344238,-0.9383150935173035,0.0,13.21135139465332
186525,0.8284700512886047,-0.93771892786026,0.0,13.211956024169922
186535,0.8279301524162292,-0.9380654692649841,0.0,13.211908340454102
186545,0.8285800814628601,-0.9377442002296448,0.0,13.211949348449707
186555,0.8287769556045532,-0.9381678700447083,0.0,13.213396072387695
186565,0.83115553855896,-0.9382614493370056,0.0,13.213382720947266
186575,0.8302509188652039,-0.938057005405426,0.0,13.213217735290527
186585,0.8294554352760315,-0.9384815692901611,0.0,13.213010787963867
186595,0.8284710645675659,-0.9377797842025757,0.0,13.213105201721191
186605,0.8291425108909607,-0.9391345381736755,0.0,13.21339225769043
186615,0.829196572303772,-0.9395836591720581,0.0,13.213971138000488
186625,0.8292819857597351,-0.9396272301673889,0.0,13.214162826538086
186635,0.8286778926849365,-0.9406118392944336,0.0,13.21359634399414
186645,0.828998863697052,-0.9403809309005737,0.0,13.213982582092285
186655,0.8283354043960571,-0.9397050738334656,0.0,13.214009284973145
186665,0.8260331153869629,-0.9407911896705627,0.0,13.214559555053711
186675,0.8266858458518982,-0.9404902458190918,0.0,13.21603775024414
186685,0.8261761665344238,-0.9407749176025391,0.0,13.21845531463623
186695,0.8264799118041992,-0.9397483468055725,0.0,13.21895980834961
186705,0.8257282376289368,-0.940422534942627,0.0,13.218223571777344
186715,0.827314555644989,-0.9411604404449463,0.0,13.2198486328125
186725,0.8272188901901245,-0.9418670535087585,0.0,13.220311164855957
186735,0.8266938328742981,-0.9415704011917114,0.0,13.220319747924805
186745,0.8264605402946472,-0.9424229264259338,0.0,13.220575332641602
186755,0.8272029757499695,-0.9418045878410339,0.0,13.219285011291504
186765,0.8268657922744751,-0.9417737722396851,0.0,13.220342636108398
186775,0.8263066411018372,-0.9424856305122375,0.0,13.220244407653809
186785,0.8241026997566223,-0.9428665041923523,0.0,13.219910621643066
186795,0.8238053917884827,-0.9419190287590027,0.0,13.220585823059082
186805,0.8229987621307373,-0.9406307339668274,0.0,13.221670150756836
186815,0.8230012059211731,-0.9409530758857727,0.0,13.221846580505371
186825,0.8218327760696411,-0.9419734477996826,0.0,13.222031593322754
186835,0.8213989734649658,-0.9420194625854492,0.0,13.222601890563965
186845,0.8232861161231995,-0.9415050745010376,0.0,13.224615097045898
186855,0.8229402303695679,-0.9412110447883606,0.0,13.224308013916016
186865,0.8230781555175781,-0.9413704872131348,0.0,13.225387573242188
186875,0.8221251368522644,-0.9427313208580017,0.0,13.227014541625977
186885,0.8229556083679199,-0.9425050616264343,0.0,13.227861404418945
186895,0.8226849436759949,-0.9426947832107544,0.0,13.22827434539795
186905,0.8233312368392944,-0.941536009311676,0.0,13.229249000549316
186915,0.8242037892341614,-0.9411963224411011,0.0,13.229741096496582
186925,0.822691798210144,-0.9409654140472412,0.0,13.230622291564941
186935,0.8233044743537903,-0.9419604539871216,0.0,13.232337951660156
186945,0.8235450983047485,-0.9414632320404053,0.0,13.232511520385742
186955,0.8234676718711853,-0.9410962462425232,0.0,13.23110580444336
186965,0.8249982595443726,-0.9398912191390991,0.0,13.232349395751953
186975,0.8259485960006714,-0.9401410818099976,0.0,13.23075008392334
186985,0.8255887031555176,-0.9391767978668213,0.0,13.229215621948242
186995,0.8263959288597107,-0.9382993578910828,0.0,13.229994773864746
187005,0.8262564539909363,-0.9374021291732788,0.0,13.22990894317627
187015,0.8269851803779602,-0.9378198385238647,0.0,13.231270790100098
187025,0.8273441195487976,-0.9380244612693787,0.0,13.230226516723633
187035,0.8276498317718506,-0.938893735408783,0.0,13.232889175415039
187045,0.8272053003311157,-0.9392557144165039,0.0,13.234607696533203
187055,0.8266730904579163,-0.9392058253288269,0.0,13.23315143585205
187065,0.8267432451248169,-0.9393917322158813,0.0,13.23393726348877
187075,0.8269184827804565,-0.941351056098938,0.0,13.23462963104248
187085,0.826800525188446,-0.9417231678962708,0.0,13.234931945800781
187095,0.8262442350387573,-0.9426296949386597,0.0,13.236296653747559
187105,0.825554370880127,-0.9429222345352173,0.0,13.236701011657715
187115,0.8267868161201477,-0.943255603313446,0.0,13.235719680786133
187125,0.8266913294792175,-0.9435335397720337,0.0,13.236257553100586
187135,0.8266733288764954,-0.943961501121521,0.0,13.237157821655273
187145,0.8281728029251099,-0.9429858326911926,0.0,13.237257957458496
187155,0.8286837339401245,-0.9430812001228333,0.0,13.23648738861084
187165,0.8300360441207886,-0.9416502118110657,0.0,13.236675262451172
187175,0.829427182674408,-0.9415320754051208,0.0,13.237714767456055
187185,0.8291977643966675,-0.9407442212104797,0.0,13.239039421081543
187195,0.8293156027793884,-0.9410474300384521,0.0,13.240508079528809
187205,0.8286723494529724,-0.9412344098091125,0.0,13.240580558776855
187215,0.8284703493118286,-0.9402796626091003,0.0,13.241424560546875
187225,0.8299621939659119,-0.9397878646850586,0.0,13.241233825683594
187235,0.8306813836097717,-0.9387453198432922,0.0,13.24179744720459
187245,0.829564094543457,-0.9393984079360962,0.0,13.241238594055176
187255,0.8292602300643921,-0.9378958940505981,0.0,13.24106216430664
187265,0.8301137089729309,-0.9387474060058594,0.0,13.241025924682617
187275,0.8303433656692505,-0.9394884705543518,0.0,13.241305351257324
187285,0.8299220204353333,-0.9398576617240906,0.0,13.240731239318848
187295,0.829225480556488,-0.9405472874641418,0.0,13.242076873779297
187305,0.8303125500679016,-0.9414501786231995,0.0,13.240865707397461
187315,0.8291775584220886,-0.9411866068840027,0.0,13.242215156555176
187325,0.8287173509597778,-0.9407469034194946,0.0,13.243327140808105
187335,0.8276438117027283,-0.940630316734314,0.0,13.244183540344238
187345,0.827540397644043,-0.9394243955612183,0.0,13.246699333190918
187355,0.8290738463401794,-0.9387047290802002,0.0,13.246604919433594
187365,0.8299532532691956,-0.9394771456718445,0.0,13.246203422546387
187375,0.8289324045181274,-0.9393141269683838,0.0,13.24859619140625
187385,0.8282949924468994,-0.9400145411491394,0.0,13.249418258666992
187395,0.8277149200439453,-0.9389815330505371,0.0,13.25018310546875
187405,0.8266857862472534,-0.9387856721878052,0.0,13.25025463104248
187415,0.8277304768562317,-0.9401949644088745,0.0,13.250251770019531
187425,0.827669620513916,-0.9414144158363342,0.0,13.249482154846191
187435,0.8279018402099609,-0.94224613904953,0.0,13.249139785766602
187445,0.8267244100570679,-0.9426448345184326,0.0,13.249320030212402
187455,0.8279221653938293,-0.941611647605896,0.0,13.250001907348633
187465,0.8275080323219299,-0.9409143328666687,0.0,13.250113487243652
187475,0.8297436237335205,-0.9421586394309998,0.0,13.249960899353027
187485,0.8285274505615234,-0.9417853355407715,0.0,13.251113891601562
187495,0.8284968137741089,-0.9427919983863831,0.0,13.251798629760742
187505,0.8305652737617493,-0.9421560168266296,0.0,13.252288818359375
187515,0.8312000632286072,-0.9425584077835083,0.0,13.251147270202637
187525,0.8296493887901306,-0.9441131949424744,0.0,13.251965522766113
187535,0.8300390243530273,-0.9449655413627625,0.0,13.253166198730469
187545,0.8307186365127563,-0.9462060332298279,0.0,13.253761291503906
187555,0.8313572406768799,-0.9453294277191162,0.0,13.25358772277832
187565,0.8328823447227478,-0.9457938075065613,0.0,13.253020286560059
187575,0.8328785300254822,-0.9437663555145264,0.0,13.251873016357422
187585,0.8321215510368347,-0.9439465999603271,0.0,13.254010200500488
187595,0.8318612575531006,-0.9442496299743652,0.0,13.254704475402832
187605,0.8312819600105286,-0.9435877203941345,0.0,13.25536060333252
187615,0.8325837850570679,-0.9432416558265686,0.0,13.255477905273438
187625,0.8331734538078308,-0.9421089887619019,0.0,13.255974769592285
187635,0.8356800079345703,-0.941534161567688,0.0,13.25546646118164
187645,0.8353672623634338,-0.9414350986480713,0.0,13.255987167358398
187655,0.8344874382019043,-0.941826343536377,0.0,13.25547981262207
187665,0.8352856636047363,-0.9407786726951599,0.0,13.254351615905762
187675,0.8347667455673218,-0.9397806525230408,0.0,13.254010200500488
187685,0.8348223567008972,-0.9398876428604126,0.0,13.25572681427002
187695,0.834686815738678,-0.9392673969268799,0.0,13.256373405456543
187705,0.8354632258415222,-0.9388701915740967,0.0,13.256939888000488
187715,0.834359884262085,-0.9383453130722046,0.0,13.257301330566406
187725,0.8354961276054382,-0.9396762847900391,0.0,13.257772445678711
187735,0.8346002697944641,-0.940285861492157,0.0,13.256845474243164
187745,0.8349431157112122,-0.9392542839050293,0.0,13.256608009338379
187755,0.8343843817710876,-0.9403630495071411,0.0,13.259858131408691
187765,0.8330122828483582,-0.9399067163467407,0.0,13.259997367858887
187775,0.8326371312141418,-0.9406179785728455,0.0,13.25987720489502
187785,0.8330596089363098,-0.9411932826042175,0.0,13.261035919189453
187795,0.8335599899291992,-0.9407805800437927,0.0,13.262036323547363
187805,0.8352892398834229,-0.9417201280593872,0.0,13.261974334716797
187815,0.8359670042991638,-0.9398983716964722,0.0,13.262643814086914
187825,0.8360760807991028,-0.9405388236045837,0.0,13.261996269226074
187835,0.8374153971672058,-0.9406468868255615,0.0,13.262053489685059
187845,0.8374509811401367,-0.9410224556922913,0.0,13.262002944946289
187855,0.838957667350769,-0.9400364756584167,0.0,13.261469841003418
187865,0.8382250070571899,-0.9398434162139893,0.0,13.260647773742676
187875,0.8393431901931763,-0.9405572414398193,0.0,13.259876251220703
187885,0.8393646478652954,-0.9403849840164185,0.0,13.26047420501709
187895,0.8414835929870605,-0.9413388967514038,0.0,13.260786056518555
187905,0.8405056595802307,-0.9419527053833008,0.0,13.262434005737305
187915,0.8405104875564575,-0.9416621923446655,0.0,13.260381698608398
187925,0.8422729969024658,-0.9410297274589539,0.0,13.25960922241211
187935,0.8428171873092651,-0.941516637802124,0.0,13.260052680969238
187945,0.8441346883773804,-0.9409192204475403,0.0,13.259854316711426
187955,0.8439170718193054,-0.942757785320282,0.0,13.260796546936035
187965,0.8434141874313354,-0.9426486492156982,0.0,13.260056495666504
187975,0.842689573764801,-0.9417241215705872,0.0,13.260333061218262
187985,0.8423521518707275,-0.9418728351593018,0.0,13.261815071105957
187995,0.843198835849762,-0.9416679739952087,0.0,13.264341354370117
188005,0.8436996936798096,-0.9432443380355835,0.0,13.264625549316406
188015,0.8454069495201111,-0.9432788491249084,0.0,13.264665603637695
188025,0.8455709218978882,-0.9436944127082825,0.0,13.264958381652832
188035,0.8461640477180481,-0.9441975355148315,0.0,13.265702247619629
188045,0.8457462787628174,-0.9446218609809875,0.0,13.265911102294922
188055,0.8432296514511108,-0.9444252848625183,0.0,13.267191886901855
188065,0.842721700668335,-0.9446901679039001,0.0,13.267049789428711
188075,0.8437666296958923,-0.9438535571098328,0.0,13.266740798950195
188085,0.8440771102905273,-0.9442256093025208,0.0,13.26736068725586
188095,0.8442907333374023,-0.946397602558136,0.0,13.269851684570312
188105,0.8438910245895386,-0.9457619786262512,0.0,13.271021842956543
188115,0.8456677794456482,-0.9445925951004028,0.0,13.271285057067871
188125,0.8458377718925476,-0.9429212212562561,0.0,13.272549629211426
188135,0.8470876216888428,-0.9422072172164917,0.0,13.272133827209473
188145,0.8472037315368652,-0.9419183731079102,0.0,13.272784233093262
188155,0.8476399779319763,-0.9427047371864319,0.0,13.274642944335938
188165,0.8493058681488037,-0.9426361918449402,0.0,13.275286674499512
188175,0.8507141470909119,-0.9429582953453064,0.0,13.275777816772461
188185,0.8489865660667419,-0.9439692497253418,0.0,13.276762008666992
188195,0.8477352857589722,-0.9449116587638855,0.0,13.277420043945312
188205,0.8473634719848633,-0.9447980523109436,0.0,13.277151107788086
188215,0.8489565253257751,-0.9458826780319214,0.0,13.277816772460938
188225,0.8499135971069336,-0.9452880024909973,0.0,13.277362823486328
188235,0.8511101603507996,-0.945393979549408,0.0,13.27752685546875
188245,0.8523262143135071,-0.9449400305747986,0.0,13.275775909423828
188255,0.8519344329833984,-0.9453328251838684,0.0,13.276511192321777
188265,0.8517312407493591,-0.9445936679840088,0.0,13.277854919433594
188275,0.8527800440788269,-0.944573700428009,0.0,13.276899337768555
188285,0.8530429601669312,-0.9443802237510681,0.0,13.277161598205566
188295,0.8531597256660461,-0.9436098337173462,0.0,13.277108192443848
188305,0.8529161214828491,-0.9442024230957031,0.0,13.27689266204834
188315,0.852971076965332,-0.9457678198814392,0.0,13.276599884033203
188325,0.8540390729904175,-0.9458640813827515,0.0,13.276786804199219
188335,0.8550274968147278,-0.9464476704597473,0.0,13.276968002319336
188345,0.8563217520713806,-0.9461466073989868,0.0,13.277081489562988
188355,0.8566962480545044,-0.9465346336364746,0.0,13.276660919189453
188365,0.8569110035896301,-0.948727011680603,0.0,13.278099060058594
188375,0.8578162789344788,-0.9476838111877441,0.0,13.279397010803223
188385,0.8558430075645447,-0.9471012353897095,0.0,13.279695510864258
188395,0.8556683659553528,-0.9468866586685181,0.0,13.279796600341797
188405,0.8563222885131836,-0.9453521966934204,0.0,13.279577255249023
188415,0.8558885455131531,-0.9459318518638611,0.0,13.280158996582031
188425,0.8570936918258667,-0.9457605481147766,0.0,13.28077220916748
188435,0.8580094575881958,-0.9445639252662659,0.0,13.280491828918457
188445,0.8572518825531006,-0.9447963833808899,0.0,13.282249450683594
188455,0.8584910035133362,-0.9437379837036133,0.0,13.28261947631836
188465,0.857300341129303,-0.9447194337844849,0.0,13.283919334411621
188475,0.8575555682182312,-0.9447756409645081,0.0,13.284058570861816
188485,0.8584476709365845,-0.9450385570526123,0.0,13.283594131469727
188495,0.8593238592147827,-0.9458885192871094,0.0,13.284031867980957
188505,0.8607082962989807,-0.9459543228149414,0.0,13.283045768737793
188515,0.8616943359375,-0.945692241191864,0.0,13.28271770477295
188525,0.8636850714683533,-0.945563018321991,0.0,13.282158851623535
188535,0.8639378547668457,-0.945981502532959,0.0,13.283028602600098
188545,0.8660504817962646,-0.9470564126968384,0.0,13.282905578613281
188555,0.8651144504547119,-0.9477930068969727,0.0,13.282768249511719
